source;hotel_name;external_city;external_country;external_lat;external_lon;db_city;db_country;db_lat;db_lon;distance_km;status
"Folha 1 (hoteis - Folha1.csv)";"Les Suites Orient, Bund Shanghai";"Shanghai";"China";31.2336424;121.4882742;"Xangai";"China";37.09103;-8.217216;10793.25;DISCREPANCY
"Folha 1 (hoteis - Folha1.csv)";"Las Casas Filipinas de Acuzar";"Luzon";"Philippines";14.6013756;120.3854025;"Bataan";"China";14.6436;120.4658;9.84;DISCREPANCY
"Folha 1 (hoteis - Folha1.csv)";"White Swan Hotel";"Guangzhou";"China";23.1086755;113.2371984;"Alnwick";"Internacional";55.41334;-1.707235;9350.67;DISCREPANCY
"Folha 1 (hoteis - Folha1.csv)";"Millennium Hotel";"Chengdu";"China";30.6154568;104.0464841;"Mbarara";"Uganda";-0.4180848;30.57374;8456.24;DISCREPANCY
"Folha 1 (hoteis - Folha1.csv)";"Lemon Tree Premier-Mumbai International Airport";"Mumbai";"India";19.108247;72.8822827;"Chhatrapati Shivaji Maharaj International Airport";"Índia";37.11314;-8.675184;8011.84;DISCREPANCY
"Folha 1 (hoteis - Folha1.csv)";"Hilton Mumbai International Airport";"Mumbai";"India";19.1043735;72.8709317;"Chhatrapati Shivaji Maharaj International Airport";"Índia";37.11314;-8.675184;8011.09;DISCREPANCY
"Folha 1 (hoteis - Folha1.csv)";"Hilton Chennai";"Chennai (Madras)";"India";13.016676;80.2047663;"Chennai/South";"Índia";37.09014;-8.678213;9041.94;DISCREPANCY
"Folha 1 (hoteis - Folha1.csv)";"Hotel Universal Port";"Osaka";"Japan";34.6661009;135.4378877;"Osaka";"Japão";34.69376;135.5014;6.57;DISCREPANCY
"Folha 1 (hoteis - Folha1.csv)";"Hotel Keihan Universal Tower";"Osaka";"Japan";34.6678256;135.4379826;"Osaka";"Japão";34.69376;135.5014;6.48;DISCREPANCY
"Folha 1 (hoteis - Folha1.csv)";"Holiday Inn Tianjin Riverside";"Tianjin";"China";39.1518681;117.1838906;"Tianjin";"China";39.08441;117.1957;7.57;DISCREPANCY
"Folha 1 (hoteis - Folha1.csv)";"Raintree Lodge";"Kochi (Cochin)";"India";9.9644416;76.2415742;"Suva";"Internacional";-18.14159;178.4422;11628.42;DISCREPANCY
"Folha 1 (hoteis - Folha1.csv)";"Royal Park Hotel";"Hong Kong";"China";22.3797478;114.1885585;"Piracicaba";"Brasil";-22.72516;-47.64933;18150.76;DISCREPANCY
"Folha 1 (hoteis - Folha1.csv)";"Hotel Moonlight";"Kathmandu";"Nepal";27.7175128;85.3091028;"Antananarivo";"Internacional";-18.91001;47.52558;6589.39;DISCREPANCY
"Folha 1 (hoteis - Folha1.csv)";"Hotel Shambala";"Kathmandu";"Nepal";27.7416201;85.3383673;"Siddharthanagar";"Internacional";27.51163;83.45288;187.50;DISCREPANCY
"Folha 1 (hoteis - Folha1.csv)";"Green Hotel";"Vung Tau";"Vietnam";10.337459;107.0909249;"Atyrau";"Internacional";47.10672;51.9139;6569.49;DISCREPANCY
"Folha 1 (hoteis - Folha1.csv)";"City Hotel";"Krabi Town";"Thailand";8.0649044;98.9162048;"Balikpapan";"Indonésia";-1.239871;116.8593;2242.36;DISCREPANCY
"Folha 1 (hoteis - Folha1.csv)";"The Ummed Ahmedabad";"Ahmedabad";"India";23.0823961;72.6165176;"Ahmedabad/North Zone";"Índia";37.08452;-8.256735;7710.31;DISCREPANCY
"Folha 1 (hoteis - Folha1.csv)";"Grand Hyatt Incheon";"Incheon";"South Korea";37.4405857;126.457555;"Yeongjong Island";"Coreia do Sul";37.09103;-8.217216;10509.17;DISCREPANCY
"Folha 1 (hoteis - Folha1.csv)";"Best Western Premier Incheon Airport";"Incheon";"South Korea";37.4383392;126.4597822;"Incheon International Airport";"Coreia do Sul";38.70633;-9.393227;10418.53;DISCREPANCY
"Folha 1 (hoteis - Folha1.csv)";"Hilton Foshan";"Foshan";"China";23.1488451;113.315283;"Foshan";"China";22.982;113.118;27.41;DISCREPANCY
"Folha 1 (hoteis - Folha1.csv)";"Green Hotel";"Taichung";"Taiwan";24.1765344;120.6432276;"Atyrau";"Internacional";47.10672;51.9139;6483.92;DISCREPANCY
"Folha 1 (hoteis - Folha1.csv)";"Shangri-La's Rasa Sayang Resort & Spa";"Penang Island";"Malaysia";5.4791422;100.2539368;"Batu Ferringhi";"Malásia";5.470886;100.2486;1.09;DISCREPANCY
"Folha 1 (hoteis - Folha1.csv)";"Eden Resort";"Phu Quoc Island";"Vietnam";10.1796395;103.9686794;"Albufeira";"Portugal";37.08824;-8.252634;11227.73;DISCREPANCY
"Folha 1 (hoteis - Folha1.csv)";"The Grand Hotel";"Nuwara Eliya";"Sri Lanka";6.9684284;80.7646053;"Eastbourne";"Reino Unido";50.7597;0.283218;8739.00;DISCREPANCY
"Folha 1 (hoteis - Folha1.csv)";"Temple Tree Resort & Spa";"Pokhara";"Nepal";28.2060046;83.9634612;"Bentota";"Internacional";6.421527;79.99786;2458.07;DISCREPANCY
"Folha 1 (hoteis - Folha1.csv)";"Shiva guest house";"Varanasi";"India";25.30538;83.0090194;"Bir";"Internacional";32.04453;76.72551;967.68;DISCREPANCY
"Folha 1 (hoteis - Folha1.csv)";"Anantara Rasananda Koh Phangan Villas";"Ko Pha Ngan";"Thailand";9.779449;100.0553677;"Thong Nai Pan";"Internacional";37.09103;-8.217216;10928.37;DISCREPANCY
"Folha 1 (hoteis - Folha1.csv)";"Milky Bay Resort";"Ko Pha Ngan";"Thailand";9.7028232;100.0115238;"Ban Tai";"Internacional";9.729226;100.0461;4.79;DISCREPANCY
"Folha 1 (hoteis - Folha1.csv)";"Strand Hotel";"Singapore";"Singapore";1.2986535;103.8497382;"Bray (Ireland)";"Irlanda";53.20146;-6.110505;11201.31;DISCREPANCY
"Folha 1 (hoteis - Folha1.csv)";"Hotel Royal";"Singapore";"Singapore";1.3168306;103.8418595;"Kinshasa";"Internacional";-4.32171;15.31225;9855.59;DISCREPANCY
"Folha 1 (hoteis - Folha1.csv)";"Yak Hotel";"Lhasa";"China";29.6556765;91.1310198;"Lhasa";"China";29.65421;91.1173;1.34;DISCREPANCY
"Folha 1 (hoteis - Folha1.csv)";"Crown Hotel";"Jinghong";"China";22.0026076;100.7974654;"Pokhara";"Internacional";28.20954;83.9914;1825.24;DISCREPANCY
"Folha 1 (hoteis - Folha1.csv)";"Crown Prince Hotel";"Surabaya";"Indonesia";-7.2713707;112.7420315;"Bagan";"Portugal";21.13171;94.86237;3712.88;DISCREPANCY
"Folha 1 (hoteis - Folha1.csv)";"UZ Hostel";"New Taipei";"Taiwan";25.0523808;121.5343176;"Banqiao";"Internacional";29.89193;104.3641;1775.20;DISCREPANCY
"Folha 1 (hoteis - Folha1.csv)";"Edelweiss";"Almaty";"Kazakhstan";43.1713978;77.0378434;"Engelberg";"Suíça";46.82233;8.40484;5237.02;DISCREPANCY
"Folha 1 (hoteis - Folha1.csv)";"Grand Hyatt Fukuoka";"Fukuoka";"Japan";33.5898463;130.4103863;"Fukuoka";"Japão";33.62513;130.618;19.62;DISCREPANCY
"Folha 1 (hoteis - Folha1.csv)";"The Crown";"Bhubaneswar";"India";20.2922384;85.8185448;"Uppingham";"Internacional";52.58823;-0.721444;8000.41;DISCREPANCY
"Folha 1 (hoteis - Folha1.csv)";"Hotel Atithi";"Pondicherry";"India";11.9421869;79.8308845;"Asansol";"Índia";23.68713;86.97466;1508.25;DISCREPANCY
"Folha 1 (hoteis - Folha1.csv)";"Hotel du Parc";"Pondicherry";"India";11.9351625;79.8338285;"Túnis";"Tunísia";36.80021;10.18578;7411.16;DISCREPANCY
"Folha 1 (hoteis - Folha1.csv)";"Cedar Inn";"Darjeeling";"India";27.0340479;88.2632086;"Geneva (New York)";"Suíça";46.20176;6.146601;7297.77;DISCREPANCY
"Folha 1 (hoteis - Folha1.csv)";"Hotel Atithi";"Guwahati";"India";26.1784673;91.7509588;"Asansol";"Índia";23.68713;86.97466;555.52;DISCREPANCY
"Folha 1 (hoteis - Folha1.csv)";"Millennium Hotel";"Yangon (Rangoon)";"Myanmar";16.7697;96.1737419;"Mbarara";"Uganda";-0.4180848;30.57374;7431.44;DISCREPANCY
"Folha 1 (hoteis - Folha1.csv)";"Seagull Hotel";"Quy Nhon";"Vietnam";13.7564276;109.2185593;"Cox's Bazar";"Internacional";21.42498;91.9762;2014.56;DISCREPANCY
"Folha 1 (hoteis - Folha1.csv)";"Milano Tourist Rest";"Anuradhapura";"Sri Lanka";8.3192937;80.4059544;"Anuradhapura";"Internacional";37.09103;-8.217216;9329.51;DISCREPANCY
"Folha 1 (hoteis - Folha1.csv)";"La Bila Dive Resort";"Karangasem";"Indonesia";-8.3357729;115.6489516;"Amed";"Internacional";37.91622;40.23635;9321.30;DISCREPANCY
"Folha 1 (hoteis - Folha1.csv)";"Dolce Vita";"Puerto Princesa";"Philippines";9.7522276;118.7507434;"Hawassa";"Internacional";7.048103;38.47861;8815.25;DISCREPANCY
"Folha 1 (hoteis - Folha1.csv)";"Teddy Bear Hotel";"Emeishan";"China";29.5693419;103.4488822;"Baoguo";"Internacional";18.57741;109.2935;1358.01;DISCREPANCY
"Folha 1 (hoteis - Folha1.csv)";"J Hotel";"Johor Bahru";"Malaysia";1.459428;103.7648309;"Ao Nang";"Tailândia";7.721173;98.76554;889.68;DISCREPANCY
"Folha 1 (hoteis - Folha1.csv)";"Fountain Hotel";"Mahabaleshwar";"India";17.9172622;73.6601319;"Lakeside (Ohio)";"Estados Unidos";42.62146;-95.17448;13186.93;DISCREPANCY
"Folha 1 (hoteis - Folha1.csv)";"Spring Hotel";"Can Tho";"Vietnam";10.0238335;105.7713908;"Can Tho";"Vietname";10.0362;105.7873;2.22;DISCREPANCY
"Folha 1 (hoteis - Folha1.csv)";"White Sand Beach Resort";"Ko Chang";"Thailand";12.1167001;102.2649786;"Ko Chang";"Tailândia";9.832075;98.45298;487.51;DISCREPANCY
"Folha 1 (hoteis - Folha1.csv)";"Ambassador Hotel";"Bishkek";"Kyrgyzstan";42.8689525;74.6019118;"Hargeisa";"Internacional";9.5221;44.07272;4745.77;DISCREPANCY
"Folha 1 (hoteis - Folha1.csv)";"Grand Hotel";"Bishkek";"Kyrgyzstan";42.881819;74.5833549;"Bhamo";"Internacional";24.25858;97.22839;2929.45;DISCREPANCY
"Folha 1 (hoteis - Folha1.csv)";"Garden Hotel";"Bishkek";"Kyrgyzstan";42.8522913;74.6145834;"Cala Millor";"Internacional";39.60469;3.384808;5784.98;DISCREPANCY
"Folha 1 (hoteis - Folha1.csv)";"Art Hostel";"Tashkent";"Uzbekistan";41.2987109;69.2625359;"Sófia";"Bulgária";42.6977;23.32174;3752.26;DISCREPANCY
"Folha 1 (hoteis - Folha1.csv)";"Villa Jacaranda";"Varkala";"India";8.7310386;76.7083181;"Varkala";"Internacional";37.09937;-8.128007;8967.54;DISCREPANCY
"Folha 1 (hoteis - Folha1.csv)";"My Place";"Naha";"Japan";26.226707;127.681713;"Nis";"Sérvia";43.31627;21.92123;9203.34;DISCREPANCY
"Folha 1 (hoteis - Folha1.csv)";"Oasis  Hotel";"Geoje";"South Korea";34.8856601;128.6039197;"Banda Aceh";"Indonésia";5.552845;95.31929;4720.34;DISCREPANCY
"Folha 1 (hoteis - Folha1.csv)";"Lighthouse Hotel";"Geoje";"South Korea";34.8635868;128.7296065;"Galle";"Internacional";6.0423;80.1948;5904.06;DISCREPANCY
"Folha 1 (hoteis - Folha1.csv)";"Water Garden Sigiriya";"Sigiriya";"Sri Lanka";7.992271;80.7453207;"Sigiriya";"Índia";14.06464;100.6145;2269.77;DISCREPANCY
"Folha 1 (hoteis - Folha1.csv)";"The Nest";"Canacona";"India";15.0072546;74.0265732;"Francistown";"Portugal";-21.16636;27.50252;6476.84;DISCREPANCY
"Folha 1 (hoteis - Folha1.csv)";"J Hotel";"Ulaanbaatar";"Mongolia";47.9138455;106.9296021;"Ao Nang";"Tailândia";8.032828;98.82365;4500.05;DISCREPANCY
"Folha 1 (hoteis - Folha1.csv)";"Koh Tao Coral Grand Resort";"Koh Tao";"Thailand";10.1037137;99.8279338;"Ko Tao";"Tailândia";10.09218;99.83954;1.81;DISCREPANCY
"Folha 1 (hoteis - Folha1.csv)";"Green Hotel";"Hai Phong";"Vietnam";20.6377793;106.4092201;"Atyrau";"Internacional";47.10672;51.9139;5680.58;DISCREPANCY
"Folha 1 (hoteis - Folha1.csv)";"Royal Hotel";"Bogor";"Indonesia";-6.6026831;106.7950501;"Dead Sea (Israel and the West Bank)";"Jordânia";31.64063;35.57468;8646.96;DISCREPANCY
"Folha 1 (hoteis - Folha1.csv)";"Savoy Hotel";"Daegu";"South Korea";35.872412;128.591125;"Piraeus";"Internacional";37.94316;23.64706;8753.84;DISCREPANCY
"Folha 1 (hoteis - Folha1.csv)";"Paradise Hotel";"Udon Thani";"Thailand";17.3998037;102.799402;"Bhamo";"Internacional";24.25858;97.22839;957.22;DISCREPANCY
"Folha 1 (hoteis - Folha1.csv)";"Baia Do sol";"Baga";"India";15.5627504;73.7489731;"Baga";"Índia";13.09635;13.82156;6441.47;DISCREPANCY
"Folha 1 (hoteis - Folha1.csv)";"ABC Hotel";"Angeles City";"Philippines";15.1670108;120.5895911;"Mantua";"Itália";38.85372;-77.25943;13727.82;DISCREPANCY
"Folha 1 (hoteis - Folha1.csv)";"Trinco Blu By Cinnamon";"Trincomalee";"Sri Lanka";8.6181358;81.2179202;"Trincomalee";"Internacional";40.38388;-7.942915;9317.38;DISCREPANCY
"Folha 1 (hoteis - Folha1.csv)";"Coron Ecolodge";"Busuanga Island";"Philippines";11.9982547;120.2044556;"Coronel Fabriciano";"Brasil";-19.52001;-42.62827;17998.46;DISCREPANCY
"Folha 1 (hoteis - Folha1.csv)";"Hotel Swagat";"Mount Abu";"India";24.591627;72.7134095;"Bhavnagar";"Índia";21.77345;72.14673;318.67;DISCREPANCY
"Folha 1 (hoteis - Folha1.csv)";"Hotel Excelsior";"Karachi";"Pakistan";24.8564257;67.0301185;"São Paulo/Centro Histórico";"Brasil";-23.55065;-46.63338;13356.66;DISCREPANCY
"Folha 1 (hoteis - Folha1.csv)";"Hotel Aurora";"Mandalay";"Myanmar";21.9831127;96.074495;"Amalfi";"Itália";6.90701;-75.07359;16660.91;DISCREPANCY
"Folha 1 (hoteis - Folha1.csv)";"Hotel Sahara";"Mandalay";"Myanmar";21.9827882;96.0842006;"M'Hamid";"Marrocos";29.82866;-5.723405;9870.03;DISCREPANCY
"Folha 1 (hoteis - Folha1.csv)";"Hotel Imperial";"Ujjain";"India";23.1681754;75.773379;"Vladikavkaz";"Rússia";43.02459;44.68211;3606.66;DISCREPANCY
"Folha 1 (hoteis - Folha1.csv)";"Garden Hotel";"Datong";"China";40.0890374;113.2949447;"Bangor (Wales)";"Irlanda";54.15485;-9.721192;8213.41;DISCREPANCY
"Folha 1 (hoteis - Folha1.csv)";"Coron Village Lodge";"Coron";"Philippines";11.9991399;120.2070322;"Coronel Fabriciano";"Brasil";-19.52001;-42.62827;17998.75;DISCREPANCY
"Folha 1 (hoteis - Folha1.csv)";"Le Bokor Palace";"Kampot";"Cambodia";10.6221056;104.0266663;"Bokor National Park";"Internacional";37.11314;-8.675184;11233.65;DISCREPANCY
"Folha 1 (hoteis - Folha1.csv)";"The Columns";"Kampot";"Cambodia";10.6068935;104.1808635;"Columbia (Missouri)";"Estados Unidos";34.00076;-81.03523;15024.40;DISCREPANCY
"Folha 1 (hoteis - Folha1.csv)";"ALTA Cebu Resort";"Mactan Island";"Philippines";10.2672788;123.9434189;"Córdova";"Espanha";37.88458;-4.776014;12465.63;DISCREPANCY
"Folha 1 (hoteis - Folha1.csv)";"Shin Yokohama Prince Hotel";"Yokohama";"Japan";35.5100187;139.6195177;"Yokohama";"Japão";35.45034;139.6344;6.77;DISCREPANCY
"Folha 1 (hoteis - Folha1.csv)";"La Bila Dive Resort";"Amed";"Indonesia";-8.3357729;115.6489516;"Amed";"Internacional";37.91622;40.23635;9321.30;DISCREPANCY
"Folha 1 (hoteis - Folha1.csv)";"Cinnamon Bentota Beach";"Bentota";"Sri Lanka";6.4246917;79.9971408;"Bentota";"Internacional";40.64246;-8.747709;9437.22;DISCREPANCY
"Folha 1 (hoteis - Folha1.csv)";"City Hotel";"Samarkand";"Uzbekistan";39.6429538;66.9601107;"Thimphu";"Internacional";27.47136;89.63367;2487.86;DISCREPANCY
"Folha 1 (hoteis - Folha1.csv)";"Anantara Layan Phuket Resort";"Choeng Thale";"Thailand";8.0356405;98.2845141;"Bang Thao";"Internacional";27.32905;88.61227;2374.70;DISCREPANCY
"Folha 1 (hoteis - Folha1.csv)";"Park Residency";"Kozhikode";"India";11.3066824;75.8789336;"Ramanattukara";"Internacional";37.09937;-8.128007;8725.20;DISCREPANCY
"Folha 1 (hoteis - Folha1.csv)";"Beach Hotel";"Kozhikode";"India";11.2523698;75.7712899;"Aqaba";"Internacional";29.52665;35.00754;4675.96;DISCREPANCY
"Folha 1 (hoteis - Folha1.csv)";"Siladen Resort & Spa";"Manado";"Indonesia";1.6321626;124.8004402;"Bunaken";"Indonésia";1.552738;124.8388;9.81;DISCREPANCY
"Folha 1 (hoteis - Folha1.csv)";"Hilton Tokyo Odaiba";"Minato";"Japan";35.6262888;139.7706538;"Tokyo/Odaiba";"Japão";35.69226;139.6916;10.24;DISCREPANCY
"Folha 1 (hoteis - Folha1.csv)";"Dubai Hotel";"Gwangju";"South Korea";35.162437;126.90682;"Naviraí";"Brasil";-23.06222;-54.20183;18665.33;DISCREPANCY
"Folha 1 (hoteis - Folha1.csv)";"Uluwatu Cottages";"Pecatu";"Indonesia";-8.8142994;115.0922216;"Bukit Peninsula";"Indonésia";41.24117;-81.55262;16054.80;DISCREPANCY
"Folha 1 (hoteis - Folha1.csv)";"Grand Park Hotel";"Nakhon Si Thammarat";"Thailand";8.4392051;99.9644953;"Barisal";"Internacional";22.70475;90.37073;1888.20;DISCREPANCY
"Folha 1 (hoteis - Folha1.csv)";"Lotus 2 Guest House";"Magelang";"Indonesia";-7.6063788;110.2127974;"Borobudur";"Internacional";-7.601341;110.2008;1.44;DISCREPANCY
"Folha 1 (hoteis - Folha1.csv)";"Amanjiwo";"Magelang";"Indonesia";-7.6316765;110.2019995;"Borobudur";"Internacional";-7.603103;110.2041;3.19;DISCREPANCY
"Folha 1 (hoteis - Folha1.csv)";"Dream Hostel";"Ha Giang";"Vietnam";22.8212983;104.9845376;"Tampere";"Finlândia";61.49617;23.77901;7329.39;DISCREPANCY
"Folha 1 (hoteis - Folha1.csv)";"The Tower Hotel";"London";"United Kingdom (UK)";51.5066195;-0.0731941;"Harwich (England)";"Reino Unido";51.93635;1.27582;104.49;DISCREPANCY
"Folha 1 (hoteis - Folha1.csv)";"Hotel Lisboa";"Lisbon";"Portugal";38.7222411;-9.1463048;"Badajoz";"Espanha";38.87819;-6.970111;189.38;DISCREPANCY
"Folha 1 (hoteis - Folha1.csv)";"Hotel De Paris";"Anapa";"Russia";44.897959;37.3224163;"Amsterdam/Jordaan";"Holanda";52.36578;4.879771;2499.70;DISCREPANCY
"Folha 1 (hoteis - Folha1.csv)";"Hotel Regina";"Madrid";"Spain";40.4179496;-3.6998271;"Lausanne";"Suíça";46.52163;6.6312;1073.48;DISCREPANCY
"Folha 1 (hoteis - Folha1.csv)";"Freedom Hostel Budva";"Budva Municipality";"Montenegro";42.2784679;18.8384846;"Budva";"Montenegro";42.28857;18.84195;1.16;DISCREPANCY
"Folha 1 (hoteis - Folha1.csv)";"Hotel Park";"Split";"Croatia";43.5031391;16.4482563;"Široki Brijeg";"Internacional";43.38319;17.59291;93.37;DISCREPANCY
"Folha 1 (hoteis - Folha1.csv)";"Hotel Abba";"Amsterdam";"The Netherlands";52.3627648;4.8745728;"Amsterdam/West";"Holanda";5.5;10.66667;5237.94;DISCREPANCY
"Folha 1 (hoteis - Folha1.csv)";"Hotel Eden";"Rimini";"Italy";44.1477832;12.4663277;"Oruro";"Bolívia";-17.97014;-67.11517;10591.05;DISCREPANCY
"Folha 1 (hoteis - Folha1.csv)";"Hotel More";"Dubrovnik";"Croatia";42.6481807;18.1029366;"Alcúdia";"Internacional";39.85213;3.122336;1288.49;DISCREPANCY
"Folha 1 (hoteis - Folha1.csv)";"Ariston Hotel";"Dubrovnik";"Croatia";42.6593072;18.0589322;"Estocolmo";"Suécia";59.32512;18.07109;1853.15;DISCREPANCY
"Folha 1 (hoteis - Folha1.csv)";"Hotel America";"Porto";"Portugal";41.1551452;-8.6045745;"Praia da Vitória";"Portugal";38.73104;-27.06035;1593.16;DISCREPANCY
"Folha 1 (hoteis - Folha1.csv)";"The Manhattan";"Blackpool";"United Kingdom (UK)";53.8236698;-3.0523139;"Athens (Georgia)";"Grécia";33.95977;-83.3764;6424.62;DISCREPANCY
"Folha 1 (hoteis - Folha1.csv)";"The Imperial Hotel";"Blackpool";"United Kingdom (UK)";53.8273644;-3.0545048;"Exmouth (England)";"Reino Unido";50.61687;-3.41469;357.83;DISCREPANCY
"Folha 1 (hoteis - Folha1.csv)";"Mediteran";"Zadar";"Croatia";44.1368575;15.2212708;"Široki Brijeg";"Internacional";43.38319;17.59291;208.08;DISCREPANCY
"Folha 1 (hoteis - Folha1.csv)";"Castle Inn";"Warsaw";"Poland";52.248216;21.0139399;"Bakewell";"Internacional";53.21432;-1.673645;1524.99;DISCREPANCY
"Folha 1 (hoteis - Folha1.csv)";"Hotel Royal";"Vienna";"Austria";48.2078844;16.3723234;"Kinshasa";"Internacional";-4.32171;15.31225;5841.94;DISCREPANCY
"Folha 1 (hoteis - Folha1.csv)";"Hotel Regina";"Vienna";"Austria";48.2162554;16.3596582;"Lausanne";"Suíça";46.52183;6.632702;755.79;DISCREPANCY
"Folha 1 (hoteis - Folha1.csv)";"Hotel Internazionale";"Bologna";"Italy";44.5010259;11.3441442;"Bellinzona";"Suíça";46.19205;9.020589;261.38;DISCREPANCY
"Folha 1 (hoteis - Folha1.csv)";"Panorama Hotel";"Bologna";"Italy";44.4951319;11.3395463;"Kalamata";"Grécia";37.0091;22.1552;1232.09;DISCREPANCY
"Folha 1 (hoteis - Folha1.csv)";"Hotel Oasis";"Lefkada";"Greece";38.7230816;20.7256407;"Niamey";"Níger";13.52483;2.109823;3346.94;DISCREPANCY
"Folha 1 (hoteis - Folha1.csv)";"Hilton Malta";"Island of Malta";"Malta";35.9221359;14.4936246;"Northern Harbor of Malta";"Internacional";37.11314;-8.675184;2069.57;DISCREPANCY
"Folha 1 (hoteis - Folha1.csv)";"Hotel Valentina";"Island of Malta";"Malta";35.9226486;14.4913281;"Timisoara";"Romênia";45.75383;21.22575;1230.16;DISCREPANCY
"Folha 1 (hoteis - Folha1.csv)";"Rembrandt Hotel";"Bucharest";"Romania";44.4323329;26.1000788;"Atsugi";"Estados Unidos";35.44297;139.3625;8879.06;DISCREPANCY
"Folha 1 (hoteis - Folha1.csv)";"Capitol Hotel";"Bucharest";"Romania";44.4354765;26.09759;"Jerusalém";"Israel";31.78491;35.23091;1615.35;DISCREPANCY
"Folha 1 (hoteis - Folha1.csv)";"Hotel Adriatic";"Rovinj";"Croatia";45.0819185;13.6341347;"Zadar";"Croácia";44.11686;15.23533;166.09;DISCREPANCY
"Folha 1 (hoteis - Folha1.csv)";"Hotel Central";"Sarajevo";"Bosnia and Herzegovina";43.8578887;18.4260228;"Sófia";"Bulgária";42.69807;23.31565;416.24;DISCREPANCY
"Folha 1 (hoteis - Folha1.csv)";"Hotel Dali";"Constanta";"Romania";44.1824928;28.652346;"Áustria";"Áustria";43.7604;11.30066;1386.79;DISCREPANCY
"Folha 1 (hoteis - Folha1.csv)";"Something Else";"Naxos";"Greece";37.0689144;25.3569734;"Doylestown (Pennsylvania)";"Estados Unidos";40.31004;-75.13046;8204.81;DISCREPANCY
"Folha 1 (hoteis - Folha1.csv)";"Riviera";"Kazan";"Russia";55.8153887;49.1300314;"Araçatuba";"Brasil";-21.1415;-50.48321;12531.44;DISCREPANCY
"Folha 1 (hoteis - Folha1.csv)";"Hotel Aurora";"Elba Island";"Italy";42.7595546;10.1124517;"Amalfi";"Itália";6.90701;-75.07359;9094.55;DISCREPANCY
"Folha 1 (hoteis - Folha1.csv)";"Hotel Park";"Makarska";"Croatia";43.2997186;17.0134874;"Široki Brijeg";"Internacional";43.38319;17.59291;47.77;DISCREPANCY
"Folha 1 (hoteis - Folha1.csv)";"Hotel zur Post";"Usedom Island";"Germany";53.9707524;14.1433939;"Andechs";"Alemanha";47.96687;11.1848;698.85;DISCREPANCY
"Folha 1 (hoteis - Folha1.csv)";"Villa Bianca";"Isola d'Ischia";"Italy";40.7222466;13.8635312;"Bophut";"Internacional";9.564616;100.0213;8993.59;DISCREPANCY
"Folha 1 (hoteis - Folha1.csv)";"George Hotel";"Lviv";"Ukraine";49.8388551;24.0306279;"Kalamata";"Grécia";37.03781;22.10943;1431.71;DISCREPANCY
"Folha 1 (hoteis - Folha1.csv)";"Savoy Hotel";"Cologne";"Germany";50.9464796;6.9571311;"Piraeus";"Internacional";37.94316;23.64706;1952.08;DISCREPANCY
"Folha 1 (hoteis - Folha1.csv)";"Aria";"Herceg-Novi Municipality";"Montenegro";42.4508103;18.551734;"Boracay";"Filipinas";11.96937;121.9227;10179.23;DISCREPANCY
"Folha 1 (hoteis - Folha1.csv)";"Plaza Hotel";"Salerno";"Italy";40.6750366;14.7713963;"Kalamata";"Grécia";37.02316;22.13157;755.33;DISCREPANCY
"Folha 1 (hoteis - Folha1.csv)";"Casa Maria";"Salerno";"Italy";40.6800129;14.7556368;"Oldrões";"Portugal";41.15147;-8.295824;1931.99;DISCREPANCY
"Folha 1 (hoteis - Folha1.csv)";"Angel Hotel";"Samara";"Russia";53.350872;50.2222957;"Bury St Edmunds";"Internacional";52.24604;0.7125173;3263.47;DISCREPANCY
"Folha 1 (hoteis - Folha1.csv)";"Apollon Hotel";"Kos";"Greece";36.9114018;27.2781267;"Corinth";"Internacional";37.9382;22.9378;399.87;DISCREPANCY
"Folha 1 (hoteis - Folha1.csv)";"Grand Palace Hotel";"Riga";"Latvia";56.9502107;24.1029599;"Gaza";"Internacional";31.51287;34.45814;2938.82;DISCREPANCY
"Folha 1 (hoteis - Folha1.csv)";"Panorama Hotel";"Skiathos";"Greece";39.1520195;23.3983106;"Kalamata";"Grécia";37.0091;22.1552;261.94;DISCREPANCY
"Folha 1 (hoteis - Folha1.csv)";"Atrium Hotel";"Skiathos";"Greece";39.1432336;23.4357324;"Bodrum";"Turquia";37.0344;27.43065;420.91;DISCREPANCY
"Folha 1 (hoteis - Folha1.csv)";"Calypso";"Sukhumi";"Georgia";42.997124;40.996427;"Araçatuba";"Brasil";-21.1415;-50.48321;11706.89;DISCREPANCY
"Folha 1 (hoteis - Folha1.csv)";"Hotel Helvetia";"Jesolo";"Italy";45.4164454;12.3689516;"Bad Schandau";"Alemanha";50.92474;14.2153;627.56;DISCREPANCY
"Folha 1 (hoteis - Folha1.csv)";"Art Hotel";"Wroclaw";"Poland";51.112182;17.0299191;"Medellín";"Colômbia";6.269732;-75.60256;9648.39;DISCREPANCY
"Folha 1 (hoteis - Folha1.csv)";"Hotel Continental";"Sorrento";"Italy";40.6270236;14.3700888;"Kairouan";"Tunísia";35.68589;10.09789;664.18;DISCREPANCY
"Folha 1 (hoteis - Folha1.csv)";"Hotel Miramar";"Sozopol";"Bulgaria";42.3897871;27.7038177;"Beira";"Internacional";-19.83407;34.83581;6957.62;DISCREPANCY
"Folha 1 (hoteis - Folha1.csv)";"Casa del Sol";"Sozopol";"Bulgaria";42.4162017;27.6994763;"Saranac Lake";"Internacional";37.02453;-8.956709;3166.50;DISCREPANCY
"Folha 1 (hoteis - Folha1.csv)";"Hotel Continental";"Genoa";"Italy";44.4167044;8.9233607;"Kairouan";"Tunísia";35.68589;10.09789;975.93;DISCREPANCY
"Folha 1 (hoteis - Folha1.csv)";"Dan Hotel";"Riccione";"Italy";44.0926188;12.5319344;"São Paulo/Higienópolis, Pacaembu, Perdizes e Lapa";"Brasil";-23.55065;-46.63338;9628.59;DISCREPANCY
"Folha 1 (hoteis - Folha1.csv)";"Hotel Ala";"Riccione";"Italy";43.9082175;12.9252469;"Veneza";"Itália";45.43239;12.33271;175.84;DISCREPANCY
"Folha 1 (hoteis - Folha1.csv)";"Palace Hotel";"Bari";"Italy";41.1261961;16.8652691;"Nesvizh";"Bielorrússia";53.24055;26.6026;1531.76;DISCREPANCY
"Folha 1 (hoteis - Folha1.csv)";"Hotel Majestic";"Cervia";"Italy";44.2871484;12.3496449;"Bruneck";"Itália";46.79632;11.93551;280.86;DISCREPANCY
"Folha 1 (hoteis - Folha1.csv)";"Hotel Brasil";"Cervia";"Italy";44.2723667;12.3542531;"Bananal";"Brasil";-22.68202;-44.32218;9409.37;DISCREPANCY
"Folha 1 (hoteis - Folha1.csv)";"Hotel Alexander";"Cervia";"Italy";44.2741006;12.352837;"Puerto Iguazu";"Brasil";-25.53979;-54.58744;10312.99;DISCREPANCY
"Folha 1 (hoteis - Folha1.csv)";"Hotel Mondial";"Tirana";"Albania";41.3267197;19.8026541;"Bamenda";"Internacional";5.956512;10.16085;4047.66;DISCREPANCY
"Folha 1 (hoteis - Folha1.csv)";"Sky Hotel";"Tirana";"Albania";41.3223759;19.8181872;"Nicósia";"Internacional";35.17465;33.36388;1363.87;DISCREPANCY
"Folha 1 (hoteis - Folha1.csv)";"Hotel Excelsior";"Frankfurt";"Germany";50.1055622;8.6642148;"São Paulo/Centro Histórico";"Brasil";-23.55065;-46.63338;9828.00;DISCREPANCY
"Folha 1 (hoteis - Folha1.csv)";"Hotel Eilean Iarmain";"Isle of Skye";"United Kingdom (UK)";57.1453676;-5.7994966;"Armadale (Skye)";"Reino Unido";57.06959;-5.897055;10.28;DISCREPANCY
"Folha 1 (hoteis - Folha1.csv)";"Duisdale House Hotel";"Isle of Skye";"United Kingdom (UK)";57.1567712;-5.802934;"Armadale (Skye)";"Reino Unido";57.06959;-5.897055;11.24;DISCREPANCY
"Folha 1 (hoteis - Folha1.csv)";"Kinloch Lodge";"Isle of Skye";"United Kingdom (UK)";57.175578;-5.7976956;"Broadford";"Internacional";57.24102;-5.90618;9.78;DISCREPANCY
"Folha 1 (hoteis - Folha1.csv)";"Hotel Concordia";"Trogir";"Croatia";43.5156346;16.2484203;"Artigas";"Brasil";43.07504;0.0024053;1313.63;DISCREPANCY
"Folha 1 (hoteis - Folha1.csv)";"Radisson Blu Hotel Lietuva";"Vilnius";"Lithuania";54.6950648;25.2747589;"Vilnius";"Internacional";54.68705;25.28291;1.03;DISCREPANCY
"Folha 1 (hoteis - Folha1.csv)";"Astoria";"Vladivostok";"Russia";43.1271312;131.9016131;"Podgorica";"Internacional";41.38292;-8.74382;9825.91;DISCREPANCY
"Folha 1 (hoteis - Folha1.csv)";"Hotel Palace";"Tallinn";"Estonia";59.4325863;24.7452968;"Banja Luka";"Bósnia e Herzegovina";44.77208;17.19176;1707.26;DISCREPANCY
"Folha 1 (hoteis - Folha1.csv)";"Hilton Tallinn Park";"Tallinn";"Estonia";59.4337363;24.7689341;"Tenet tour";"Itália";37.14127;-8.571671;3430.00;DISCREPANCY
"Folha 1 (hoteis - Folha1.csv)";"Hotel Regina";"Solden";"Austria";46.9610616;11.008701;"Lausanne";"Suíça";46.52183;6.632702;336.97;DISCREPANCY
"Folha 1 (hoteis - Folha1.csv)";"Hotel Amadeus";"Hannover";"Germany";52.4344051;9.8442782;"Veneza";"Itália";45.44267;12.32424;798.14;DISCREPANCY
"Folha 1 (hoteis - Folha1.csv)";"ART Hotel";"Sibiu";"Romania";45.7966285;24.1484939;"Medellín";"Colômbia";6.269732;-75.60256;10256.64;DISCREPANCY
"Folha 1 (hoteis - Folha1.csv)";"Hotel Lido";"Siofok";"Hungary";46.912567;18.0581758;"Genebra";"Suíça";46.20176;6.146601;913.31;DISCREPANCY
"Folha 1 (hoteis - Folha1.csv)";"RiverSide Hotel";"Kaliningrad";"Russia";54.7059292;20.5431361;"Ängelholm";"Suécia";56.24292;12.86194;513.04;DISCREPANCY
"Folha 1 (hoteis - Folha1.csv)";"Hotel Mexico";"Bellaria-Igea Marina";"Italy";44.1583922;12.4543568;"Berastagi";"Indonésia";3.19287;98.50918;9445.63;DISCREPANCY
"Folha 1 (hoteis - Folha1.csv)";"Hotel Mare";"Bellaria-Igea Marina";"Italy";44.2081627;12.394329;"Nazaré (Portugal)";"Portugal";39.60167;-9.07236;1842.83;DISCREPANCY
"Folha 1 (hoteis - Folha1.csv)";"Hotel Italia";"Bellaria-Igea Marina";"Italy";44.0643909;12.582911;"Mantua";"Itália";38.85372;-77.25943;7120.31;DISCREPANCY
"Folha 1 (hoteis - Folha1.csv)";"Hotel Globus";"Bellaria-Igea Marina";"Italy";44.2745653;12.3514423;"Roma";"Itália";41.90627;12.51688;263.68;DISCREPANCY
"Folha 1 (hoteis - Folha1.csv)";"Hotel Augusta";"Bellaria-Igea Marina";"Italy";44.147997;12.4662183;"Garut";"Suíça";-7.18556;107.8857;10994.92;DISCREPANCY
"Folha 1 (hoteis - Folha1.csv)";"Tyddyn Mawr Farmhouse";"Snowdonia National Park";"United Kingdom (UK)";52.7630537;-4.0898703;"Dolgellau";"Reino Unido";52.72031;-3.921543;12.29;DISCREPANCY
"Folha 1 (hoteis - Folha1.csv)";"Azka Otel";"Bodrum City";"Turkey";37.0292819;27.4169375;"Bodrum";"Turquia";37.0344;27.43065;1.34;DISCREPANCY
"Folha 1 (hoteis - Folha1.csv)";"Parkim Ayaz Hotel";"Bodrum City";"Turkey";37.0317767;27.4047413;"Bodrum";"Turquia";37.0344;27.43065;2.32;DISCREPANCY
"Folha 1 (hoteis - Folha1.csv)";"Shanti Hostel";"Skopje";"Republic of North Macedonia";41.994569;21.4443835;"Skopje";"Macedônia do Norte";41.99622;21.43189;1.05;DISCREPANCY
"Folha 1 (hoteis - Folha1.csv)";"Queen's Hotel";"Skopje";"Republic of North Macedonia";41.9926997;21.4199449;"Portsmouth";"Reino Unido";50.80003;-1.090602;1973.23;DISCREPANCY
"Folha 1 (hoteis - Folha1.csv)";"Hotel Continentale";"Trieste";"Italy";45.6503305;13.772825;"Arezzo";"Itália";43.51714;11.76393;285.59;DISCREPANCY
"Folha 1 (hoteis - Folha1.csv)";"Hotel Concordia";"Livigno";"Italy";46.5396081;10.1368417;"Artigas";"Brasil";43.07504;0.0024053;886.58;DISCREPANCY
"Folha 1 (hoteis - Folha1.csv)";"The Queens Hotel";"York";"United Kingdom (UK)";53.7957167;-1.5476616;"Gibraltar";"Internacional";36.12859;-5.347476;1986.39;DISCREPANCY
"Folha 1 (hoteis - Folha1.csv)";"City Hotel";"Mostar";"Bosnia and Herzegovina";43.3521003;17.7985871;"Rovaniemi";"Finlândia";66.5015;25.7296;2618.67;DISCREPANCY
"Folha 1 (hoteis - Folha1.csv)";"Hostel Nina";"Mostar";"Bosnia and Herzegovina";43.3339467;17.8185641;"Mostardas";"Internacional";-31.10538;-50.91669;10829.49;DISCREPANCY
"Folha 1 (hoteis - Folha1.csv)";"Panorama Hotel";"Varna";"Bulgaria";43.1983214;27.9199812;"Kalamata";"Grécia";37.0091;22.1552;844.52;DISCREPANCY
"Folha 1 (hoteis - Folha1.csv)";"Hotel Martinez";"Cannes";"France";43.5482917;7.0310061;"Cannes";"França";43.55152;7.013442;1.46;DISCREPANCY
"Folha 1 (hoteis - Folha1.csv)";"Hotel Vis";"Eforie";"Romania";44.059197;28.636964;"Dubrovnik";"Croácia";42.6491;18.09395;866.09;DISCREPANCY
"Folha 1 (hoteis - Folha1.csv)";"Hotel Victoria";"Eforie";"Romania";44.028868;28.6511274;"Gori";"Geórgia";41.98185;44.11178;1275.64;DISCREPANCY
"Folha 1 (hoteis - Folha1.csv)";"Hotel Talisman";"Sao Miguel";"Portugal";37.7391174;-25.6723081;"São Miguel Arcanjo";"Brasil";37.09103;-8.217216;1541.03;DISCREPANCY
"Folha 1 (hoteis - Folha1.csv)";"Hotel Meridian";"Cluj-Napoca";"Romania";46.7625612;23.5974344;"Kerch";"Ucrânia";45.35634;36.46706;1004.07;DISCREPANCY
"Folha 1 (hoteis - Folha1.csv)";"Hotel Paradis";"Cluj-Napoca";"Romania";46.7801967;23.6132359;"Paris";"França";48.87377;2.349941;1598.97;DISCREPANCY
"Folha 1 (hoteis - Folha1.csv)";"NH Alicante";"Alicante";"Spain";38.3364538;-0.50713;"Alicante";"Espanha";38.34364;-0.4881708;1.84;DISCREPANCY
"Folha 1 (hoteis - Folha1.csv)";"Hotel Kristal";"Durres";"Albania";41.3105756;19.4400445;"Kumanovo";"Macedônia do Norte";42.13591;21.71855;210.18;DISCREPANCY
"Folha 1 (hoteis - Folha1.csv)";"Hotel Arizona";"Lignano Sabbiadoro";"Italy";45.6561679;13.0989963;"Timisoara";"Romênia";45.75383;21.22575;630.89;DISCREPANCY
"Folha 1 (hoteis - Folha1.csv)";"Hotel Europa";"Lignano Sabbiadoro";"Italy";45.592197;12.8703861;"Bamberg";"Alemanha";49.89161;10.88685;500.50;DISCREPANCY
"Folha 1 (hoteis - Folha1.csv)";"Hotel Victoria";"Lyon";"France";45.7481658;4.8285771;"Lyon";"França";45.75781;4.832011;1.10;DISCREPANCY
"Folha 1 (hoteis - Folha1.csv)";"Hotel De Normandie";"Lyon";"France";45.7483224;4.8272994;"Arromanches-les-Bains";"França";49.34002;-0.62125;571.34;DISCREPANCY
"Folha 1 (hoteis - Folha1.csv)";"Hotel Split";"Podstrana";"Croatia";43.4981941;16.5358003;"Glamoč";"Internacional";44.0438;16.84977;65.70;DISCREPANCY
"Folha 1 (hoteis - Folha1.csv)";"Hotel Eden";"Podstrana";"Croatia";43.4955519;16.5369478;"Oruro";"Bolívia";-17.97014;-67.11517;10877.08;DISCREPANCY
"Folha 1 (hoteis - Folha1.csv)";"The Residence";"Podstrana";"Croatia";43.4941654;16.5382015;"Funchal";"Portugal";32.63734;-16.93357;3142.64;DISCREPANCY
"Folha 1 (hoteis - Folha1.csv)";"Hotel Berlin";"Leipzig";"Germany";51.3290498;12.404133;"Bad Fallingbostel";"Internacional";52.86545;9.69302;251.93;DISCREPANCY
"Folha 1 (hoteis - Folha1.csv)";"Grand Hotel";"Stockholm";"Sweden";59.3296107;18.0754902;"Hartlepool";"Reino Unido";54.68568;-1.213047;1271.03;DISCREPANCY
"Folha 1 (hoteis - Folha1.csv)";"Haymarket by Scandic";"Stockholm";"Sweden";59.3346725;18.0615011;"Stockholm Main Street";"Internacional";40.34389;-8.595845;2810.71;DISCREPANCY
"Folha 1 (hoteis - Folha1.csv)";"Hotel Diplomat";"Stockholm";"Sweden";59.3319653;18.0805298;"Túnis";"Tunísia";36.81346;10.17725;2567.70;DISCREPANCY
"Folha 1 (hoteis - Folha1.csv)";"Hotel Viktoria";"Oberstdorf";"Germany";47.4332107;10.2877077;"Tirana";"Albânia";41.29125;19.85349;1020.74;DISCREPANCY
"Folha 1 (hoteis - Folha1.csv)";"Hotel Adler";"Oberstdorf";"Germany";47.2704162;10.1362885;"Appenzell";"Suíça";47.32995;9.409931;55.17;DISCREPANCY
"Folha 1 (hoteis - Folha1.csv)";"Peak District Holiday Cottage";"Peak District National Park";"United Kingdom (UK)";53.2206955;-1.7897766;"Buxton";"Reino Unido";53.25934;-1.910077;9.09;DISCREPANCY
"Folha 1 (hoteis - Folha1.csv)";"Adlerhof";"Salzburg";"Austria";47.8135641;13.0417719;"Tauberbischofsheim";"Internacional";49.62373;9.65895;319.48;DISCREPANCY
"Folha 1 (hoteis - Folha1.csv)";"Hotel Amadeus";"Salzburg";"Austria";47.8041754;13.047892;"Veneza";"Itália";45.44267;12.32424;268.34;DISCREPANCY
"Folha 1 (hoteis - Folha1.csv)";"Hotel Imperial";"Karlovy Vary";"Czech Republic";50.2195897;12.8863566;"Vilnius";"Internacional";54.68705;25.28291;973.92;DISCREPANCY
"Folha 1 (hoteis - Folha1.csv)";"Apollo Hotel";"Bratislava";"Slovakia";48.1499063;17.1334083;"Basingstoke";"Reino Unido";51.26283;-1.086198;1351.21;DISCREPANCY
"Folha 1 (hoteis - Folha1.csv)";"Hotel Adriatic";"Biograd na Moru";"Croatia";43.9346285;15.4441607;"Zadar";"Croácia";44.11686;15.23533;26.26;DISCREPANCY
"Folha 1 (hoteis - Folha1.csv)";"Paradise Beach";"Sveti Vlas";"Bulgaria";42.7044083;27.799302;"Gokarna";"Índia";37.09937;-8.128007;3103.00;DISCREPANCY
"Folha 1 (hoteis - Folha1.csv)";"Hotel Post";"St. Anton am Arlberg";"Austria";47.1288403;10.2654912;"Schaan";"Internacional";51.11225;6.487717;521.16;DISCREPANCY
"Folha 1 (hoteis - Folha1.csv)";"Hotel Panorama";"Sibenik";"Croatia";43.7617239;15.8460463;"Krujë";"Albânia";41.51125;19.79285;408.40;DISCREPANCY
"Folha 1 (hoteis - Folha1.csv)";"Hotel Niko";"Sibenik";"Croatia";43.6957503;15.8816002;"Zadar";"Croácia";44.11686;15.23533;69.81;DISCREPANCY
"Folha 1 (hoteis - Folha1.csv)";"Barcelo Marbella";"Marbella";"Spain";36.4835683;-5.006139;"Puerto Banús";"Espanha";41.79211;-6.767337;609.47;DISCREPANCY
"Folha 1 (hoteis - Folha1.csv)";"Hotel Villa Aurora";"Crikvenica";"Croatia";45.1807938;14.6863228;"Bad Neuenahr-Ahrweiler";"Internacional";50.54309;7.134441;819.51;DISCREPANCY
"Folha 1 (hoteis - Folha1.csv)";"Hotel Wodnik";"Leba";"Poland";54.7650436;17.565113;"Bełchatów";"Polónia";51.36673;19.36946;396.61;DISCREPANCY
"Folha 1 (hoteis - Folha1.csv)";"Montagu Arms Hotel";"New Forest National Park Hampshire";"United Kingdom (UK)";50.8182946;-1.451434;"Beaulieu";"Internacional";47.72777;4.726938;564.50;DISCREPANCY
"Folha 1 (hoteis - Folha1.csv)";"Twin Oaks Guest House";"New Forest National Park Hampshire";"United Kingdom (UK)";50.9123762;-1.3093752;"Cadnam";"Internacional";50.92067;-1.58682;19.47;DISCREPANCY
"Folha 1 (hoteis - Folha1.csv)";"Hotel Serrano";"Cordoba";"Spain";37.8897369;-4.7822985;"Goiás (cidade)";"Brasil";-15.93237;-50.13929;7629.39;DISCREPANCY
"Folha 1 (hoteis - Folha1.csv)";"Villa Rose";"Fira";"Greece";36.4129396;25.4362137;"Bobo-Dioulasso";"Internacional";11.1709;-4.2913;4093.27;DISCREPANCY
"Folha 1 (hoteis - Folha1.csv)";"Ascot Hotel";"Copenhagen";"Denmark";55.67687;12.56538;"Dubai";"Emirados Árabes Unidos";25.07428;55.18854;4833.05;DISCREPANCY
"Folha 1 (hoteis - Folha1.csv)";"Hotel Cesarskie Ogrody";"Swinoujscie";"Poland";53.9159381;14.238966;"Świnoujście";"Polónia";53.90975;14.25107;1.05;DISCREPANCY
"Folha 1 (hoteis - Folha1.csv)";"Hotel Nadia";"Primorsko";"Bulgaria";42.269566;27.7546061;"Bromo-Tengger-Semeru National Park";"Indonésia";39.86595;-75.17879;8039.47;DISCREPANCY
"Folha 1 (hoteis - Folha1.csv)";"Hotel FIVE";"Nuremberg";"Germany";49.4547882;11.0782815;"Milão";"Itália";45.4642;9.189634;465.86;DISCREPANCY
"Folha 1 (hoteis - Folha1.csv)";"Hotel Eldorado";"Ischgl";"Austria";47.0138706;10.2920692;"Eldorado";"Brasil";-19.94321;-44.03472;9213.86;DISCREPANCY
"Folha 1 (hoteis - Folha1.csv)";"Old Borjomi";"Borjomi";"Georgia";41.8473531;43.3999044;"Borjomi";"Geórgia";38.38364;-7.34584;4269.47;DISCREPANCY
"Folha 1 (hoteis - Folha1.csv)";"Pirosmani";"Borjomi";"Georgia";41.8426553;43.380388;"Makhachkala";"Internacional";40.34389;-8.595845;4291.16;DISCREPANCY
"Folha 1 (hoteis - Folha1.csv)";"The Grove Hotel";"Bournemouth";"United Kingdom (UK)";50.7193865;-1.8690397;"Kingsville (Ontario)";"Internacional";42.03788;-82.73917;5963.88;DISCREPANCY
"Folha 1 (hoteis - Folha1.csv)";"Hotel Neue Post";"Zell am See";"Austria";47.322705;12.7971455;"Mayrhofen";"Áustria";47.16722;11.86387;72.54;DISCREPANCY
"Folha 1 (hoteis - Folha1.csv)";"Hotel Lido";"Cattolica";"Italy";43.9675185;12.754672;"Genebra";"Suíça";46.20176;6.146601;574.97;DISCREPANCY
"Folha 1 (hoteis - Folha1.csv)";"Hotel Regina";"Cattolica";"Italy";43.9677452;12.7338697;"Lausanne";"Suíça";46.52183;6.632702;555.48;DISCREPANCY
"Folha 1 (hoteis - Folha1.csv)";"Hotel Principe";"Cattolica";"Italy";43.9142684;12.9175046;"Veneza";"Itália";45.43719;12.33459;175.50;DISCREPANCY
"Folha 1 (hoteis - Folha1.csv)";"Hotel President";"Cattolica";"Italy";44.0632017;12.5847232;"Bacău";"Roménia";46.55605;26.91536;1152.65;DISCREPANCY
"Folha 1 (hoteis - Folha1.csv)";"Hotel des Arts";"Toulouse";"France";43.601585;1.4471901;"Aix-en-Provence";"França";43.5293;5.453556;322.86;DISCREPANCY
"Folha 1 (hoteis - Folha1.csv)";"Hotel Continental";"Lourdes";"France";43.0957664;-0.0534402;"Kairouan";"Tunísia";35.68589;10.09789;1198.28;DISCREPANCY
"Folha 1 (hoteis - Folha1.csv)";"Panorama Hotel";"Lourdes";"France";43.0961202;-0.0549671;"Kalamata";"Grécia";37.0091;22.1552;2000.65;DISCREPANCY
"Folha 1 (hoteis - Folha1.csv)";"Hotel de l'Europe";"Lourdes";"France";43.0930621;-0.055196;"Dieppe";"França";49.93164;1.08393;765.37;DISCREPANCY
"Folha 1 (hoteis - Folha1.csv)";"Hotel Paradis";"Lourdes";"France";43.0934629;-0.0530801;"Paris/9º arrondissement";"França";48.85889;2.320041;666.71;DISCREPANCY
"Folha 1 (hoteis - Folha1.csv)";"Hotel Garibaldi";"Mestre";"Italy";45.4965546;12.2447069;"Nápoles";"Itália";40.85194;14.26688;541.81;DISCREPANCY
"Folha 1 (hoteis - Folha1.csv)";"Hotel Paris";"Mestre";"Italy";45.4835593;12.2307986;"Castel Goffredo";"Portugal";45.29528;10.47298;138.85;DISCREPANCY
"Folha 1 (hoteis - Folha1.csv)";"Victoria House Hotel";"Killarney";"Ireland";52.0434207;-9.4999908;"Oxford";"Reino Unido";51.75201;-1.25785;566.15;DISCREPANCY
"Folha 1 (hoteis - Folha1.csv)";"Hotel Kristal";"Golden Sands";"Bulgaria";43.2310325;28.0048652;"Kumanovo";"Macedônia do Norte";42.13591;21.71855;527.94;DISCREPANCY
"Folha 1 (hoteis - Folha1.csv)";"Galaxy Hotel";"Naxos Town";"Greece";37.0978754;25.3770345;"Ierapetra";"Internacional";35.00984;25.73884;234.45;DISCREPANCY
"Folha 1 (hoteis - Folha1.csv)";"Hotel Harmony";"Ghent";"Belgium";51.05713;3.7227518;"Kumanovo";"Macedônia do Norte";42.13591;21.71855;1688.12;DISCREPANCY
"Folha 1 (hoteis - Folha1.csv)";"Grand Hotel Bellevue";"Lille";"France";50.636671;3.0626379;"Åndalsnes and Romsdal valley";"Noruega";62.56559;7.68873;1355.46;DISCREPANCY
"Folha 1 (hoteis - Folha1.csv)";"Carlton Hotel";"Lille";"France";50.6367618;3.0653555;"Atascadero";"Internacional";35.4894;-120.6721;8970.60;DISCREPANCY
"Folha 1 (hoteis - Folha1.csv)";"Hotel Mare";"Datca";"Turkey";36.7307985;27.6896727;"Nazaré (Portugal)";"Portugal";39.60167;-9.07236;3207.28;DISCREPANCY
"Folha 1 (hoteis - Folha1.csv)";"Hotel Allalin";"Saas-Fee";"Switzerland";46.0191432;7.7475025;"Saas-Fee";"Suíça";46.10734;7.924706;16.83;DISCREPANCY
"Folha 1 (hoteis - Folha1.csv)";"Magnolia Hotel";"Salou";"Spain";41.0758537;1.1392704;"Dallas";"Estados Unidos";32.78014;-96.79906;8277.59;DISCREPANCY
"Folha 1 (hoteis - Folha1.csv)";"The Riverhouse";"Cardiff";"United Kingdom (UK)";51.4785278;-3.185558;"Chetwynd";"Internacional";37.09014;-8.678213;1657.39;DISCREPANCY
"Folha 1 (hoteis - Folha1.csv)";"Club Hotel";"Arzachena";"Italy";41.1406159;9.4778236;"Bairnsdale";"Austrália";-37.82545;147.6305;16439.40;DISCREPANCY
"Folha 1 (hoteis - Folha1.csv)";"Holiday Inn Express Cambridge";"Cambridge";"United Kingdom (UK)";52.1034515;0.1660205;"Cambridge (Maryland)";"Reino Unido";52.19759;0.1391537;10.63;DISCREPANCY
"Folha 1 (hoteis - Folha1.csv)";"Regent Hotel";"Cambridge";"United Kingdom (UK)";52.2012833;0.1257409;"Bintulu";"Internacional";3.187426;113.0473;11253.99;DISCREPANCY
"Folha 1 (hoteis - Folha1.csv)";"Sea Garden";"Peniche";"Portugal";39.3590858;-9.3792393;"Burgas";"Internacional";42.49366;27.47213;3091.06;DISCREPANCY
"Folha 1 (hoteis - Folha1.csv)";"Casa do Castelo";"Peniche";"Portugal";39.3398304;-9.3254295;"Belmonte";"Portugal";40.35953;-7.349174;203.26;DISCREPANCY
"Folha 1 (hoteis - Folha1.csv)";"Hotel Austria";"Lech";"Austria";47.207059;10.1378148;"Ciudad del Este";"Paraguai";-25.5169;-54.61686;10355.78;DISCREPANCY
"Folha 1 (hoteis - Folha1.csv)";"Burg Hotel";"Lech";"Austria";47.2171223;10.1369238;"Bad Kreuznach";"Alemanha";49.7271;7.779974;328.73;DISCREPANCY
"Folha 1 (hoteis - Folha1.csv)";"Panorama Hotel";"Lech";"Austria";47.2143402;10.1477387;"Kalamata";"Grécia";37.0091;22.1552;1502.72;DISCREPANCY
"Folha 1 (hoteis - Folha1.csv)";"Albergo del Sole";"Taranto";"Italy";40.4793985;17.2279634;"Varenna";"Itália";46.01016;9.28334;889.28;DISCREPANCY
"Folha 1 (hoteis - Folha1.csv)";"Iris Hotel";"Llandudno";"United Kingdom (UK)";53.3232958;-3.8244116;"Çanakkale";"Turquia";40.14627;26.40289;2699.11;DISCREPANCY
"Folha 1 (hoteis - Folha1.csv)";"Hotel Luna";"Medjugorje";"Bosnia and Herzegovina";43.3466851;17.8131372;"Cairo";"Egito";30.04439;31.23573;1897.50;DISCREPANCY
"Folha 1 (hoteis - Folha1.csv)";"Home Hotel";"Bukovel";"Ukraine";48.356527;24.4122387;"Zhengzhou";"China";34.74725;113.6193;7151.09;DISCREPANCY
"Folha 1 (hoteis - Folha1.csv)";"City Park Hotel";"Chisinau";"Moldova";47.0272318;28.8366114;"Penedo (Rio de Janeiro)";"Brasil";-10.28723;-36.58192;9059.01;DISCREPANCY
"Folha 1 (hoteis - Folha1.csv)";"Hotel Imperial";"San Benedetto Del Tronto";"Italy";42.9180419;13.9008607;"Vilnius";"Internacional";54.68705;25.28291;1547.31;DISCREPANCY
"Folha 1 (hoteis - Folha1.csv)";"Hotel Continental";"San Benedetto Del Tronto";"Italy";42.811794;13.9391097;"Kairouan";"Tunísia";35.68589;10.09789;858.38;DISCREPANCY
"Folha 1 (hoteis - Folha1.csv)";"Hotel Mediterraneo";"Montecatini Terme";"Italy";43.8880389;10.7712074;"Roma";"Itália";41.89332;12.48293;261.98;DISCREPANCY
"Folha 1 (hoteis - Folha1.csv)";"The GuestHouse";"Bran";"Romania";45.5176618;25.3694853;"Maradi";"Portugal";13.50121;7.102534;3953.49;DISCREPANCY
"Folha 1 (hoteis - Folha1.csv)";"Villa Maria";"Krk";"Croatia";45.1593355;14.7171519;"Didsbury and Carstairs";"Canadá";37.09937;-8.128007;2103.17;DISCREPANCY
"Folha 1 (hoteis - Folha1.csv)";"Park Hotel";"Kislovodsk";"Russia";43.8999304;42.7150474;"Aleppo";"Internacional";36.21279;37.14916;976.68;DISCREPANCY
"Folha 1 (hoteis - Folha1.csv)";"Hotel President";"Timisoara";"Romania";45.7582286;21.2129512;"Bacău";"Roménia";46.55605;26.91536;447.98;DISCREPANCY
"Folha 1 (hoteis - Folha1.csv)";"Hotel Savoy";"Timisoara";"Romania";45.7633719;21.2563596;"Vila Ribeira Brava";"Internacional";37.21012;-8.648105;2647.32;DISCREPANCY
"Folha 1 (hoteis - Folha1.csv)";"Ambassador Hotel";"Timisoara";"Romania";45.7387892;21.206271;"Hargeisa";"Internacional";9.5221;44.07272;4578.51;DISCREPANCY
"Folha 1 (hoteis - Folha1.csv)";"NH Timisoara";"Timisoara";"Romania";45.7546175;21.2420691;"Timisoara";"Romênia";37.09937;-8.128007;2612.70;DISCREPANCY
"Folha 1 (hoteis - Folha1.csv)";"Central Hotel";"Timisoara";"Romania";45.7522412;21.2268843;"Phuentsholing";"Portugal";26.86396;89.38374;6256.88;DISCREPANCY
"Folha 1 (hoteis - Folha1.csv)";"Nautilus";"Miedzyzdroje";"Poland";53.9183343;14.2559008;"Blenheim (New Zealand)";"Nova Zelândia";-41.51187;173.9546;17976.73;DISCREPANCY
"Folha 1 (hoteis - Folha1.csv)";"Hotel Mare";"Agropoli";"Italy";40.3555695;14.9962452;"Nazaré (Portugal)";"Portugal";39.60167;-9.07236;2046.20;DISCREPANCY
"Folha 1 (hoteis - Folha1.csv)";"The George Hotel";"Norwich";"United Kingdom (UK)";52.6193687;1.2805649;"Wallingford (England)";"Internacional";51.60103;-1.12386;199.44;DISCREPANCY
"Folha 1 (hoteis - Folha1.csv)";"The Gables";"Exmoor National Park";"United Kingdom (UK)";51.2087117;-3.5936657;"Beach Haven";"Internacional";39.56295;-74.24055;5444.89;DISCREPANCY
"Folha 1 (hoteis - Folha1.csv)";"The Cottage";"Exmoor National Park";"United Kingdom (UK)";51.2087777;-3.5965971;"Caerphilly";"Internacional";51.57454;-3.220849;48.31;DISCREPANCY
"Folha 1 (hoteis - Folha1.csv)";"Hotel Nazionale";"Ferrara";"Italy";44.8349622;11.6185758;"Roma";"Itália";41.90103;12.47795;333.55;DISCREPANCY
"Folha 1 (hoteis - Folha1.csv)";"Hotel Europa";"Ferrara";"Italy";44.8371644;11.6222164;"Bamberg";"Alemanha";49.89161;10.88685;564.74;DISCREPANCY
"Folha 1 (hoteis - Folha1.csv)";"Hotel Torino";"Parma";"Italy";44.8031017;10.3281883;"Parma";"Itália";44.6952;10.09799;21.78;DISCREPANCY
"Folha 1 (hoteis - Folha1.csv)";"Hotel Baia";"Cascais";"Portugal";38.697342;-9.4200926;"Rímini";"Itália";43.94654;12.63075;1924.93;DISCREPANCY
"Folha 1 (hoteis - Folha1.csv)";"Hotel Londres";"Cascais";"Portugal";38.7069027;-9.4038931;"São Lourenço";"Brasil";-22.11639;-45.05417;7715.72;DISCREPANCY
"Folha 1 (hoteis - Folha1.csv)";"Vila Gale Cascais";"Cascais";"Portugal";38.6913093;-9.4227361;"Parque Natural de Sintra-Cascais";"Portugal";37.11314;-8.675184;187.34;DISCREPANCY
"Folha 1 (hoteis - Folha1.csv)";"Vila Gale Estoril";"Cascais";"Portugal";38.7037593;-9.3969079;"Parque Natural de Sintra-Cascais";"Portugal";37.11314;-8.675184;187.86;DISCREPANCY
"Folha 1 (hoteis - Folha1.csv)";"Kolin Hotel";"Canakkale";"Turkey";40.1126914;26.4063416;"Çanakkale";"Turquia";40.14627;26.40289;3.75;DISCREPANCY
"Folha 1 (hoteis - Folha1.csv)";"Cura Hotel";"Canakkale";"Turkey";40.1325783;26.4121995;"Çanakkale";"Turquia";40.14627;26.40289;1.72;DISCREPANCY
"Folha 1 (hoteis - Folha1.csv)";"Villa Bianca";"Forio";"Italy";40.7222466;13.8635312;"Bophut";"Internacional";9.564616;100.0213;8993.59;DISCREPANCY
"Folha 1 (hoteis - Folha1.csv)";"Hotel  La Bussola";"Ricadi";"Italy";38.6375449;15.8483896;"Amalfi";"Itália";6.90701;-75.07359;9608.39;DISCREPANCY
"Folha 1 (hoteis - Folha1.csv)";"Palace Hotel";"Como";"Italy";45.8139498;9.0828383;"Nesvizh";"Bielorrússia";53.24055;26.6026;1504.06;DISCREPANCY
"Folha 1 (hoteis - Folha1.csv)";"Park Hotel";"Thessaloniki";"Greece";40.6400924;22.9433143;"Volos";"Grécia";39.36248;22.94019;142.06;DISCREPANCY
"Folha 1 (hoteis - Folha1.csv)";"Hotel Miramar";"Opatija";"Croatia";45.3415811;14.3132772;"Beira";"Internacional";-19.83407;34.83581;7538.78;DISCREPANCY
"Folha 1 (hoteis - Folha1.csv)";"Hotel Panorama";"Himare";"Albania";40.0997564;19.7673058;"Krujë";"Albânia";41.51125;19.79285;156.97;DISCREPANCY
"Folha 1 (hoteis - Folha1.csv)";"Blue Star";"Ureki";"Georgia";41.9937043;41.7634745;"Budva";"Montenegro";42.28857;18.84195;1884.45;DISCREPANCY
"Folha 1 (hoteis - Folha1.csv)";"Hotel America";"Trento";"Italy";46.0711429;11.1241736;"Praia da Vitória";"Portugal";38.73104;-27.06035;3206.45;DISCREPANCY
"Folha 1 (hoteis - Folha1.csv)";"County Hotel";"Skegness";"United Kingdom (UK)";53.1473881;0.3454739;"Banff (Scotland)";"Internacional";57.6645;-2.523289;533.81;DISCREPANCY
"Folha 1 (hoteis - Folha1.csv)";"Hotel Luagos Club";"Lampedusa";"Italy";35.5011335;12.5987488;"Lampedusa";"Tunísia";33.58684;11.08324;254.11;DISCREPANCY
"Folha 1 (hoteis - Folha1.csv)";"The White House";"Brighton";"United Kingdom (UK)";50.8189456;-0.1270107;"Mukachevo";"Ucrânia";37.09014;-8.678213;1670.34;DISCREPANCY
"Folha 1 (hoteis - Folha1.csv)";"City Hostel";"Yaroslavl";"Russia";57.6296468;39.8802;"St. John's";"Portugal";38.77459;-9.16497;4072.80;DISCREPANCY
"Folha 1 (hoteis - Folha1.csv)";"Nagi Beach Hotel";"Gumbet";"Turkey";37.0318745;27.4031547;"Bodrum";"Turquia";37.0344;27.43065;2.46;DISCREPANCY
"Folha 1 (hoteis - Folha1.csv)";"Green House Apart Hotel";"Gumbet";"Turkey";37.0338243;27.3981508;"Bodrum";"Turquia";37.0344;27.43065;2.89;DISCREPANCY
"Folha 1 (hoteis - Folha1.csv)";"Central-Hotel";"Winterberg";"Germany";51.1934843;8.5286584;"Phuentsholing";"Portugal";26.86396;89.38374;7097.95;DISCREPANCY
"Folha 1 (hoteis - Folha1.csv)";"Royal Palace Hotel";"Messina";"Italy";38.1849071;15.5584169;"Teresina";"Brasil";-5.087461;-42.80496;7689.64;DISCREPANCY
"Folha 1 (hoteis - Folha1.csv)";"Hotel Italia";"Cortona";"Italy";43.2749374;11.9848847;"Mantua";"Itália";38.85372;-77.25943;7122.54;DISCREPANCY
"Folha 1 (hoteis - Folha1.csv)";"Hotel Astoria";"Malcesine";"Italy";45.8196214;10.7977433;"Alberobello";"Itália";40.78693;17.2413;764.37;DISCREPANCY
"Folha 1 (hoteis - Folha1.csv)";"Hotel Augusta";"Malcesine";"Italy";45.7670083;10.8130981;"Garut";"Suíça";-7.18556;107.8857;11127.20;DISCREPANCY
"Folha 1 (hoteis - Folha1.csv)";"Wild West";"Saratov";"Russia";51.5964952;46.0156066;"Blackpool";"Reino Unido";53.81794;-3.050981;3248.55;DISCREPANCY
"Folha 1 (hoteis - Folha1.csv)";"Hotel Continental";"Sirmione";"Italy";45.631463;10.701608;"Kairouan";"Tunísia";35.68589;10.09789;1107.06;DISCREPANCY
"Folha 1 (hoteis - Folha1.csv)";"Hotel Europa";"Sirmione";"Italy";45.5735516;10.709758;"Bamberg";"Alemanha";49.89161;10.88685;480.33;DISCREPANCY
"Folha 1 (hoteis - Folha1.csv)";"Hotel Du Parc";"Sirmione";"Italy";45.4716753;10.6072863;"Diekirch";"Luxemburgo";49.86909;6.160055;591.35;DISCREPANCY
"Folha 1 (hoteis - Folha1.csv)";"Hotel Suisse";"Sirmione";"Italy";45.4781003;10.6096245;"Algiers";"Internacional";36.76766;3.05292;1155.84;DISCREPANCY
"Folha 1 (hoteis - Folha1.csv)";"Hotel Du Lac";"Sirmione";"Italy";45.5233534;10.5387614;"Locarno";"Suíça";46.16957;8.795485;152.95;DISCREPANCY
"Folha 1 (hoteis - Folha1.csv)";"Residence Hotel";"Rewal";"Poland";54.0818043;15.0116975;"Jaú";"Brasil";-22.2933;-48.55934;10425.98;DISCREPANCY
"Folha 1 (hoteis - Folha1.csv)";"Hotel Universal";"Senigallia";"Italy";43.7225514;13.2142685;"Dupnitsa";"Bulgária";42.26284;23.11436;820.86;DISCREPANCY
"Folha 1 (hoteis - Folha1.csv)";"Hotel Majestic";"Senigallia";"Italy";43.7075652;13.2356036;"Bruneck";"Itália";46.79632;11.93551;358.20;DISCREPANCY
"Folha 1 (hoteis - Folha1.csv)";"Hotel Paradiso";"Senigallia";"Italy";43.7129572;13.2275146;"Bastardo";"Itália";42.87016;12.55954;108.19;DISCREPANCY
"Folha 1 (hoteis - Folha1.csv)";"Hotel Palace";"Senigallia";"Italy";43.7153404;13.2236909;"Banja Luka";"Bósnia e Herzegovina";44.77208;17.19176;337.18;DISCREPANCY
"Folha 1 (hoteis - Folha1.csv)";"Hotel Continental";"Senigallia";"Italy";43.7072965;13.2360952;"Kairouan";"Tunísia";35.68589;10.09789;931.28;DISCREPANCY
"Folha 1 (hoteis - Folha1.csv)";"Hotel Marina";"Balatonfured";"Hungary";46.9477025;17.881157;"Brazzaville";"Internacional";-4.269441;15.27123;5700.86;DISCREPANCY
"Folha 1 (hoteis - Folha1.csv)";"Hotel Lido";"Balatonfured";"Hungary";46.9575337;17.9105224;"Genebra";"Suíça";46.20176;6.146601;902.17;DISCREPANCY
"Folha 1 (hoteis - Folha1.csv)";"Hotel Costa Azzurra";"Giardini Naxos";"Italy";37.8312715;15.269238;"Agrigento";"Itália";37.3123;13.57465;160.11;DISCREPANCY
"Folha 1 (hoteis - Folha1.csv)";"Park Hotel";"Szczecin";"Poland";53.4319172;14.5597697;"Montrose (Scotland)";"Reino Unido";56.71322;-2.46341;1139.98;DISCREPANCY
"Folha 1 (hoteis - Folha1.csv)";"Grand Park Hotel";"Szczecin";"Poland";53.4443945;14.5408578;"Barisal";"Internacional";22.70475;90.37073;7072.55;DISCREPANCY
"Folha 1 (hoteis - Folha1.csv)";"Alexander House";"Barnaul";"Russia";53.3518526;83.7622585;"Barnaul";"Internacional";53.34755;83.77885;1.20;DISCREPANCY
"Folha 1 (hoteis - Folha1.csv)";"Hotel Windsor";"Merano";"Italy";46.6692844;11.1531362;"Odense";"Dinamarca";55.39837;10.38293;972.11;DISCREPANCY
"Folha 1 (hoteis - Folha1.csv)";"Imperial Hotel";"Great Yarmouth";"United Kingdom (UK)";52.6130041;1.7373772;"Fort William";"Internacional";56.81876;-5.11071;641.41;DISCREPANCY
"Folha 1 (hoteis - Folha1.csv)";"The Imperial Hotel";"Cork";"Ireland";51.8974046;-8.4703821;"Exmouth (England)";"Reino Unido";50.61687;-3.41469;379.44;DISCREPANCY
"Folha 1 (hoteis - Folha1.csv)";"Pension Regina";"Predeal";"Romania";45.5010226;25.5739001;"Gotha";"Alemanha";50.94857;10.70479;1253.82;DISCREPANCY
"Folha 1 (hoteis - Folha1.csv)";"Edelweiss Hotel";"Predeal";"Romania";45.5886421;25.5509251;"Bajawa";"Indonésia";-8.787352;120.9733;11124.88;DISCREPANCY
"Folha 1 (hoteis - Folha1.csv)";"Victoria Hotel";"Pescara";"Italy";42.4722694;14.2083071;"Alderney";"França";49.71625;-2.203171;1495.18;DISCREPANCY
"Folha 1 (hoteis - Folha1.csv)";"Hotel Am Markt";"Cochem";"Germany";50.1455297;7.1656208;"Bacharach";"Alemanha";50.06047;7.768261;44.01;DISCREPANCY
"Folha 1 (hoteis - Folha1.csv)";"Hotel Eden";"Antibes";"France";43.5696312;7.1098905;"Oruro";"Bolívia";-17.97014;-67.11517;10168.62;DISCREPANCY
"Folha 1 (hoteis - Folha1.csv)";"Hotel Belles Rives";"Antibes";"France";43.5647733;7.1154113;"Antibes";"França";43.58139;7.123697;1.96;DISCREPANCY
"Folha 1 (hoteis - Folha1.csv)";"Hotel Juana";"Antibes";"France";43.5675661;7.1160503;"Antibes";"França";43.58139;7.123697;1.66;DISCREPANCY
"Folha 1 (hoteis - Folha1.csv)";"The Stump";"Cheltenham";"United Kingdom (UK)";51.7834963;-1.9029787;"Boston (England)";"Estados Unidos";52.97766;-0.0237985;184.11;DISCREPANCY
"Folha 1 (hoteis - Folha1.csv)";"Hotel Monet";"Honfleur";"France";49.4189941;0.2264446;"Nova Erechim";"Internacional";-26.90277;-52.90713;9979.56;DISCREPANCY
"Folha 1 (hoteis - Folha1.csv)";"Hotel Royal";"Geneva";"Switzerland";46.2133299;6.1452435;"Kinshasa";"Internacional";-4.32171;15.31225;5691.63;DISCREPANCY
"Folha 1 (hoteis - Folha1.csv)";"Hotel Mediterraneo";"Ios";"Greece";36.7217946;25.2803578;"Nápoles";"Itália";40.83588;14.24877;1058.99;DISCREPANCY
"Folha 1 (hoteis - Folha1.csv)";"Hotel Luna";"Massa";"Italy";44.0151133;10.0963067;"Cairo";"Egito";30.04439;31.23573;2423.35;DISCREPANCY
"Folha 1 (hoteis - Folha1.csv)";"Hotel Italia";"Massa";"Italy";44.0745544;9.9180282;"Mantua";"Itália";38.85372;-77.25943;6934.08;DISCREPANCY
"Folha 1 (hoteis - Folha1.csv)";"Hotel Excelsior";"Massa";"Italy";44.0076274;10.10053;"São Paulo/Centro Histórico";"Brasil";-23.55065;-46.63338;9471.30;DISCREPANCY
"Folha 1 (hoteis - Folha1.csv)";"The Queens Hotel";"St Ives";"United Kingdom (UK)";50.1139828;-5.5379473;"Gibraltar";"Internacional";36.12859;-5.347476;1555.18;DISCREPANCY
"Folha 1 (hoteis - Folha1.csv)";"Eurostars Rey Fernando";"Zaragoza";"Spain";41.6517534;-0.9822799;"Saragoça";"Espanha";37.09937;-8.128007;795.42;DISCREPANCY
"Folha 1 (hoteis - Folha1.csv)";"Hotel Italia";"Foligno";"Italy";42.9551986;12.7034688;"Mantua";"Itália";38.85372;-77.25943;7190.84;DISCREPANCY
"Folha 1 (hoteis - Folha1.csv)";"Hotel Panorama";"Scena";"Italy";46.7073734;11.2017562;"Krujë";"Albânia";41.51125;19.79285;895.90;DISCREPANCY
"Folha 1 (hoteis - Folha1.csv)";"Astor Hotel";"Scena";"Italy";46.6816089;11.1892669;"Tianjin";"China";39.08441;117.1957;7987.02;DISCREPANCY
"Folha 1 (hoteis - Folha1.csv)";"Hotel Splendid";"Pinzolo";"Italy";46.2267134;10.8260266;"Dubrovnik";"Croácia";42.65388;18.06553;698.24;DISCREPANCY
"Folha 1 (hoteis - Folha1.csv)";"Palace Hotel";"Zandvoort";"The Netherlands";52.3763671;4.5277344;"Nesvizh";"Bielorrússia";53.24055;26.6026;1480.95;DISCREPANCY
"Folha 1 (hoteis - Folha1.csv)";"Hotel al Sole";"Bardolino";"Italy";45.5530311;10.7218734;"Arco";"Itália";45.93187;10.9172;44.77;DISCREPANCY
"Folha 1 (hoteis - Folha1.csv)";"Hotel Deutsches Haus";"Bonn";"Germany";50.7393688;7.0992605;"Bad Fallingbostel";"Internacional";52.86545;9.69302;296.10;DISCREPANCY
"Folha 1 (hoteis - Folha1.csv)";"Hotel Nazionale";"Desenzano Del Garda";"Italy";45.4663286;10.5408246;"Roma";"Itália";41.90103;12.47795;425.91;DISCREPANCY
"Folha 1 (hoteis - Folha1.csv)";"Palace Hotel";"Desenzano Del Garda";"Italy";45.4604658;10.5857946;"Nesvizh";"Bielorrússia";53.24055;26.6026;1441.84;DISCREPANCY
"Folha 1 (hoteis - Folha1.csv)";"Hotel Europa";"Desenzano Del Garda";"Italy";45.467854;10.611259;"Bamberg";"Alemanha";49.89161;10.88685;492.33;DISCREPANCY
"Folha 1 (hoteis - Folha1.csv)";"Apollo Hotel";"Aegina";"Greece";37.7469668;23.5433448;"Basingstoke";"Reino Unido";51.26283;-1.086198;2444.49;DISCREPANCY
"Folha 1 (hoteis - Folha1.csv)";"Safir Konak";"Safranbolu";"Turkey";41.2631847;32.6685405;"Safranbolu";"Turquia";38.69468;-9.293806;3552.07;DISCREPANCY
"Folha 1 (hoteis - Folha1.csv)";"Hotel Excelsior";"Vasto";"Italy";42.0776192;14.7490413;"São Paulo/Centro Histórico";"Brasil";-23.55065;-46.63338;9636.97;DISCREPANCY
"Folha 1 (hoteis - Folha1.csv)";"Hotel Holiday";"Vasto";"Italy";42.084071;14.7406818;"Macau/Península";"China";22.17576;113.5514;9063.06;DISCREPANCY
"Folha 1 (hoteis - Folha1.csv)";"Hotel President";"Vasto";"Italy";42.0954143;14.7237169;"Bacău";"Roménia";46.55605;26.91536;1087.64;DISCREPANCY
"Folha 1 (hoteis - Folha1.csv)";"Hotel Lido";"Vasto";"Italy";42.0863396;14.7364752;"Genebra";"Suíça";46.20176;6.146601;823.40;DISCREPANCY
"Folha 1 (hoteis - Folha1.csv)";"Atlantic Hotel";"Ile d'Oleron";"France";45.9370178;-1.3593382;"Canavieiras";"Brasil";-15.67901;-38.94496;7821.68;DISCREPANCY
"Folha 1 (hoteis - Folha1.csv)";"Hotel Talisman";"Ponta Delgada";"Portugal";37.7391174;-25.6723081;"São Miguel Arcanjo";"Brasil";37.09103;-8.217216;1541.03;DISCREPANCY
"Folha 1 (hoteis - Folha1.csv)";"Marine Hotel";"Paignton";"United Kingdom (UK)";50.4342106;-3.5606616;"Aberystwyth";"Reino Unido";52.41867;-4.084276;223.63;DISCREPANCY
"Folha 1 (hoteis - Folha1.csv)";"Albergo Bianchi Stazione";"Mantua";"Italy";45.1582801;10.7834704;"Mantua";"Itália";38.85372;-77.25943;6936.60;DISCREPANCY
"Folha 1 (hoteis - Folha1.csv)";"Hotel Casa Poli";"Mantua";"Italy";45.1517362;10.7962551;"Mantua";"Itália";38.85372;-77.25943;6937.82;DISCREPANCY
"Folha 1 (hoteis - Folha1.csv)";"Pension Sandbogaard";"Bornholm";"Denmark";55.2876522;14.7795378;"Allinge-Sandvig";"Internacional";37.09103;-8.217216;2663.27;DISCREPANCY
"Folha 1 (hoteis - Folha1.csv)";"Hotel Vital";"Zalakaros";"Hungary";46.543858;17.1290346;"Acapulco";"México";16.86805;-99.89402;10571.62;DISCREPANCY
"Folha 1 (hoteis - Folha1.csv)";"Hotel Alexander";"Sanremo";"Italy";43.8201429;7.7804619;"Puerto Iguazu";"Brasil";-25.53979;-54.58744;9985.77;DISCREPANCY
"Folha 1 (hoteis - Folha1.csv)";"Hotel Principe";"Sanremo";"Italy";43.8159042;7.7693003;"Veneza";"Itália";45.44212;12.32353;403.13;DISCREPANCY
"Folha 1 (hoteis - Folha1.csv)";"Hotel Paradiso";"Sanremo";"Italy";43.8136356;7.7662245;"Bastardo";"Itália";42.87016;12.55954;401.51;DISCREPANCY
"Folha 1 (hoteis - Folha1.csv)";"Parus";"Jurmala";"Latvia";56.9751201;23.800761;"Iaroslavl";"Rússia";37.09937;-8.128007;3224.04;DISCREPANCY
"Folha 1 (hoteis - Folha1.csv)";"The Townhouse";"Stratford-upon-Avon";"United Kingdom (UK)";52.1904822;-1.7083872;"Manitou Springs";"Internacional";37.14127;-8.571671;1757.27;DISCREPANCY
"Folha 1 (hoteis - Folha1.csv)";"Hotel Post";"Bad Gastein";"Austria";47.1137327;13.1331876;"Schaan";"Internacional";51.11225;6.487717;656.52;DISCREPANCY
"Folha 1 (hoteis - Folha1.csv)";"Villa Anna";"Bad Gastein";"Austria";47.0886687;13.118573;"Sóchi";"Internacional";43.57176;39.7398;2106.76;DISCREPANCY
"Folha 1 (hoteis - Folha1.csv)";"Hotel President";"Viareggio";"Italy";43.8717997;10.2411941;"Bacău";"Roménia";46.55605;26.91536;1337.06;DISCREPANCY
"Folha 1 (hoteis - Folha1.csv)";"Palace Hotel";"Viareggio";"Italy";43.8739966;10.2400078;"Nesvizh";"Bielorrússia";53.24055;26.6026;1585.47;DISCREPANCY
"Folha 1 (hoteis - Folha1.csv)";"Hotel Eden";"Viareggio";"Italy";43.8694199;10.2425944;"Oruro";"Bolívia";-17.97014;-67.11517;10413.81;DISCREPANCY
"Folha 1 (hoteis - Folha1.csv)";"Hotel Villa Waldfrieden";"Sellin";"Germany";54.3780329;13.6952184;"Bad Schandau";"Alemanha";50.92474;14.2153;385.59;DISCREPANCY
"Folha 1 (hoteis - Folha1.csv)";"Continental Hotel";"Iasi";"Romania";47.165057;27.5817725;"Brescia";"Itália";45.5398;10.22002;1341.85;DISCREPANCY
"Folha 1 (hoteis - Folha1.csv)";"Panorama Resort";"Pylos-Nestor";"Greece";36.8117559;21.8053563;"Bunaken";"Indonésia";1.552738;124.8388;11058.75;DISCREPANCY
"Folha 1 (hoteis - Folha1.csv)";"Rose Villa";"Oban";"United Kingdom (UK)";56.4187503;-5.472411;"Bandarawela";"Internacional";6.830482;80.98882;9157.80;DISCREPANCY
"Folha 1 (hoteis - Folha1.csv)";"Hotel Santa Isabel";"Toledo";"Spain";39.8555016;-4.0250186;"Europa";"Grécia";38.00174;23.72095;2399.26;DISCREPANCY
"Folha 1 (hoteis - Folha1.csv)";"Hotel Albatros";"Misano Adriatico";"Italy";44.1014215;12.5189128;"Wallis and Futuna";"França";37.11314;-8.675184;1943.36;DISCREPANCY
"Folha 1 (hoteis - Folha1.csv)";"Hotel Alexandra";"Misano Adriatico";"Italy";43.9688792;12.7242904;"Locarno";"Suíça";46.16957;8.795485;393.71;DISCREPANCY
"Folha 1 (hoteis - Folha1.csv)";"Hotel Aurora";"Misano Adriatico";"Italy";44.0906206;12.5343185;"Amalfi";"Itália";6.90701;-75.07359;9283.29;DISCREPANCY
"Folha 1 (hoteis - Folha1.csv)";"Hotel Royal";"Misano Adriatico";"Italy";43.9673324;12.7358824;"Kinshasa";"Internacional";-4.32171;15.31225;5375.69;DISCREPANCY
"Folha 1 (hoteis - Folha1.csv)";"White Rose";"Windermere";"United Kingdom (UK)";54.3759524;-2.9035787;"Battambang";"Internacional";13.10203;103.1998;9836.08;DISCREPANCY
"Folha 1 (hoteis - Folha1.csv)";"Hotel Michelangelo";"Chianciano Terme";"Italy";43.0409938;11.8103649;"Biella";"Itália";45.56641;8.054276;410.03;DISCREPANCY
"Folha 1 (hoteis - Folha1.csv)";"Hotel M";"Podgorica Municipality";"Montenegro";42.4205399;19.2524092;"Espinho";"Portugal";41.00605;-8.644668;2310.51;DISCREPANCY
"Folha 1 (hoteis - Folha1.csv)";"Rainbow Lodge";"Plymouth";"United Kingdom (UK)";50.367113;-4.1455993;"Kanchanaburi";"Tailândia";14.02271;99.53232;9750.89;DISCREPANCY
"Folha 1 (hoteis - Folha1.csv)";"Hotel Austria";"Wildschonau";"Austria";47.4488474;12.0921979;"Ciudad del Este";"Paraguai";-25.5169;-54.61686;10492.43;DISCREPANCY
"Folha 1 (hoteis - Folha1.csv)";"Hotel Sonne";"Wildschonau";"Austria";47.4542613;12.0966185;"Estrasburgo";"França";48.46915;7.942733;329.19;DISCREPANCY
"Folha 1 (hoteis - Folha1.csv)";"Hotel Royal";"Pristina";"Kosovo";42.658263;21.1565301;"Kinshasa";"Internacional";-4.32171;15.31225;5257.07;DISCREPANCY
"Folha 1 (hoteis - Folha1.csv)";"Hotel Real";"Pristina";"Kosovo";42.6583023;21.1555644;"Patos";"Brasil";-7.028003;-37.27689;8071.79;DISCREPANCY
"Folha 1 (hoteis - Folha1.csv)";"Hotel Comercio";"Denia";"Spain";38.8394775;0.108513;"Resende (Portugal)";"Portugal";41.10174;-8.010182;735.81;DISCREPANCY
"Folha 1 (hoteis - Folha1.csv)";"easyHotel Rotterdam City Centre";"Rotterdam";"The Netherlands";51.9173227;4.4768778;"Roterdam";"Países Baixos";51.92861;4.47378;1.27;DISCREPANCY
"Folha 1 (hoteis - Folha1.csv)";"Grand Hotel Central";"Rotterdam";"The Netherlands";51.9228675;4.4767887;"Roterdam";"Países Baixos";51.53938;4.45938;42.66;DISCREPANCY
"Folha 1 (hoteis - Folha1.csv)";"nhow Rotterdam";"Rotterdam";"The Netherlands";52.0788826;4.3368392;"Rotterdam/Feijenoord";"Holanda";51.90643;4.48849;21.81;DISCREPANCY
"Folha 1 (hoteis - Folha1.csv)";"Aqua Hotel";"Gyula";"Hungary";46.6425802;21.2859258;"Ovar";"Portugal";40.85996;-8.623677;2470.48;DISCREPANCY
"Folha 1 (hoteis - Folha1.csv)";"Hotel La Torre";"Centola";"Italy";40.0290388;15.2786749;"Calella de Palafrugell";"Internacional";41.88972;3.180592;1035.81;DISCREPANCY
"Folha 1 (hoteis - Folha1.csv)";"Hotel Casa Rustica";"Rust";"Germany";48.267796;7.7260055;"Antigua Guatemala";"Espanha";38.02127;-4.383212;1500.76;DISCREPANCY
"Folha 1 (hoteis - Folha1.csv)";"Hostel Mostel";"Veliko Tarnovo";"Bulgaria";43.0798123;25.6450123;"Sófia";"Bulgária";42.6977;23.32174;193.98;DISCREPANCY
"Folha 1 (hoteis - Folha1.csv)";"Hotel Central";"Veliko Tarnovo";"Bulgaria";43.0825628;25.6338929;"Sófia";"Bulgária";42.6977;23.32174;193.16;DISCREPANCY
"Folha 1 (hoteis - Folha1.csv)";"Hotel De la Paix";"Lucerne";"Switzerland";47.0558753;8.310295;"Agadez";"Portugal";16.97256;7.990739;3345.24;DISCREPANCY
"Folha 1 (hoteis - Folha1.csv)";"Hotel Magic";"Lucerne";"Switzerland";47.0519738;8.3057335;"Nazaré (Portugal)";"Portugal";39.60154;-9.071463;1626.26;DISCREPANCY
"Folha 1 (hoteis - Folha1.csv)";"Hotel Il Castello";"Pula";"Italy";38.9325375;8.9316126;"Concepción (Paraguay)";"Chile";-36.82707;-73.05021;11880.83;DISCREPANCY
"Folha 1 (hoteis - Folha1.csv)";"Hotel Colon";"Ronda";"Spain";36.7445093;-5.1671588;"Resistência";"Argentina";-27.60488;-59.1932;9113.24;DISCREPANCY
"Folha 1 (hoteis - Folha1.csv)";"Hotel Atlas";"Pec pod Snezkou";"Czech Republic";50.6902459;15.7700067;"Mashhad";"Irã";36.29749;59.60592;3811.38;DISCREPANCY
"Folha 1 (hoteis - Folha1.csv)";"Hotel Classic";"Freiburg im Breisgau";"Germany";48.0302889;7.8635353;"Jalandhar";"Índia";31.32771;75.56511;5881.36;DISCREPANCY
"Folha 1 (hoteis - Folha1.csv)";"Hotel Krone";"Berchtesgaden";"Germany";47.6395867;13.0098615;"Dornbirn";"Áustria";47.40514;9.740645;246.85;DISCREPANCY
"Folha 1 (hoteis - Folha1.csv)";"Hotel Marina";"Roses";"Spain";42.2641849;3.1593013;"Brazzaville";"Internacional";-4.269441;15.27123;5317.01;DISCREPANCY
"Folha 1 (hoteis - Folha1.csv)";"Hotel Carmen";"Roses";"Spain";42.2644221;3.1749756;"Trouville-sur-Mer";"Internacional";49.3672;0.07988557;825.22;DISCREPANCY
"Folha 1 (hoteis - Folha1.csv)";"Hotel Quellenhof";"Baden-Baden";"Germany";48.7622842;8.2430744;"Bad Kreuznach";"Alemanha";49.83834;7.850886;122.98;DISCREPANCY
"Folha 1 (hoteis - Folha1.csv)";"Hotel Internazionale";"Ancona";"Italy";43.5600827;13.5935392;"Bellinzona";"Suíça";46.19205;9.020589;464.07;DISCREPANCY
"Folha 1 (hoteis - Folha1.csv)";"Art Hotel";"Essentuki";"Russia";44.0531908;42.8583641;"Medellín";"Colômbia";6.269732;-75.60256;11713.07;DISCREPANCY
"Folha 1 (hoteis - Folha1.csv)";"Hotel Europa";"Modena";"Italy";44.6940332;10.6415305;"Bamberg";"Alemanha";49.89161;10.88685;578.24;DISCREPANCY
"Folha 1 (hoteis - Folha1.csv)";"Hotel Principe";"Modena";"Italy";44.6518231;10.932464;"Veneza";"Itália";45.44212;12.32353;140.23;DISCREPANCY
"Folha 1 (hoteis - Folha1.csv)";"Hotel Angela";"Fano";"Italy";43.8460841;13.0255815;"Bocas del Toro";"Panamá";9.268475;-81.99324;9693.32;DISCREPANCY
"Folha 1 (hoteis - Folha1.csv)";"Hotel Paradise";"Fano";"Italy";43.8460781;13.0249268;"Gomel";"Bielorrússia";52.42389;31.01317;1633.34;DISCREPANCY
"Folha 1 (hoteis - Folha1.csv)";"Hotel Marina";"Fano";"Italy";43.8458773;13.0257716;"Brazzaville";"Internacional";-4.269441;15.27123;5354.90;DISCREPANCY
"Folha 1 (hoteis - Folha1.csv)";"Hotel Plaza";"Comacchio";"Italy";44.6665807;12.2462271;"A Corunha";"Espanha";43.35597;-8.404226;1653.41;DISCREPANCY
"Folha 1 (hoteis - Folha1.csv)";"Hotel Post";"Velden am Woerthersee";"Austria";46.6161182;14.0439438;"Schaan";"Internacional";51.11225;6.487717;744.60;DISCREPANCY
"Folha 1 (hoteis - Folha1.csv)";"Alfa Hotel";"Serfaus";"Austria";47.0391405;10.601943;"Estocolmo";"Suécia";59.32512;18.07109;1451.82;DISCREPANCY
"Folha 1 (hoteis - Folha1.csv)";"Victoria Hotel";"North York Moors National Park";"United Kingdom (UK)";54.4339537;-0.5342986;"Accrington";"Internacional";53.75412;-2.365543;141.33;DISCREPANCY
"Folha 1 (hoteis - Folha1.csv)";"Hotel Nazionale";"Levanto";"Italy";44.1695155;9.6118619;"Roma";"Itália";41.90103;12.47795;343.31;DISCREPANCY
"Folha 1 (hoteis - Folha1.csv)";"Hotel Primavera";"Levanto";"Italy";44.1694534;9.611471;"Amadora";"Portugal";38.75821;-9.235483;1677.03;DISCREPANCY
"Folha 1 (hoteis - Folha1.csv)";"Hotel Europa";"Levanto";"Italy";44.1694202;9.6130301;"Bamberg";"Alemanha";49.89161;10.88685;643.53;DISCREPANCY
"Folha 1 (hoteis - Folha1.csv)";"City Hotel";"Kassel";"Germany";51.3121596;9.4787022;"Rovaniemi";"Finlândia";66.5015;25.7296;1916.24;DISCREPANCY
"Folha 1 (hoteis - Folha1.csv)";"Grand Hotel Vanvitelli";"Caserta";"Italy";41.0369403;14.3254401;"Caserta";"Itália";41.20352;14.11686;25.46;DISCREPANCY
"Folha 1 (hoteis - Folha1.csv)";"The White Hart";"St Austell";"United Kingdom (UK)";50.4724567;-4.7191213;"Arundel (England)";"Internacional";50.85406;-0.5534493;296.62;DISCREPANCY
"Folha 1 (hoteis - Folha1.csv)";"Plaza Hotel";"Kalymnos";"Greece";36.9954782;26.9344746;"Kalamata";"Grécia";37.02316;22.13157;426.43;DISCREPANCY
"Folha 1 (hoteis - Folha1.csv)";"Hotel Miramar";"Royan";"France";45.6260134;-1.0500547;"Beira";"Internacional";-19.83407;34.83581;8129.98;DISCREPANCY
"Folha 1 (hoteis - Folha1.csv)";"Hotel Post";"Kappl";"Austria";47.0626688;10.373938;"Schaan";"Internacional";51.11225;6.487717;531.67;DISCREPANCY
"Folha 1 (hoteis - Folha1.csv)";"The Red House";"Falmouth";"United Kingdom (UK)";50.1478022;-5.0628689;"Aldeburgh";"Reino Unido";52.16462;1.587918;514.94;DISCREPANCY
"Folha 1 (hoteis - Folha1.csv)";"Hotel Playa Victoria";"Cadiz";"Spain";36.5052188;-6.2777448;"Cádiz";"Espanha";36.52974;-6.292898;3.04;DISCREPANCY
"Folha 1 (hoteis - Folha1.csv)";"Family Hotel";"Kaunas";"Lithuania";54.8996032;23.8957706;"Juba";"Sudão";12.15184;24.45229;4753.58;DISCREPANCY
"Folha 1 (hoteis - Folha1.csv)";"Art Hotel";"Druskininkai";"Lithuania";54.0180649;23.9724396;"Medellín";"Colômbia";6.269732;-75.60256;10063.43;DISCREPANCY
"Folha 1 (hoteis - Folha1.csv)";"Metropolis";"Surgut";"Russia";61.2502535;73.3642416;"São José do Rio Preto";"Brasil";-20.81394;-49.38366;13754.00;DISCREPANCY
"Folha 1 (hoteis - Folha1.csv)";"Carlton Hotel";"Sliema";"Malta";35.9144665;14.4967394;"Atascadero";"Internacional";35.4894;-120.6721;10819.65;DISCREPANCY
"Folha 1 (hoteis - Folha1.csv)";"Hotel Skansen";"Oland";"Sweden";56.6488992;16.4672577;"Öland";"Suécia";56.7816;16.66216;18.95;DISCREPANCY
"Folha 1 (hoteis - Folha1.csv)";"Lauriston Hotel";"Weston super Mare";"United Kingdom (UK)";51.351083;-2.982545;"Ardrossan";"Internacional";55.64005;-4.814857;492.03;DISCREPANCY
"Folha 1 (hoteis - Folha1.csv)";"Hotel Europa";"Valtournenche";"Italy";45.9378418;7.6294536;"Bamberg";"Alemanha";49.89161;10.88685;502.09;DISCREPANCY
"Folha 1 (hoteis - Folha1.csv)";"Hilton Malta";"Saint Julian's";"Malta";35.9221359;14.4936246;"Northern Harbor of Malta";"Internacional";37.11314;-8.675184;2069.57;DISCREPANCY
"Folha 1 (hoteis - Folha1.csv)";"Hotel Valentina";"Saint Julian's";"Malta";35.9226486;14.4913281;"Timisoara";"Romênia";45.75383;21.22575;1230.16;DISCREPANCY
"Folha 1 (hoteis - Folha1.csv)";"Hotel Luna Convento";"Amalfi";"Italy";40.632912;14.606943;"Amalfi";"Itália";6.90701;-75.07359;9481.25;DISCREPANCY
"Folha 1 (hoteis - Folha1.csv)";"Hotel Krone";"Bressanone";"Italy";46.7175483;11.6550244;"Dornbirn";"Áustria";47.40514;9.740645;163.92;DISCREPANCY
"Folha 1 (hoteis - Folha1.csv)";"Hotel Majestic";"Bressanone";"Italy";46.7207631;11.6743823;"Bruneck";"Itália";46.79632;11.93551;21.59;DISCREPANCY
"Folha 1 (hoteis - Folha1.csv)";"Hotel Plaza";"Cuenca";"Spain";40.0636094;-2.1318246;"A Corunha";"Espanha";43.35597;-8.404226;636.20;DISCREPANCY
"Folha 1 (hoteis - Folha1.csv)";"Hotel Carmen";"Shkoder";"Albania";42.0687946;19.5161134;"Trouville-sur-Mer";"Internacional";49.3672;0.07988557;1706.30;DISCREPANCY
"Folha 1 (hoteis - Folha1.csv)";"Hotel Post";"Nauders";"Austria";46.8916333;10.5010067;"Schaan";"Internacional";51.11225;6.487717;552.95;DISCREPANCY
"Folha 1 (hoteis - Folha1.csv)";"Hotel Regina";"Nauders";"Austria";46.8914261;10.4995563;"Lausanne";"Suíça";46.52183;6.632702;297.67;DISCREPANCY
"Folha 1 (hoteis - Folha1.csv)";"City Hotel";"Luxembourg City";"Luxembourg";49.6014239;6.1325405;"Rovaniemi";"Finlândia";66.5015;25.7296;2183.46;DISCREPANCY
"Folha 1 (hoteis - Folha1.csv)";"Hotel Lido";"Alassio";"Italy";44.1476891;8.2817874;"Genebra";"Suíça";46.20176;6.146601;283.14;DISCREPANCY
"Folha 1 (hoteis - Folha1.csv)";"Hotel Beau Rivage";"Alassio";"Italy";43.9978527;8.1656247;"Cap-Haïtien";"Internacional";19.76398;-72.19581;7741.44;DISCREPANCY
"Folha 1 (hoteis - Folha1.csv)";"The Belmont Hotel";"Leicester";"United Kingdom (UK)";52.628516;-1.1237732;"Sandwell";"Internacional";52.51485;-2.013489;61.44;DISCREPANCY
"Folha 1 (hoteis - Folha1.csv)";"Ambassador Hotel";"Pesaro";"Italy";43.9165502;12.9137321;"Hargeisa";"Internacional";9.5221;44.07272;4861.88;DISCREPANCY
"Folha 1 (hoteis - Folha1.csv)";"Hotel Napoleon";"Pesaro";"Italy";43.9169707;12.9129734;"Roma";"Itália";41.89384;12.50383;227.42;DISCREPANCY
"Folha 1 (hoteis - Folha1.csv)";"The Avenue";"Shanklin";"United Kingdom (UK)";50.6343313;-1.1762938;"Stonehenge";"Reino Unido";37.09014;-8.678213;1619.66;DISCREPANCY
"Folha 1 (hoteis - Folha1.csv)";"Bedford Lodge";"Shanklin";"United Kingdom (UK)";50.6268374;-1.1773478;"Newmarket (Suffolk)";"Canadá";52.25057;0.41559;211.62;DISCREPANCY
"Folha 1 (hoteis - Folha1.csv)";"Carlton Hotel";"Shanklin";"United Kingdom (UK)";50.6308092;-1.1735006;"Atascadero";"Internacional";35.4894;-120.6721;8760.45;DISCREPANCY
"Folha 1 (hoteis - Folha1.csv)";"The Queens Hotel";"Penzance";"United Kingdom (UK)";50.1139828;-5.5379473;"Gibraltar";"Internacional";36.12859;-5.347476;1555.18;DISCREPANCY
"Folha 1 (hoteis - Folha1.csv)";"Panorama Guest House";"Penzance";"United Kingdom (UK)";50.1005196;-5.5521709;"Ghandruk";"Internacional";37.09103;-8.217216;1462.17;DISCREPANCY
"Folha 1 (hoteis - Folha1.csv)";"The Queens Hotel";"Portsmouth";"United Kingdom (UK)";50.7850916;-1.0931009;"Gibraltar";"Internacional";36.12859;-5.347476;1664.79;DISCREPANCY
"Folha 1 (hoteis - Folha1.csv)";"The Pier";"Portsmouth";"United Kingdom (UK)";50.7891603;-1.0960525;"Harwich (England)";"Reino Unido";51.94809;1.28643;209.65;DISCREPANCY
"Folha 1 (hoteis - Folha1.csv)";"Hotel Princess";"Ostend";"Belgium";51.2348514;2.918646;"Bar";"Montenegro";42.09797;19.09545;1592.63;DISCREPANCY
"Folha 1 (hoteis - Folha1.csv)";"Centrum Hotel";"Nicosia";"Cyprus";35.1699953;33.3614831;"Nicósia (Norte)";"Portugal";35.21165;33.33119;5.39;DISCREPANCY
"Folha 1 (hoteis - Folha1.csv)";"Hotel Eden";"Bormio";"Italy";46.4647432;10.3735995;"Oruro";"Bolívia";-17.97014;-67.11517;10528.80;DISCREPANCY
"Folha 1 (hoteis - Folha1.csv)";"Apollon Hotel";"Kos Town";"Greece";36.9114018;27.2781267;"Corinth";"Internacional";37.9382;22.9378;399.87;DISCREPANCY
"Folha 1 (hoteis - Folha1.csv)";"Ikion Eco Boutique Hotel";"Alonnisos";"Greece";39.1460536;23.8672598;"Alonissos";"Grécia";39.21231;23.90939;8.21;DISCREPANCY
"Folha 1 (hoteis - Folha1.csv)";"Paradise Hotel";"Alonnisos";"Greece";39.1444996;23.8668939;"Alonissos";"Grécia";39.21231;23.90939;8.38;DISCREPANCY
"Folha 1 (hoteis - Folha1.csv)";"Hotel Baia Azzurra";"Nago-Torbole";"Italy";45.8769844;10.8655296;"Arco";"Itália";45.93187;10.9172;7.30;DISCREPANCY
"Folha 1 (hoteis - Folha1.csv)";"Lotus Hotel";"Szeged";"Hungary";46.2648956;20.1639027;"Sa Pa";"China";22.33337;103.8427;7763.64;DISCREPANCY
"Folha 1 (hoteis - Folha1.csv)";"Hotel de la Paix";"La Rochelle";"France";46.1619694;-1.1509054;"Agadez";"Portugal";16.97256;7.990739;3353.99;DISCREPANCY
"Folha 1 (hoteis - Folha1.csv)";"Hotel de Paris";"La Rochelle";"France";46.1619813;-1.151117;"Amsterdam/Jordaan";"Holanda";52.36578;4.879771;816.29;DISCREPANCY
"Folha 1 (hoteis - Folha1.csv)";"Auberge de Jeunesse";"La Rochelle";"France";46.1444735;-1.1616515;"Arles";"França";43.67762;4.630965;532.08;DISCREPANCY
"Folha 1 (hoteis - Folha1.csv)";"Bellevue Hotel";"Ruhpolding";"Germany";47.7575446;12.6431631;"Blokhus";"Internacional";57.25235;9.584234;1075.60;DISCREPANCY
"Folha 1 (hoteis - Folha1.csv)";"Hotel Concordia";"Davos";"Switzerland";46.8041529;9.8370481;"Artigas";"Brasil";43.07504;0.0024053;877.25;DISCREPANCY
"Folha 1 (hoteis - Folha1.csv)";"Hotel  la Torre";"Castiglione del Lago";"Italy";43.1270164;12.0515671;"Calella de Palafrugell";"Internacional";41.88972;3.180592;739.68;DISCREPANCY
"Folha 1 (hoteis - Folha1.csv)";"Hotel Solarium";"Civitanova Marche";"Italy";43.3038088;13.7217206;"Osasco";"Brasil";-23.53249;-46.79168;9659.73;DISCREPANCY
"Folha 1 (hoteis - Folha1.csv)";"Ardrinane House";"Dingle";"Ireland";52.1508314;-10.0564602;"Annascaul";"Estados Unidos";37.09103;-8.217216;1680.75;DISCREPANCY
"Folha 1 (hoteis - Folha1.csv)";"Hotel Elite";"Karlsruhe";"Germany";48.9964813;8.3915125;"Biel";"Suíça";47.14021;7.243903;223.32;DISCREPANCY
"Folha 1 (hoteis - Folha1.csv)";"Hostal La Provinciana";"La Coruna";"Spain";43.3691296;-8.4027541;"A Coruña";"Espanha";43.34665;-8.412703;2.63;DISCREPANCY
"Folha 1 (hoteis - Folha1.csv)";"Castle Hotel";"Gjirokaster";"Albania";40.0718145;20.1368398;"Bishop's Castle";"Internacional";52.49363;-2.997921;2234.48;DISCREPANCY
"Folha 1 (hoteis - Folha1.csv)";"Masseria Incantalupi";"Brindisi";"Italy";40.6258794;17.7748008;"Brindisi";"Itália";40.63754;17.9455;14.46;DISCREPANCY
"Folha 1 (hoteis - Folha1.csv)";"Hotel Astoria";"Garda";"Italy";45.8928551;10.8467597;"Alberobello";"Itália";40.78693;17.2413;767.46;DISCREPANCY
"Folha 1 (hoteis - Folha1.csv)";"National Hotel";"Klaipeda";"Lithuania";55.7085682;21.1314658;"Tottori";"Portugal";35.35551;133.8679;8063.17;DISCREPANCY
"Folha 1 (hoteis - Folha1.csv)";"Beachcomber";"Swansea";"United Kingdom (UK)";51.6130041;-3.9572024;"Beaver Island";"Internacional";39.82709;3.11718;1419.33;DISCREPANCY
"Folha 1 (hoteis - Folha1.csv)";"Royal Hotel";"Novokuznetsk";"Russia";53.7644807;87.1379076;"Dead Sea (Israel and the West Bank)";"Jordânia";31.64063;35.57468;4738.09;DISCREPANCY
"Folha 1 (hoteis - Folha1.csv)";"Hotel Diana";"Pecs";"Hungary";46.0739047;18.2313444;"Bistrița";"Roménia";47.1327;24.4964;492.74;DISCREPANCY
"Folha 1 (hoteis - Folha1.csv)";"The George Hotel";"Penrith";"United Kingdom (UK)";54.6644032;-2.7524849;"Glossop";"Internacional";53.44433;-1.948299;145.46;DISCREPANCY
"Folha 1 (hoteis - Folha1.csv)";"Albany House";"Penrith";"United Kingdom (UK)";54.6671644;-2.7545721;"Peel (Isle of Man)";"Internacional";37.09103;-8.217216;1998.11;DISCREPANCY
"Folha 1 (hoteis - Folha1.csv)";"Hotel Carmen";"Mijas";"Spain";36.5053805;-4.6772371;"Trouville-sur-Mer";"Internacional";49.3672;0.07988557;1480.89;DISCREPANCY
"Folha 1 (hoteis - Folha1.csv)";"Hotel Jardim";"Aveiro";"Portugal";40.6365411;-8.6464898;"Mogi das Cruzes";"Brasil";-23.51883;-46.18192;8120.49;DISCREPANCY
"Folha 1 (hoteis - Folha1.csv)";"County Hotel";"Carlisle";"United Kingdom (UK)";54.891621;-2.9321424;"Banff (Scotland)";"Internacional";57.6645;-2.523289;309.36;DISCREPANCY
"Folha 1 (hoteis - Folha1.csv)";"Rose Cottage";"Bridport";"United Kingdom (UK)";50.7031841;-2.7275315;"Madison (Indiana)";"Estados Unidos";43.07469;-89.38416;6255.26;DISCREPANCY
"Folha 1 (hoteis - Folha1.csv)";"Stirling Court Hotel";"Stirling";"United Kingdom (UK)";56.1432737;-3.9221047;"Bridge of Allan";"Internacional";56.15504;-3.948067;2.07;DISCREPANCY
"Folha 1 (hoteis - Folha1.csv)";"Hotel les Orangers";"Hyeres";"France";43.1199924;6.1222712;"Aléria";"Internacional";42.11341;9.51498;299.30;DISCREPANCY
"Folha 1 (hoteis - Folha1.csv)";"Hotel Sonne";"Fussen";"Germany";47.5695219;10.6999681;"Estrasburgo";"França";48.46915;7.942733;228.15;DISCREPANCY
"Folha 1 (hoteis - Folha1.csv)";"Central City Hotel";"Fussen";"Germany";47.570044;10.6990684;"Bolgatanga";"Gana";10.7854;-0.8487322;4230.94;DISCREPANCY
"Folha 1 (hoteis - Folha1.csv)";"Hotel NeuHaus";"Dortmund";"Germany";51.5124914;7.4731493;"Mayrhofen";"Áustria";47.16722;11.86387;578.25;DISCREPANCY
"Folha 1 (hoteis - Folha1.csv)";"Hotel de la Poste";"Cortina d'Ampezzo";"Italy";46.5380951;12.1357961;"Sierre";"Internacional";46.29338;7.53473;353.72;DISCREPANCY
"Folha 1 (hoteis - Folha1.csv)";"City Hotel";"Bydgoszcz";"Poland";53.1245461;18.0096285;"Rovaniemi";"Finlândia";66.5015;25.7296;1546.04;DISCREPANCY
"Folha 1 (hoteis - Folha1.csv)";"Park Hotel";"Bydgoszcz";"Poland";53.1266242;17.9796089;"Montrose (Scotland)";"Reino Unido";56.71322;-2.46341;1360.05;DISCREPANCY
"Folha 1 (hoteis - Folha1.csv)";"Hotel Wodnik";"Bydgoszcz";"Poland";53.1321027;17.9472538;"Bełchatów";"Polónia";51.36673;19.36946;218.87;DISCREPANCY
"Folha 1 (hoteis - Folha1.csv)";"Hotel Excelsior";"La Maddalena";"Italy";41.2123712;9.4066976;"São Paulo/Centro Histórico";"Brasil";-23.55065;-46.63338;9228.49;DISCREPANCY
"Folha 1 (hoteis - Folha1.csv)";"Grand Hotel";"Dombay";"Russia";43.2915112;41.6277435;"Cairo";"Egito";30.05182;31.24618;1735.97;DISCREPANCY
"Folha 1 (hoteis - Folha1.csv)";"Onhann Hotel";"Balikesir";"Turkey";39.6567881;27.9061764;"Balıkesir";"Turquia";39.64739;27.88798;1.88;DISCREPANCY
"Folha 1 (hoteis - Folha1.csv)";"Pensiunea Ana Maria";"Baile Felix";"Romania";46.9886695;21.9806376;"Brad";"Roménia";46.13024;22.79215;113.85;DISCREPANCY
"Folha 1 (hoteis - Folha1.csv)";"Hotel Vital";"Baile Felix";"Romania";46.9881666;21.9776868;"Acapulco";"México";16.86805;-99.89402;10854.29;DISCREPANCY
"Folha 1 (hoteis - Folha1.csv)";"Hotel Ansgar";"Esbjerg";"Denmark";55.4667731;8.4508183;"Odense";"Dinamarca";55.39964;10.38169;122.04;DISCREPANCY
"Folha 1 (hoteis - Folha1.csv)";"The Townhouse";"Tenby";"United Kingdom (UK)";51.6692165;-4.7022032;"Manitou Springs";"Internacional";37.14127;-8.571671;1643.81;DISCREPANCY
"Folha 1 (hoteis - Folha1.csv)";"Panorama Hotel";"Tenby";"United Kingdom (UK)";51.6694291;-4.6997584;"Kalamata";"Grécia";37.0091;22.1552;2661.05;DISCREPANCY
"Folha 1 (hoteis - Folha1.csv)";"Atlantic Hotel";"Tenby";"United Kingdom (UK)";51.6690263;-4.7005471;"Canavieiras";"Brasil";-15.67901;-38.94496;8188.75;DISCREPANCY
"Folha 1 (hoteis - Folha1.csv)";"Hotel Central";"Gerlos";"Austria";47.2262429;12.0383269;"Bamberg";"Alemanha";49.89161;10.88685;308.24;DISCREPANCY
"Folha 1 (hoteis - Folha1.csv)";"Hotel Victoria";"Gerlos";"Austria";47.22523;12.0342411;"Nuremberg";"Alemanha";49.45387;11.0773;257.70;DISCREPANCY
"Folha 1 (hoteis - Folha1.csv)";"Hotel Eden";"Primiero San Martino di Castrozza";"Italy";46.1752764;11.8327842;"Oruro";"Bolívia";-17.97014;-67.11517;10622.14;DISCREPANCY
"Folha 1 (hoteis - Folha1.csv)";"Hotel Astoria";"Primiero San Martino di Castrozza";"Italy";46.1752914;11.8300584;"Alberobello";"Itália";40.78693;17.2413;740.96;DISCREPANCY
"Folha 1 (hoteis - Folha1.csv)";"Hotel Maria Luisa";"Burgos";"Spain";42.346939;-3.6971771;"Sófia";"Bulgária";42.6977;23.32174;2205.12;DISCREPANCY
"Folha 1 (hoteis - Folha1.csv)";"Hotel Cordon";"Burgos";"Spain";42.3418342;-3.6986726;"Burgos (city)";"Espanha";42.35022;-3.67527;2.14;DISCREPANCY
"Folha 1 (hoteis - Folha1.csv)";"Hotel Hirschen";"Grindelwald";"Switzerland";46.6234543;8.0383862;"Dornbirn";"Áustria";47.43028;9.755209;158.05;DISCREPANCY
"Folha 1 (hoteis - Folha1.csv)";"Hotel Post";"Brunico";"Italy";46.796325;11.9366176;"Schaan";"Internacional";51.11225;6.487717;623.03;DISCREPANCY
"Folha 1 (hoteis - Folha1.csv)";"Upstalsboom Hotelresidenz & SPA Kuhlungsborn";"Ostseebad Kuhlungsborn";"Germany";54.1524947;11.7473581;"Kühlungsborn";"Internacional";38.67878;0.09787;1932.76;DISCREPANCY
"Folha 1 (hoteis - Folha1.csv)";"Hotel Adler";"Ceske Budejovice";"Czech Republic";48.9881252;14.4702434;"Appenzell";"Suíça";47.32995;9.409931;418.07;DISCREPANCY
"Folha 1 (hoteis - Folha1.csv)";"Hotel Astoria";"Alba Iulia";"Romania";46.1224935;23.6221787;"Alberobello";"Itália";40.78693;17.2413;785.13;DISCREPANCY
"Folha 1 (hoteis - Folha1.csv)";"Hotel La Perla";"Roseto Degli Abruzzi";"Italy";42.6850582;14.0100644;"Almería";"Espanha";36.86857;-2.312028;1534.07;DISCREPANCY
"Folha 1 (hoteis - Folha1.csv)";"Hotel Astoria";"Fermo";"Italy";43.1598889;13.7175628;"Alberobello";"Itália";40.78412;17.2377;392.96;DISCREPANCY
"Folha 1 (hoteis - Folha1.csv)";"Hotel Regina";"Fatima";"Portugal";39.6282278;-8.6745016;"Lausanne";"Suíça";46.52163;6.6312;1456.71;DISCREPANCY
"Folha 1 (hoteis - Folha1.csv)";"Hotel Fatima";"Fatima";"Portugal";39.6309571;-8.6760622;"Divinópolis";"Brasil";-20.14613;-44.88982;7636.12;DISCREPANCY
"Folha 1 (hoteis - Folha1.csv)";"Villa Panorama";"Lemnos";"Greece";39.8671231;25.2784604;"Dojran";"Internacional";37.09103;-8.217216;2914.88;DISCREPANCY
"Folha 1 (hoteis - Folha1.csv)";"Metropol";"Cheboksary";"Russia";56.1284285;47.2132373;"Mogilev";"Bielorrússia";53.90902;30.34298;1100.40;DISCREPANCY
"Folha 1 (hoteis - Folha1.csv)";"Carlton Hotel";"Ilfracombe";"United Kingdom (UK)";51.2095234;-4.1263635;"Atascadero";"Internacional";35.4894;-120.6721;8564.69;DISCREPANCY
"Folha 1 (hoteis - Folha1.csv)";"Hotel Italia";"Corvara in Badia";"Italy";46.5514921;11.8738413;"Mantua";"Itália";38.85372;-77.25943;6936.80;DISCREPANCY
"Folha 1 (hoteis - Folha1.csv)";"Hotel Astoria";"Salsomaggiore Terme";"Italy";44.8070712;10.0182243;"Alberobello";"Itália";40.78412;17.2377;739.17;DISCREPANCY
"Folha 1 (hoteis - Folha1.csv)";"Hotel Elite";"Salsomaggiore Terme";"Italy";44.8173475;9.9783289;"Visp";"Suíça";46.29131;7.881192;231.34;DISCREPANCY
"Folha 1 (hoteis - Folha1.csv)";"Saint John Hotel";"Selcuk";"Turkey";37.9540639;27.3700798;"Madaba";"Jordânia";31.71659;35.79438;1034.62;DISCREPANCY
"Folha 1 (hoteis - Folha1.csv)";"Hotel Victoria";"Carovigno";"Italy";40.7548941;17.707055;"Nuremberg";"Alemanha";49.45387;11.0773;1097.33;DISCREPANCY
"Folha 1 (hoteis - Folha1.csv)";"Hotel Elena";"Stresa";"Italy";45.8833705;8.5404515;"Edessa";"Grécia";40.80099;22.05119;1227.86;DISCREPANCY
"Folha 1 (hoteis - Folha1.csv)";"Hotel du Parc";"Stresa";"Italy";45.8814794;8.538519;"Diekirch";"Luxemburgo";49.86909;6.160055;477.51;DISCREPANCY
"Folha 1 (hoteis - Folha1.csv)";"Lido Hotel";"Varazze";"Italy";44.3580408;8.5715506;"Cantão";"China";23.12885;113.259;9318.70;DISCREPANCY
"Folha 1 (hoteis - Folha1.csv)";"Hotel Riviera";"Varazze";"Italy";44.3610513;8.5764318;"Bukavu";"Internacional";-2.505584;28.85949;5587.80;DISCREPANCY
"Folha 1 (hoteis - Folha1.csv)";"Garden Hotel";"Rennes";"France";48.1088874;-1.6733929;"Bangor (Wales)";"Irlanda";54.15485;-9.721192;874.84;DISCREPANCY
"Folha 1 (hoteis - Folha1.csv)";"Hotel Du Palais";"Dijon";"France";47.3194716;5.042377;"Saint-Louis";"França";48.71608;7.188416;222.68;DISCREPANCY
"Folha 1 (hoteis - Folha1.csv)";"Hotel Mediterraneo";"Estepona";"Spain";36.4262665;-5.1422262;"Roma";"Itália";41.89332;12.48293;1632.88;DISCREPANCY
"Folha 1 (hoteis - Folha1.csv)";"Hotel Puerta Gamboa";"Vigo";"Spain";42.2390103;-8.7250502;"Vigo";"Espanha";42.19864;-8.727956;4.50;DISCREPANCY
"Folha 1 (hoteis - Folha1.csv)";"Hotel Europa";"Livorno";"Italy";43.5522515;10.3111691;"Bamberg";"Alemanha";49.89161;10.88685;706.26;DISCREPANCY
"Folha 1 (hoteis - Folha1.csv)";"Hotel Universal";"Livorno";"Italy";43.5076418;10.3193033;"Dupnitsa";"Bulgária";42.26284;23.11436;1050.55;DISCREPANCY
"Folha 1 (hoteis - Folha1.csv)";"Hotel Santa Lucia";"Termoli";"Italy";42.0039484;14.9956777;"Valladolid (Yucatán)";"México";20.69025;-88.2017;9511.89;DISCREPANCY
"Folha 1 (hoteis - Folha1.csv)";"Hotel Post";"Westendorf";"Austria";47.4325298;12.215011;"Schaan";"Internacional";51.11225;6.487717;582.83;DISCREPANCY
"Folha 1 (hoteis - Folha1.csv)";"Villa Daniela";"Brodarica";"Croatia";43.6797023;15.9170474;"Dojran";"Internacional";37.09103;-8.217216;2162.03;DISCREPANCY
"Folha 1 (hoteis - Folha1.csv)";"Abbey House Hotel";"Reading";"United Kingdom (UK)";51.4526161;-0.9952581;"Barrow-in-Furness";"Internacional";54.11134;-3.228949;331.58;DISCREPANCY
"Folha 1 (hoteis - Folha1.csv)";"Hotel Europa";"Reggio Emilia";"Italy";44.6940332;10.6415305;"Bamberg";"Alemanha";49.89161;10.88685;578.24;DISCREPANCY
"Folha 1 (hoteis - Folha1.csv)";"Hotel Lido";"Miskolc";"Hungary";48.0648387;20.7462163;"Genebra";"Suíça";46.20176;6.146601;1121.86;DISCREPANCY
"Folha 1 (hoteis - Folha1.csv)";"Alfa Hotel";"Miskolc";"Hungary";48.0605012;20.7532881;"Estocolmo";"Suécia";59.32512;18.07109;1264.69;DISCREPANCY
"Folha 1 (hoteis - Folha1.csv)";"The Lodge";"Kenmare";"Ireland";51.8813204;-9.5761135;"Avebury";"Reino Unido";51.42777;-1.85979;534.44;DISCREPANCY
"Folha 1 (hoteis - Folha1.csv)";"Apollon Hotel";"Tolon";"Greece";37.5226237;22.8605953;"Náuplia";"Grécia";37.56592;22.80688;6.75;DISCREPANCY
"Folha 1 (hoteis - Folha1.csv)";"City Hotel";"Derry";"United Kingdom (UK)";54.9993136;-7.3204123;"Rovaniemi";"Finlândia";66.5015;25.7296;2163.14;DISCREPANCY
"Folha 1 (hoteis - Folha1.csv)";"Hotel Atlantico";"Lugano";"Switzerland";46.0068667;8.9673073;"Roma";"Itália";41.89332;12.48293;536.92;DISCREPANCY
"Folha 1 (hoteis - Folha1.csv)";"Hotel Dania";"Fehmarn";"Germany";54.4971498;11.2200769;"Pattaya";"Tailândia";12.93669;100.8865;8818.52;DISCREPANCY
"Folha 1 (hoteis - Folha1.csv)";"Indian House";"Zelenogradsk";"Russia";54.9560272;20.4673858;"Astrakhan";"Internacional";37.09103;-8.217216;2937.57;DISCREPANCY
"Folha 1 (hoteis - Folha1.csv)";"Hostal Los Pinos";"Barbate";"Spain";36.2007057;-6.0353685;"Puerto Rio Tranquilo";"Argentina";38.6783;0.08935;606.69;DISCREPANCY
"Folha 1 (hoteis - Folha1.csv)";"Hotel Central";"Torrevieja";"Spain";37.9772136;-0.6794247;"Rabat";"Marrocos";34.02185;-6.840893;707.28;DISCREPANCY
"Folha 1 (hoteis - Folha1.csv)";"Paradise";"Kobleve";"Ukraine";46.6278258;31.2013504;"Bad Fallingbostel";"Internacional";52.86545;9.69302;1685.44;DISCREPANCY
"Folha 1 (hoteis - Folha1.csv)";"Apollo Hotel";"Vasiliki";"Greece";35.1881428;25.7151311;"Basingstoke";"Reino Unido";51.26283;-1.086198;2785.05;DISCREPANCY
"Folha 1 (hoteis - Folha1.csv)";"Golden Lion";"Signagi";"Georgia";41.6195431;45.921855;"Corbridge";"Internacional";54.9743;-2.017466;3754.41;DISCREPANCY
"Folha 1 (hoteis - Folha1.csv)";"Hotel Terminal";"Castrignano del Capo";"Italy";39.7969548;18.3568574;"Artigas";"Brasil";43.07504;0.0024053;1569.41;DISCREPANCY
"Folha 1 (hoteis - Folha1.csv)";"Hotel Igea";"Brescia";"Italy";45.5336406;10.2123557;"Nova Pádua";"Brasil";-29.02835;-51.3076;10353.21;DISCREPANCY
"Folha 1 (hoteis - Folha1.csv)";"Hotel Zur Post";"Bernkastel-Kues";"Germany";49.9127724;7.0112416;"Andechs";"Alemanha";47.96687;11.1848;373.73;DISCREPANCY
"Folha 1 (hoteis - Folha1.csv)";"Hotel Diana";"Tossa de Mar";"Spain";41.7188385;2.932496;"Bistrița";"Roménia";47.1327;24.4964;1808.10;DISCREPANCY
"Folha 1 (hoteis - Folha1.csv)";"Hotel Windsor";"Tossa de Mar";"Spain";41.7200653;2.9309974;"Odense";"Dinamarca";55.39837;10.38293;1614.58;DISCREPANCY
"Folha 1 (hoteis - Folha1.csv)";"Hotel Continental";"Tossa de Mar";"Spain";41.7220777;2.9278283;"Kairouan";"Tunísia";35.68589;10.09789;914.53;DISCREPANCY
"Folha 1 (hoteis - Folha1.csv)";"Hotel Florida";"Tossa de Mar";"Spain";41.7212521;2.9327258;"Filadelfia";"Portugal";41.70519;-8.817631;974.59;DISCREPANCY
"Folha 1 (hoteis - Folha1.csv)";"Hotel Akureyri";"Akureyri";"Iceland";65.6911063;-18.1067857;"Akureyri";"Internacional";65.68143;-18.08992;1.32;DISCREPANCY
"Folha 1 (hoteis - Folha1.csv)";"The Corner House Hotel";"Taunton";"United Kingdom (UK)";51.0134405;-3.110721;"Gatwick Airport";"Reino Unido";51.16995;-0.17299;205.89;DISCREPANCY
"Folha 1 (hoteis - Folha1.csv)";"Hotel Atlas";"Alba Adriatica";"Italy";42.8187342;13.936721;"Mashhad";"Irã";36.29749;59.60592;3932.55;DISCREPANCY
"Folha 1 (hoteis - Folha1.csv)";"Hotel Lido";"Alba Adriatica";"Italy";42.6848015;14.0108695;"Genebra";"Suíça";46.20176;6.146601;736.16;DISCREPANCY
"Folha 1 (hoteis - Folha1.csv)";"Hotel Eden";"Alba Adriatica";"Italy";42.9704743;13.877838;"Oruro";"Bolívia";-17.97014;-67.11517;10654.23;DISCREPANCY
"Folha 1 (hoteis - Folha1.csv)";"Hotel Eva";"Alba Adriatica";"Italy";42.8225632;13.9317592;"Faro";"Portugal";37.01629;-7.935182;1966.64;DISCREPANCY
"Folha 1 (hoteis - Folha1.csv)";"Hotel La Pergola";"Alba Adriatica";"Italy";42.8248585;13.9333652;"Amalfi";"Itália";6.90701;-75.07359;9405.44;DISCREPANCY
"Folha 1 (hoteis - Folha1.csv)";"Hotel President";"Alba Adriatica";"Italy";42.9148109;13.902045;"Bacău";"Roménia";46.55605;26.91536;1103.12;DISCREPANCY
"Folha 1 (hoteis - Folha1.csv)";"Napoleon Hotel";"Gabicce Mare";"Italy";43.9169707;12.9129734;"Beirut/Hamra";"Internacional";33.89674;35.48296;2237.64;DISCREPANCY
"Folha 1 (hoteis - Folha1.csv)";"Hotel Alexander";"Gabicce Mare";"Italy";43.9688792;12.7242904;"Puerto Iguazu";"Brasil";-25.53979;-54.58744;10318.85;DISCREPANCY
"Folha 1 (hoteis - Folha1.csv)";"Hotel Lido";"Gabicce Mare";"Italy";43.9675185;12.754672;"Genebra";"Suíça";46.20176;6.146601;574.97;DISCREPANCY
"Folha 1 (hoteis - Folha1.csv)";"Hotel Plaza";"Gabicce Mare";"Italy";43.9690424;12.726726;"A Corunha";"Espanha";43.35597;-8.404226;1696.50;DISCREPANCY
"Folha 1 (hoteis - Folha1.csv)";"Hotel Suisse";"Marina di Pietrasanta";"Italy";43.9211319;10.2057946;"Algiers";"Internacional";36.76766;3.05292;999.24;DISCREPANCY
"Folha 1 (hoteis - Folha1.csv)";"Savoy Hotel";"Marina di Pietrasanta";"Italy";43.9123888;10.2119357;"Piraeus";"Internacional";37.94316;23.64706;1307.01;DISCREPANCY
"Folha 1 (hoteis - Folha1.csv)";"Hotel Alte Post";"Grossarl";"Austria";47.2374221;13.2010706;"Calw";"Alemanha";48.71358;8.741785;370.23;DISCREPANCY
"Folha 1 (hoteis - Folha1.csv)";"Johanneshof";"Grossarl";"Austria";47.2482138;13.1949559;"Hockenheim";"Internacional";49.34939;8.50555;418.11;DISCREPANCY
"Folha 1 (hoteis - Folha1.csv)";"Alsos House";"Kalambaka";"Greece";39.710267;21.6300309;"Kalambaka";"Grécia";37.11314;-8.675184;2643.55;DISCREPANCY
"Folha 1 (hoteis - Folha1.csv)";"The County Hotel";"Hexham";"United Kingdom (UK)";54.8655764;-1.9347907;"Chelmsford (England)";"Reino Unido";51.73761;0.463757;382.54;DISCREPANCY
"Folha 1 (hoteis - Folha1.csv)";"Das Kleine Hotel";"Weimar";"Germany";50.978531;11.3149256;"Bispingen";"Alemanha";53.0823;9.996472;250.70;DISCREPANCY
"Folha 1 (hoteis - Folha1.csv)";"Hotel Astoria";"Courmayeur";"Italy";45.8183338;6.9640676;"Alberobello";"Itália";40.78412;17.2377;1001.02;DISCREPANCY
"Folha 1 (hoteis - Folha1.csv)";"Hotel Cruzeiro";"Terceira";"Portugal";38.6567902;-27.2160171;"Biritiba-Mirim";"Brasil";-23.56978;-46.04074;7191.97;DISCREPANCY
"Folha 1 (hoteis - Folha1.csv)";"Hotel Dania";"Silkeborg";"Denmark";56.1696017;9.5494244;"Pattaya";"Tailândia";12.93669;100.8865;8897.79;DISCREPANCY
"Folha 1 (hoteis - Folha1.csv)";"Hotel Eden";"Toscolano-Maderno";"Italy";45.4926263;10.6069018;"Oruro";"Bolívia";-17.97014;-67.11517;10506.43;DISCREPANCY
"Folha 1 (hoteis - Folha1.csv)";"Divan Adana";"Adana";"Turkey";36.9918935;35.3240092;"Adana";"Turquia";39.25546;9.57326;2258.88;DISCREPANCY
"Folha 1 (hoteis - Folha1.csv)";"Capricho";"Cala Ratjada";"Spain";39.7136097;3.4614307;"Caldas Novas";"Internacional";-17.745;-48.625;8361.82;DISCREPANCY
"Folha 1 (hoteis - Folha1.csv)";"Hotel City";"Montesilvano";"Italy";42.5168747;14.1608145;"Lausanne";"Suíça";46.5206;6.6369;743.79;DISCREPANCY
"Folha 1 (hoteis - Folha1.csv)";"Kurhotel Alexa";"Bad Worishofen";"Germany";48.0022758;10.5874851;"Bad Mergentheim";"Alemanha";49.49747;9.7721;176.68;DISCREPANCY
"Folha 1 (hoteis - Folha1.csv)";"Hotel Zur Post";"Alpbach";"Austria";47.3992442;11.9423922;"Andechs";"Alemanha";47.96687;11.1848;84.85;DISCREPANCY
"Folha 1 (hoteis - Folha1.csv)";"Hotel Sonne";"Rothenburg";"Germany";49.3770956;10.1803126;"Estrasburgo";"França";48.46915;7.942733;192.13;DISCREPANCY
"Folha 1 (hoteis - Folha1.csv)";"Albergo Italia";"Urbino";"Italy";43.7254161;12.6360782;"Abbiategrasso";"Internacional";45.39883;8.919265;348.27;DISCREPANCY
"Folha 1 (hoteis - Folha1.csv)";"Hotel Victoria";"Stavanger";"Norway";58.973136;5.7303845;"Bad Harzburg";"Alemanha";51.87978;10.55956;845.02;DISCREPANCY
"Folha 1 (hoteis - Folha1.csv)";"Centrum Hotel";"Debrecen";"Hungary";47.5325504;21.6252423;"Nicósia (Norte)";"Portugal";35.21165;33.33119;1678.50;DISCREPANCY
"Folha 1 (hoteis - Folha1.csv)";"Katerina Hotel";"Agios Prokopios";"Greece";39.5336887;19.9184984;"Batu Pahat";"Internacional";1.847258;102.9347;9278.09;DISCREPANCY
"Folha 1 (hoteis - Folha1.csv)";"Hotel Lido";"Ledro";"Italy";45.808256;10.7924747;"Genebra";"Suíça";46.20176;6.146601;361.43;DISCREPANCY
"Folha 1 (hoteis - Folha1.csv)";"Rosengarten";"Dobbiaco";"Italy";46.7306299;12.2299367;"Berne";"Internacional";46.94847;7.452175;364.16;DISCREPANCY
"Folha 1 (hoteis - Folha1.csv)";"Apollon Hotel";"Paleokastritsa";"Greece";39.6726143;19.7029272;"Corinth";"Internacional";37.9382;22.9378;340.21;DISCREPANCY
"Folha 1 (hoteis - Folha1.csv)";"Hotel Italia";"Lerici";"Italy";44.0745544;9.9180282;"Mantua";"Itália";38.85372;-77.25943;6934.08;DISCREPANCY
"Folha 1 (hoteis - Folha1.csv)";"Villa Luisa";"Timmendorfer Strand";"Germany";53.9920892;10.793935;"Todi";"Portugal";42.77802;12.4221;1252.64;DISCREPANCY
"Folha 1 (hoteis - Folha1.csv)";"Park-Hotel";"Timmendorfer Strand";"Germany";54.0007003;10.7780915;"Montrose (Scotland)";"Reino Unido";56.71322;-2.46341;887.96;DISCREPANCY
"Folha 1 (hoteis - Folha1.csv)";"Hotel Post";"Lermoos";"Austria";47.3981041;10.8877341;"Schaan";"Internacional";51.11225;6.487717;521.85;DISCREPANCY
"Folha 1 (hoteis - Folha1.csv)";"Hotel Regina";"Obergurgl";"Austria";46.9610616;11.008701;"Lausanne";"Suíça";46.52183;6.632702;336.97;DISCREPANCY
"Folha 1 (hoteis - Folha1.csv)";"Columbus";"Rowy";"Poland";54.6603971;17.0410429;"Columbus (Indiana)";"Estados Unidos";39.96226;-83.00071;7057.79;DISCREPANCY
"Folha 1 (hoteis - Folha1.csv)";"The Limes";"Telford";"United Kingdom (UK)";52.7034833;-2.5219962;"Maldon";"Internacional";51.73241;0.678647;243.28;DISCREPANCY
"Folha 1 (hoteis - Folha1.csv)";"Hotel Metropol";"Diano Marina";"Italy";43.901882;8.0737877;"Korolev";"Rússia";55.91901;37.81504;2484.84;DISCREPANCY
"Folha 1 (hoteis - Folha1.csv)";"Hotel Splendid";"Diano Marina";"Italy";43.9175652;8.0917205;"Dubrovnik";"Croácia";42.65388;18.06553;818.92;DISCREPANCY
"Folha 1 (hoteis - Folha1.csv)";"Hotel Capri";"Diano Marina";"Italy";43.9138133;8.0870948;"Viena";"Brasil";-3.162849;-52.22159;7945.67;DISCREPANCY
"Folha 1 (hoteis - Folha1.csv)";"Hotel Am Dom";"Bamberg";"Germany";49.8912176;10.8842865;"Fulda";"Alemanha";50.5521;9.669835;113.42;DISCREPANCY
"Folha 1 (hoteis - Folha1.csv)";"Palms Hotel";"Mauritius";"Mauritius";-20.2645689;57.4804538;"Zâmbia";"Reino Unido";-14.51891;27.55899;3233.71;DISCREPANCY
"Folha 1 (hoteis - Folha1.csv)";"Ambassador Hotel";"Addis Ababa";"Ethiopia";8.9918957;38.7884052;"Hargeisa";"Internacional";9.5221;44.07272;582.92;DISCREPANCY
"Folha 1 (hoteis - Folha1.csv)";"Royal Hotel";"Durban";"South Africa";-29.8595071;31.0258936;"Dead Sea (Israel and the West Bank)";"Jordânia";31.64063;35.57468;6855.35;DISCREPANCY
"Folha 1 (hoteis - Folha1.csv)";"Rainbow Hotel";"Dar es Salaam";"Tanzania";-6.8192664;39.2858307;"Juba";"Sudão";12.15184;24.45229;2672.00;DISCREPANCY
"Folha 1 (hoteis - Folha1.csv)";"The Nest";"Kigali";"Rwanda";-1.9534437;30.0823989;"Francistown";"Portugal";-21.16636;27.50252;2154.59;DISCREPANCY
"Folha 1 (hoteis - Folha1.csv)";"Le Meridien Cairo Airport";"Cairo";"Egypt";30.1137185;31.3953464;"Cairo/Cairo Velho";"Egito";30.04439;31.23573;17.18;DISCREPANCY
"Folha 1 (hoteis - Folha1.csv)";"Sofitel Abidjan Hotel Ivoire";"Abidjan";"Ivory Coast";5.326457;-4.0047983;"Abidjan";"Internacional";37.09103;-8.217216;3557.94;DISCREPANCY
"Folha 1 (hoteis - Folha1.csv)";"Townhouse Hotel";"Cape Town Central";"South Africa";-33.9261389;18.4218885;"Melrose (Scotland)";"Reino Unido";55.59737;-2.719759;10155.61;DISCREPANCY
"Folha 1 (hoteis - Folha1.csv)";"Waterfront Lodge";"Knysna";"South Africa";-34.0391967;23.0153526;"Tongatapu";"Portugal";-21.16671;-175.1982;13580.77;DISCREPANCY
"Folha 1 (hoteis - Folha1.csv)";"Hotel Timoulay & Spa Agadir";"Agadir";"Morocco";30.3967183;-9.5939441;"Agadir";"Marrocos";30.42052;-9.583853;2.82;DISCREPANCY
"Folha 1 (hoteis - Folha1.csv)";"Mai Guest House";"Bloemfontein";"South Africa";-29.146743;26.2026373;"Cidade Ho Chi Minh";"Vietnã";10.77373;106.7166;9686.58;DISCREPANCY
"Folha 1 (hoteis - Folha1.csv)";"Palm Lodge";"Bloemfontein";"South Africa";-29.1070333;26.19602;"Kimberley";"África do Sul";-28.7383;24.76423;145.26;DISCREPANCY
"Folha 1 (hoteis - Folha1.csv)";"City Lodge";"Lusaka";"Zambia";-15.4174856;28.3037285;"Pretória";"África do Sul";-25.74593;28.18791;1148.53;DISCREPANCY
"Folha 1 (hoteis - Folha1.csv)";"Bird Nest Backpackers";"Lusaka";"Zambia";-15.435658;28.3393698;"Lusaka";"Internacional";-15.41634;28.28184;6.53;DISCREPANCY
"Folha 1 (hoteis - Folha1.csv)";"Grand Rotana Resort & Spa";"Sharm El Sheikh";"Egypt";27.9387379;34.3826088;"Sharm el-Sheikh";"Portugal";27.86444;34.29545;11.90;DISCREPANCY
"Folha 1 (hoteis - Folha1.csv)";"Ibis Douala";"Douala";"Cameroon";4.0392409;9.6875931;"Douala";"Internacional";37.11314;-8.675184;4126.61;DISCREPANCY
"Folha 1 (hoteis - Folha1.csv)";"Fleur de Sel";"Mahe Island";"Seychelles";-4.7462092;55.5157583;"Bujumbura";"Internacional";-3.363812;29.3675;2904.15;DISCREPANCY
"Folha 1 (hoteis - Folha1.csv)";"Travelodge";"Gaborone";"Botswana";-24.630396;25.9019745;"London with children";"Reino Unido";38.6783;0.08935;7535.32;DISCREPANCY
"Folha 1 (hoteis - Folha1.csv)";"Concorde Hotel";"Owerri";"Nigeria";5.4725864;7.0198747;"Aquisgrano";"França";50.77635;6.083862;5038.30;DISCREPANCY
"Folha 1 (hoteis - Folha1.csv)";"Hotel Casablanca";"Casablanca";"Morocco";33.5850402;-7.6107526;"Lindóia";"Internacional";-2.90796;-59.05347;6741.25;DISCREPANCY
"Folha 1 (hoteis - Folha1.csv)";"Honey Badger Lodge";"Moshi";"Tanzania";-3.3511084;37.3838143;"Moshi";"Tanzânia";-3.348646;37.34352;4.48;DISCREPANCY
