[{"name":"Hotel Tropical","asciiName":"Hotel Tropical","alternatenames":[],"lat":-3.06306,"lon":-60.1075,"countryCode":"BR"},{"name":"Estanplaza Nacoes Unidas","asciiName":"Estanplaza Nacoes Unidas","alternatenames":[],"lat":-23.6029,"lon":-46.6933,"countryCode":"BR"},{"name":"Radisson Hotel Sao Paulo Faria Lima","asciiName":"Radisson Hotel Sao Paulo Faria Lima","alternatenames":[],"lat":-23.5823,"lon":-46.6855,"countryCode":"BR"},{"name":"Melia Jardim Europa","asciiName":"Melia Jardim Europa","alternatenames":[],"lat":-23.5817,"lon":-46.6788,"countryCode":"BR"},{"name":"Othon Pousada Riverside Park","asciiName":"Othon Pousada Riverside Park","alternatenames":[],"lat":-22.4772,"lon":-43.1724,"countryCode":"BR"},{"name":"Blue Tree Towers Morumbi","asciiName":"Blue Tree Towers Morumbi","alternatenames":[],"lat":-23.6229,"lon":-46.6967,"countryCode":"BR"},{"name":"Best Western Rio Copa Hotel","asciiName":"Best Western Rio Copa Hotel","alternatenames":[],"lat":-22.9631,"lon":-43.1746,"countryCode":"BR"},{"name":"Orla Copacabana Hotel","asciiName":"Orla Copacabana Hotel","alternatenames":[],"lat":-22.9849,"lon":-43.1893,"countryCode":"BR"},{"name":"Blue Tree Faria Lima","asciiName":"Blue Tree Faria Lima","alternatenames":[],"lat":-23.5911,"lon":-46.6811,"countryCode":"BR"},{"name":"Hotel Nadai","asciiName":"Hotel Nadai","alternatenames":[],"lat":-25.5038,"lon":-54.4916,"countryCode":"BR"},{"name":"JW Marriott Hotel Rio de Janeiro","asciiName":"JW Marriott Hotel Rio de Janeiro","alternatenames":[],"lat":-22.9725,"lon":-43.1854,"countryCode":"BR"},{"name":"Estanplaza Faria Lima Funchal","asciiName":"Estanplaza Faria Lima Funchal","alternatenames":[],"lat":-23.5934,"lon":-46.6891,"countryCode":"BR"},{"name":"Estanplaza Ibirapuera","asciiName":"Estanplaza Ibirapuera","alternatenames":[],"lat":-23.6086,"lon":-46.6602,"countryCode":"BR"},{"name":"MENDES PANORAMA HOTEL","asciiName":"MENDES PANORAMA HOTEL","alternatenames":[],"lat":-23.9499,"lon":-46.3333,"countryCode":"BR"},{"name":"Hotel Deville Porto Alegre Aero","asciiName":"Hotel Deville Porto Alegre Aero","alternatenames":[],"lat":-30.0333,"lon":-51.2,"countryCode":"BR"},{"name":"Blue Tree Park Brasilia","asciiName":"Blue Tree Park Brasilia","alternatenames":[],"lat":-15.7917,"lon":-47.8977,"countryCode":"BR"},{"name":"Ipanema Plaza Hotel","asciiName":"Ipanema Plaza Hotel","alternatenames":[],"lat":-22.9856,"lon":-43.2008,"countryCode":"BR"},{"name":"Emiliano","asciiName":"Emiliano","alternatenames":[],"lat":-23.5662,"lon":-46.6653,"countryCode":"BR"},{"name":"Caesar Park Sao Paulo Int. Airport","asciiName":"Caesar Park Sao Paulo Int. Airport","alternatenames":[],"lat":-23.4496,"lon":-46.4896,"countryCode":"BR"},{"name":"The Time Othon Flat","asciiName":"The Time Othon Flat","alternatenames":[],"lat":-23.6087,"lon":-46.6954,"countryCode":"BR"},{"name":"Olinda Othon Classic","asciiName":"Olinda Othon Classic","alternatenames":[],"lat":-22.9704,"lon":-43.1831,"countryCode":"BR"},{"name":"Marina All Suites Hotel","asciiName":"Marina All Suites Hotel","alternatenames":["Marina All Suites Hotel"],"lat":-22.9871,"lon":-43.2229,"countryCode":"BR"},{"name":"Tryp Tatuape","asciiName":"Tryp Tatuape","alternatenames":[],"lat":-23.5471,"lon":-46.5711,"countryCode":"BR"},{"name":"Colonna Beach Othon Travel","asciiName":"Colonna Beach Othon Travel","alternatenames":[],"lat":-22.7547,"lon":-41.8721,"countryCode":"BR"},{"name":"Othon Palace Fortaleza","asciiName":"Othon Palace Fortaleza","alternatenames":[],"lat":-3.7246,"lon":-38.4897,"countryCode":"BR"},{"name":"Costa do Sauipe Marriott Resort & Spa","asciiName":"Costa do Sauipe Marriott Resort & Spa","alternatenames":[],"lat":-12.6793,"lon":-38.1044,"countryCode":"BR"},{"name":"Blue Tree Paulista","asciiName":"Blue Tree Paulista","alternatenames":[],"lat":-23.5601,"lon":-46.6561,"countryCode":"BR"},{"name":"Renaissance Costa do Sauipe Resort","asciiName":"Renaissance Costa do Sauipe Resort","alternatenames":[],"lat":-12.6829,"lon":-38.1068,"countryCode":"BR"},{"name":"San Raphael Hotel","asciiName":"SAN RAPHAEL HOTEL","alternatenames":[],"lat":-9.4499,"lon":-36.0333,"countryCode":"BR"},{"name":"Estanplaza Berrini","asciiName":"Estanplaza Berrini","alternatenames":[],"lat":-23.6042,"lon":-46.6925,"countryCode":"BR"},{"name":"Best Western Panamby Hotel","asciiName":"Best Western Panamby Hotel","alternatenames":[],"lat":-23.4814,"lon":-46.5335,"countryCode":"BR"},{"name":"Tryp WTC Brooklin","asciiName":"Tryp WTC Brooklin","alternatenames":[],"lat":-23.6093,"lon":-46.6952,"countryCode":"BR"},{"name":"Century Hotel","asciiName":"Century Hotel","alternatenames":[],"lat":-23.5731,"lon":-46.6494,"countryCode":"BR"},{"name":"Tryp Itaim","asciiName":"Tryp Itaim","alternatenames":[],"lat":-23.5832,"lon":-46.6794,"countryCode":"BR"},{"name":"Hotel Novo Mundo","asciiName":"Hotel Novo Mundo","alternatenames":[],"lat":-22.9253,"lon":-43.173,"countryCode":"BR"},{"name":"Miramar Palace Hotel","asciiName":"Miramar Palace Hotel","alternatenames":[],"lat":-22.981,"lon":-43.1898,"countryCode":"BR"},{"name":"Excelsior Copacabana Hotel","asciiName":"Excelsior Copacabana Hotel","alternatenames":[],"lat":-22.9681,"lon":-43.1796,"countryCode":"BR"},{"name":"Hotel Luxor Piaui","asciiName":"Hotel Luxor Piaui","alternatenames":[],"lat":-5.0898,"lon":-42.8166,"countryCode":"BR"},{"name":"Pestana Natal Beach Resort","asciiName":"Pestana Natal Beach Resort","alternatenames":[],"lat":-5.8496,"lon":-35.1824,"countryCode":"BR"},{"name":"Recife Monte Hotel","asciiName":"Recife Monte Hotel","alternatenames":[],"lat":-8.1292,"lon":-34.9007,"countryCode":"BR"},{"name":"Gran Marquise by Sol Melia","asciiName":"Gran Marquise by Sol Melia","alternatenames":[],"lat":-3.7238,"lon":-38.4845,"countryCode":"BR"},{"name":"Caesar Park Rio de Janeiro Ipanema","asciiName":"Caesar Park Rio de Janeiro Ipanema","alternatenames":[],"lat":-22.98623,"lon":-43.20734,"countryCode":"BR"},{"name":"Maksoud Plaza Hotel","asciiName":"Maksoud Plaza Hotel","alternatenames":[],"lat":-23.5634,"lon":-46.6508,"countryCode":"BR"},{"name":"Alta Reggia Plaza","asciiName":"ALTA REGGIA PLAZA","alternatenames":[],"lat":-25.4166,"lon":-49.25,"countryCode":"BR"},{"name":"Blue Tree Nacoes Unidas","asciiName":"Blue Tree Nacoes Unidas","alternatenames":[],"lat":-23.6294,"lon":-46.7071,"countryCode":"BR"},{"name":"Guanabara Palace Hotel","asciiName":"Guanabara Palace Hotel","alternatenames":[],"lat":-22.9012,"lon":-43.1794,"countryCode":"BR"},{"name":"Sol Jangada Fortaleza","asciiName":"Sol Jangada Fortaleza","alternatenames":[],"lat":-3.7268,"lon":-38.492,"countryCode":"BR"},{"name":"Gran Melia Mofarrej","asciiName":"Gran Melia Mofarrej","alternatenames":[],"lat":-23.5639,"lon":-46.6555,"countryCode":"BR"},{"name":"Merlin Copacabana","asciiName":"Merlin Copacabana","alternatenames":[],"lat":-22.9627,"lon":-43.1748,"countryCode":"BR"},{"name":"Renaissance Sao Paulo Hotel","asciiName":"Renaissance Sao Paulo Hotel","alternatenames":[],"lat":-23.5585,"lon":-46.6617,"countryCode":"BR"},{"name":"London Othon Flat Hotel","asciiName":"London Othon Flat Hotel","alternatenames":[],"lat":-23.5695,"lon":-46.6524,"countryCode":"BR"},{"name":"Premier Copacabana Hotel","asciiName":"Premier Copacabana Hotel","alternatenames":[],"lat":-22.9676,"lon":-43.1873,"countryCode":"BR"},{"name":"Luxor Continental Hotel","asciiName":"Luxor Continental Hotel","alternatenames":[],"lat":-22.9622,"lon":-43.1685,"countryCode":"BR"},{"name":"California Othon Classic","asciiName":"California Othon Classic","alternatenames":[],"lat":-22.97258,"lon":-43.18579,"countryCode":"BR"},{"name":"L'Hotel","asciiName":"L'Hotel","alternatenames":[],"lat":-23.5643,"lon":-46.6516,"countryCode":"BR"},{"name":"Luxor Copacabana Hotel","asciiName":"Luxor Copacabana Hotel","alternatenames":[],"lat":-22.9703,"lon":-43.183,"countryCode":"BR"},{"name":"Rio Othon Palace","asciiName":"Rio Othon Palace","alternatenames":[],"lat":-22.9774,"lon":-43.1887,"countryCode":"BR"},{"name":"Savoy Othon Travel","asciiName":"Savoy Othon Travel","alternatenames":[],"lat":-22.9773,"lon":-43.1904,"countryCode":"BR"},{"name":"Pestana Rio Atlantica","asciiName":"Pestana Rio Atlantica","alternatenames":[],"lat":-22.9752,"lon":-43.1874,"countryCode":"BR"},{"name":"Leme Othon Palace","asciiName":"Leme Othon Palace","alternatenames":[],"lat":-22.9633,"lon":-43.1695,"countryCode":"BR"},{"name":"Mar Ipanema Hotel","asciiName":"Mar Ipanema Hotel","alternatenames":[],"lat":-22.9838,"lon":-43.2116,"countryCode":"BR"},{"name":"Marina Palace Hotel","asciiName":"Marina Palace Hotel","alternatenames":[],"lat":-22.9869,"lon":-43.2218,"countryCode":"BR"},{"name":"Hotel Gloria Rio","asciiName":"Hotel Gloria Rio","alternatenames":[],"lat":-22.9224,"lon":-43.1727,"countryCode":"BR"},{"name":"Sol Belo Horizonte","asciiName":"SOL BELO HORIZONTE","alternatenames":[],"lat":-19.9166,"lon":-43.9333,"countryCode":"BR"},{"name":"Sheraton Rio Hotel & Resort","asciiName":"Sheraton Rio Hotel & Resort","alternatenames":[],"lat":-22.992,"lon":-43.2337,"countryCode":"BR"},{"name":"Macae Othon Suites","asciiName":"Macae Othon Suites","alternatenames":[],"lat":-22.3827,"lon":-41.7709,"countryCode":"BR"},{"name":"Caesar Park Eco Resort do Cabo","asciiName":"Caesar Park Eco Resort do Cabo","alternatenames":[],"lat":-8.3618,"lon":-34.959,"countryCode":"BR"},{"name":"Caesar Business Paulista","asciiName":"Caesar Business Paulista","alternatenames":[],"lat":-23.5578,"lon":-46.6606,"countryCode":"BR"},{"name":"Hotel Luxor Ouro Preto","asciiName":"Hotel Luxor Ouro Preto","alternatenames":[],"lat":-20.386,"lon":-43.5095,"countryCode":"BR"},{"name":"Four Points Macae","asciiName":"FOUR POINTS MACAE","alternatenames":[],"lat":-22.3833,"lon":-41.7833,"countryCode":"BR"},{"name":"Luxor Regente Hotel","asciiName":"Luxor Regente Hotel","alternatenames":[],"lat":-22.9814,"lon":-43.1898,"countryCode":"BR"},{"name":"Cocoon Hotel & Lounge","asciiName":"Cocoon Hotel & Lounge","alternatenames":[],"lat":-13.0128,"lon":-38.4854,"countryCode":"BR"},{"name":"Comfort Hotel Caldas Novas","asciiName":"Comfort Hotel Caldas Novas","alternatenames":[],"lat":-17.75,"lon":-48.6333,"countryCode":"BR"},{"name":"Windsor Barra Hotel","asciiName":"Windsor Barra Hotel","alternatenames":[],"lat":-23.0119,"lon":-43.3219,"countryCode":"BR"},{"name":"Pestana Curitiba Hotel","asciiName":"Pestana Curitiba Hotel","alternatenames":[],"lat":-25.4403,"lon":-49.2818,"countryCode":"BR"},{"name":"Tryp Sao Paulo Higienópolis Hotel","asciiName":"Tryp Sao Paulo Higienopolis Hotel","alternatenames":[],"lat":-23.5449,"lon":-46.656,"countryCode":"BR"},{"name":"Atlantico Praia Othon Travel","asciiName":"Atlantico Praia Othon Travel","alternatenames":[],"lat":-7.113,"lon":-34.823,"countryCode":"BR"},{"name":"Tryp Barra","asciiName":"Tryp Barra","alternatenames":[],"lat":-23.0006,"lon":-43.3929,"countryCode":"BR"},{"name":"Acapulco Copacabana","asciiName":"Acapulco Copacabana","alternatenames":[],"lat":-22.964,"lon":-43.173,"countryCode":"BR"},{"name":"Martinique Copa Hotel","asciiName":"Martinique Copa Hotel","alternatenames":[],"lat":-22.9807,"lon":-43.1907,"countryCode":"BR"},{"name":"Sheraton Porto Alegre Hotel","asciiName":"Sheraton Porto Alegre Hotel","alternatenames":[],"lat":-30.0398,"lon":-51.2174,"countryCode":"BR"},{"name":"Le Premiere Othon Flat","asciiName":"Le Premiere Othon Flat","alternatenames":[],"lat":-23.5716,"lon":-46.6593,"countryCode":"BR"},{"name":"Blue Tree Towers Brasilia","asciiName":"Blue Tree Towers Brasilia","alternatenames":[],"lat":-15.7917,"lon":-47.8977,"countryCode":"BR"},{"name":"Blue Tree Towers Caxias do Sul","asciiName":"Blue Tree Towers Caxias do Sul","alternatenames":[],"lat":-29.1765,"lon":-51.1611,"countryCode":"BR"},{"name":"Mirante Hotel","asciiName":"Mirante Hotel","alternatenames":[],"lat":-25.5516,"lon":-54.5839,"countryCode":"BR"},{"name":"Dorisol Recife Grand Hotel","asciiName":"Dorisol Recife Grand Hotel","alternatenames":[],"lat":-8.1873,"lon":-34.9193,"countryCode":"BR"},{"name":"Iberostar Copacabana","asciiName":"Iberostar Copacabana","alternatenames":[],"lat":-22.9626,"lon":-43.1675,"countryCode":"BR"},{"name":"Park Suites Itc","asciiName":"Park Suites Itc","alternatenames":[],"lat":-23.5953,"lon":-46.6876,"countryCode":"BR"},{"name":"Maredomus Hotel","asciiName":"Maredomus Hotel","alternatenames":[],"lat":-3.72,"lon":-38.5136,"countryCode":"BR"},{"name":"Bourbon Iguassu Golf Club & Resort","asciiName":"Bourbon Iguassu Golf Club & Resort","alternatenames":[],"lat":-25.5038,"lon":-54.4916,"countryCode":"BR"},{"name":"Bourbon Cataratas Rsrt And Con","asciiName":"Bourbon Cataratas Rsrt And Con","alternatenames":[],"lat":-25.5038,"lon":-54.4916,"countryCode":"BR"},{"name":"Marriott Executive Apartments Sao Paulo","asciiName":"Marriott Executive Apartments Sao Paulo","alternatenames":[],"lat":-23.5878,"lon":-46.6711,"countryCode":"BR"},{"name":"Vitoria Hotel Campinas","asciiName":"Vitoria Hotel Campinas","alternatenames":[],"lat":-22.9023,"lon":-47.0481,"countryCode":"BR"},{"name":"Caesar Business Sao Paulo Faria Lima","asciiName":"Caesar Business Sao Paulo Faria Lima","alternatenames":[],"lat":-23.5955,"lon":-46.685,"countryCode":"BR"},{"name":"Nh Della Volpe","asciiName":"Nh Della Volpe","alternatenames":[],"lat":-23.5573,"lon":-46.6573,"countryCode":"BR"},{"name":"Tryp Nacoes Unidas","asciiName":"Tryp Nacoes Unidas","alternatenames":[],"lat":-23.6297,"lon":-46.7064,"countryCode":"BR"},{"name":"Caesar Business Belo Horizonte","asciiName":"Caesar Business Belo Horizonte","alternatenames":[],"lat":-19.9763,"lon":-43.9464,"countryCode":"BR"},{"name":"Hotel Rockefeller Plaza","asciiName":"Hotel Rockefeller Plaza","alternatenames":[],"lat":-25.4456,"lon":-49.26,"countryCode":"BR"},{"name":"Turrance Green Hotel","asciiName":"Turrance Green Hotel","alternatenames":[],"lat":-25.5038,"lon":-54.4916,"countryCode":"BR"},{"name":"Taroba Express Hotel","asciiName":"Taroba Express Hotel","alternatenames":[],"lat":-25.5038,"lon":-54.4916,"countryCode":"BR"},{"name":"Caesar Business Rio de Janeiro Botafogo (Closed)","asciiName":"Caesar Business Rio de Janeiro Botafogo (Closed)","alternatenames":[],"lat":-22.95258,"lon":-43.18236,"countryCode":"BR"},{"name":"Slaviero Palace Hotel","asciiName":"Slaviero Palace Hotel","alternatenames":[],"lat":-25.4339,"lon":-49.2731,"countryCode":"BR"},{"name":"Caesar Business Sao Paulo Int'l Airport","asciiName":"Caesar Business Sao Paulo Int'l Airport","alternatenames":[],"lat":-23.4496,"lon":-46.4896,"countryCode":"BR"},{"name":"San Marino Hotel","asciiName":"San Marino Hotel","alternatenames":[],"lat":-13.0099,"lon":-38.5237,"countryCode":"BR"},{"name":"Colonna Park Othon Classic","asciiName":"Colonna Park Othon Classic","alternatenames":[],"lat":-22.7405,"lon":-41.8718,"countryCode":"BR"},{"name":"Hotel Executive Curitiba","asciiName":"Hotel Executive Curitiba","alternatenames":[],"lat":-25.4362,"lon":-49.2668,"countryCode":"BR"},{"name":"Tryp Guarulhos","asciiName":"Tryp Guarulhos","alternatenames":[],"lat":-23.4715,"lon":-46.5349,"countryCode":"BR"},{"name":"Fasano Hotel E Restaurante","asciiName":"Fasano Hotel E Restaurante","alternatenames":[],"lat":-23.5644,"lon":-46.6686,"countryCode":"BR"},{"name":"Augusto's Copacabana Hotel","asciiName":"Augusto's Copacabana Hotel","alternatenames":[],"lat":-22.9758,"lon":-43.1905,"countryCode":"BR"},{"name":"Sheraton Barra Hotel & Suites","asciiName":"Sheraton Barra Hotel & Suites","alternatenames":[],"lat":-23.0111,"lon":-43.3271,"countryCode":"BR"},{"name":"Pestana Sao Paulo Hotel","asciiName":"Pestana Sao Paulo Hotel","alternatenames":[],"lat":-23.5725,"lon":-46.653,"countryCode":"BR"},{"name":"Florida Hotel","asciiName":"Florida Hotel","alternatenames":[],"lat":-22.9268,"lon":-43.1762,"countryCode":"BR"},{"name":"Hotel Astoria Copacabana","asciiName":"Hotel Astoria Copacabana","alternatenames":[],"lat":-22.9661,"lon":-43.183,"countryCode":"BR"},{"name":"Tryp Sao Paulo Jesuino Arruda Hotel","asciiName":"Tryp Sao Paulo Jesuino Arruda Hotel","alternatenames":[],"lat":-23.583,"lon":-46.678,"countryCode":"BR"},{"name":"Plaza Copacabana Hotel","asciiName":"Plaza Copacabana Hotel","alternatenames":[],"lat":-22.9627,"lon":-43.1749,"countryCode":"BR"},{"name":"Windsor Palace Hotel","asciiName":"Windsor Palace Hotel","alternatenames":[],"lat":-22.97,"lon":-43.1842,"countryCode":"BR"},{"name":"Tulip Inn Recife Flat","asciiName":"Tulip Inn Recife Flat","alternatenames":[],"lat":-8.1395,"lon":-34.9062,"countryCode":"BR"},{"name":"Estanplaza International","asciiName":"Estanplaza International","alternatenames":[],"lat":-23.6297,"lon":-46.7066,"countryCode":"BR"},{"name":"Hibiscus Beach Pousada","asciiName":"Hibiscus Beach Pousada","alternatenames":[],"lat":-22.743,"lon":-41.8757,"countryCode":"BR"},{"name":"Hotel Atlantico Copacabana","asciiName":"Hotel Atlantico Copacabana","alternatenames":[],"lat":-22.967,"lon":-43.1862,"countryCode":"BR"},{"name":"Hotel Paysandu","asciiName":"Hotel Paysandu","alternatenames":[],"lat":-22.9335,"lon":-43.1753,"countryCode":"BR"},{"name":"Tryp Paulista","asciiName":"Tryp Paulista","alternatenames":[],"lat":-23.5567,"lon":-46.6601,"countryCode":"BR"},{"name":"Caesar B Sao Jose Dos Campos","asciiName":"Caesar B Sao Jose Dos Campos","alternatenames":[],"lat":-23.2029,"lon":-45.8828,"countryCode":"BR"},{"name":"Clarion Hotel Berrini","asciiName":"Clarion Hotel Berrini","alternatenames":[],"lat":-23.6034,"lon":-46.6937,"countryCode":"BR"},{"name":"Tryp Berrini","asciiName":"Tryp Berrini","alternatenames":[],"lat":-23.6023,"lon":-46.6927,"countryCode":"BR"},{"name":"Best Western Manibu Recife","asciiName":"Best Western Manibu Recife","alternatenames":[],"lat":-8.0961,"lon":-34.8848,"countryCode":"BR"},{"name":"Tryp Sao Paulo Campinas Hotel","asciiName":"Tryp Sao Paulo Campinas Hotel","alternatenames":[],"lat":-22.8975,"lon":-47.0544,"countryCode":"BR"},{"name":"Tulip Inn Paulista Convention","asciiName":"Tulip Inn Paulista Convention","alternatenames":[],"lat":-23.577,"lon":-46.6395,"countryCode":"BR"},{"name":"Melia Brasilia","asciiName":"Melia Brasilia","alternatenames":[],"lat":-15.791,"lon":-47.897,"countryCode":"BR"},{"name":"Best  Western SOL IPANEMA HOTEL","asciiName":"Best  Western SOL IPANEMA HOTEL","alternatenames":[],"lat":-22.8999,"lon":-43.2333,"countryCode":"BR"},{"name":"Caesar Business Lagoa Dos Ingleses","asciiName":"Caesar Business Lagoa Dos Ingleses","alternatenames":[],"lat":-20.1619,"lon":-43.9554,"countryCode":"BR"},{"name":"Bahia Othon Palace Hotel","asciiName":"Bahia Othon Palace Hotel","alternatenames":[],"lat":-13.0099,"lon":-38.5125,"countryCode":"BR"},{"name":"Gran Estanplaza Sao Paulo","asciiName":"Gran Estanplaza Sao Paulo","alternatenames":[],"lat":-23.6099,"lon":-46.6957,"countryCode":"BR"},{"name":"Iracema Othon Travel","asciiName":"Iracema Othon Travel","alternatenames":[],"lat":-3.7206,"lon":-38.5163,"countryCode":"BR"},{"name":"Loisuites Belgrano","asciiName":"Loisuites Belgrano","alternatenames":[],"lat":-23.5491,"lon":-46.6502,"countryCode":"BR"},{"name":"Lancaster Othon Travel","asciiName":"Lancaster Othon Travel","alternatenames":[],"lat":-22.9666,"lon":-43.1768,"countryCode":"BR"},{"name":"Tryp Porto Alegre","asciiName":"Tryp Porto Alegre","alternatenames":[],"lat":-30.025,"lon":-51.201,"countryCode":"BR"},{"name":"Aeroporto Othon Travel","asciiName":"Aeroporto Othon Travel","alternatenames":[],"lat":-22.9125,"lon":-43.1734,"countryCode":"BR"},{"name":"Blue Tree Towers Curitba Premium","asciiName":"Blue Tree Towers Curitba Premium","alternatenames":[],"lat":-25.4307,"lon":-49.2847,"countryCode":"BR"},{"name":"Sao Paulo Othon Classic","asciiName":"Sao Paulo Othon Classic","alternatenames":[],"lat":-23.5478,"lon":-46.6369,"countryCode":"BR"},{"name":"Blue Tree Towers Analia Franco","asciiName":"Blue Tree Towers Analia Franco","alternatenames":[],"lat":-23.5587,"lon":-46.558,"countryCode":"BR"},{"name":"Blue Tree Convention Ibirapuera","asciiName":"Blue Tree Convention Ibirapuera","alternatenames":[],"lat":-23.6084,"lon":-46.6665,"countryCode":"BR"},{"name":"Tryp Park","asciiName":"Tryp Park","alternatenames":[],"lat":-15.7917,"lon":-47.8977,"countryCode":"BR"},{"name":"Pestana Bahia Hotel","asciiName":"Pestana Bahia Hotel","alternatenames":[],"lat":-13.0162,"lon":-38.4867,"countryCode":"BR"},{"name":"Grand Hyatt Sao Paulo","asciiName":"Grand Hyatt Sao Paulo","alternatenames":[],"lat":-23.6162,"lon":-46.6992,"countryCode":"BR"},{"name":"Tryp Iguatemi","asciiName":"Tryp Iguatemi","alternatenames":[],"lat":-23.5847,"lon":-46.6817,"countryCode":"BR"},{"name":"Estanplaza Paulista","asciiName":"Estanplaza Paulista","alternatenames":[],"lat":-23.5684,"lon":-46.6559,"countryCode":"BR"},{"name":"Blue Tree Premium Verbo Divino","asciiName":"Blue Tree Premium Verbo Divino","alternatenames":[],"lat":-23.6319,"lon":-46.7079,"countryCode":"BR"},{"name":"Hilton Sao Paulo Morumbi","asciiName":"Hilton Sao Paulo Morumbi","alternatenames":[],"lat":-23.6107,"lon":-46.6981,"countryCode":"BR"},{"name":"Boa Viagem Praia Hotel","asciiName":"Boa Viagem Praia Hotel","alternatenames":[],"lat":-8.1376,"lon":-34.9026,"countryCode":"BR"},{"name":"Belo Horizonte Othon Palace","asciiName":"Belo Horizonte Othon Palace","alternatenames":[],"lat":-19.9222,"lon":-43.9367,"countryCode":"BR"},{"name":"Wtc Hotel","asciiName":"Wtc Hotel","alternatenames":[],"lat":-23.60859,"lon":-46.69751,"countryCode":"BR"},{"name":"Pousada Aguas De Paratii","asciiName":"POUSADA AGUAS DE PARATII","alternatenames":[],"lat":-5.5666,"lon":-63.05,"countryCode":"BR"},{"name":"Plaza Inn Executive","asciiName":"PLAZA INN EXECUTIVE","alternatenames":[],"lat":-16.6666,"lon":-49.2666,"countryCode":"BR"},{"name":"Mercure Belo Horizonte 3","asciiName":"MERCURE BELO HORIZONTE 3","alternatenames":[],"lat":-19.9166,"lon":-43.9333,"countryCode":"BR"},{"name":"Best Western Falls Galli Hotel","asciiName":"BEST WESTERN FALLS GALLI HOTEL","alternatenames":[],"lat":-25.55,"lon":-54.5833,"countryCode":"BR"},{"name":"Coral Plaza Hotel","asciiName":"CORAL PLAZA HOTEL","alternatenames":[],"lat":-27.5833,"lon":-48.5666,"countryCode":"BR"},{"name":"Casas Brancas Boutique Hotel","asciiName":"CASAS BRANCAS BOUTIQUE HOTEL","alternatenames":[],"lat":-22.75,"lon":-41.8833,"countryCode":"BR"},{"name":"Comfort Hotel Ribeirao Preto","asciiName":"COMFORT HOTEL RIBEIRAO PRETO","alternatenames":[],"lat":-21.1666,"lon":-47.8,"countryCode":"BR"},{"name":"Sleep Inn Varginha","asciiName":"SLEEP INN VARGINHA","alternatenames":[],"lat":-21.5587,"lon":-45.4274,"countryCode":"BR"},{"name":"Novotel Vitoria","asciiName":"NOVOTEL VITORIA","alternatenames":[],"lat":-20.3166,"lon":-40.3499,"countryCode":"BR"},{"name":"Pousada Kybalion Hotel","asciiName":"POUSADA KYBALION HOTEL","alternatenames":[],"lat":-22.75,"lon":-41.8833,"countryCode":"BR"},{"name":"Plaza Inn San Conrado","asciiName":"PLAZA INN SAN CONRADO","alternatenames":[],"lat":-16.6666,"lon":-49.2666,"countryCode":"BR"},{"name":"Plaza Inn American Loft","asciiName":"Plaza Inn American Loft","alternatenames":[],"lat":-23.5333,"lon":-46.6166,"countryCode":"BR"},{"name":"Quality Resort Lakeside","asciiName":"QUALITY RESORT LAKESIDE","alternatenames":[],"lat":-15.7833,"lon":-47.9166,"countryCode":"BR"},{"name":"Mercure Apt Jaragua Do Sul 3","asciiName":"MERCURE APT JARAGUA DO SUL 3","alternatenames":[],"lat":-26.4833,"lon":-49.0666,"countryCode":"BR"},{"name":"Comfort Suites Oscar Freire","asciiName":"Comfort Suites Oscar Freire","alternatenames":[],"lat":-23.5333,"lon":-46.6166,"countryCode":"BR"},{"name":"Ibis Sao Carlos","asciiName":"IBIS SAO CARLOS","alternatenames":[],"lat":-22.0166,"lon":-47.8999,"countryCode":"BR"},{"name":"Mercure Apt Mont Blanc 3","asciiName":"MERCURE APT MONT BLANC 3","alternatenames":[],"lat":-21.7666,"lon":-56.4833,"countryCode":"BR"},{"name":"Hotel Do Frade And Golf Resor","asciiName":"HOTEL DO FRADE AND GOLF RESOR","alternatenames":[],"lat":-23,"lon":-44.3,"countryCode":"BR"},{"name":"Inter Palace Hotel And Centro","asciiName":"INTER PALACE HOTEL AND CENTRO","alternatenames":[],"lat":-25.4166,"lon":-49.25,"countryCode":"BR"},{"name":"Hotel Cataratas","asciiName":"HOTEL CATARATAS","alternatenames":[],"lat":-25.5666,"lon":-54.5666,"countryCode":"BR"},{"name":"Fiesta Bahia Hotel","asciiName":"FIESTA BAHIA HOTEL","alternatenames":[],"lat":-12.9833,"lon":-38.5166,"countryCode":"BR"},{"name":"Costao Do Santinho Resort","asciiName":"COSTAO DO SANTINHO RESORT","alternatenames":[],"lat":-27.5833,"lon":-48.5666,"countryCode":"BR"},{"name":"Slaviero Executive Jardins","asciiName":"Slaviero Executive Jardins","alternatenames":[],"lat":-23.5724,"lon":-46.65934,"countryCode":"BR"},{"name":"Quality Suites Imperial Hall","asciiName":"Quality Suites Imperial Hall","alternatenames":[],"lat":-23.5333,"lon":-46.6166,"countryCode":"BR"},{"name":"Grande Hotel Express","asciiName":"GRANDE HOTEL EXPRESS","alternatenames":[],"lat":-8.4166,"lon":-70.75,"countryCode":"BR"},{"name":"Quality Suites Fortaleza","asciiName":"QUALITY SUITES FORTALEZA","alternatenames":[],"lat":-3.3166,"lon":-41.4166,"countryCode":"BR"},{"name":"Mendes Plaza Hotel","asciiName":"MENDES PLAZA HOTEL","alternatenames":[],"lat":-23.9499,"lon":-46.3333,"countryCode":"BR"},{"name":"Quality Suites Alphaville","asciiName":"QUALITY SUITES ALPHAVILLE","alternatenames":[],"lat":-23.5166,"lon":-46.8833,"countryCode":"BR"},{"name":"George V Alto De Pinheiros","asciiName":"George V Alto De Pinheiros","alternatenames":[],"lat":-23.5333,"lon":-46.6166,"countryCode":"BR"},{"name":"Novotel Sao Paulo Center Norte","asciiName":"Novotel Sao Paulo Center Norte","alternatenames":[],"lat":-23.5333,"lon":-46.6166,"countryCode":"BR"},{"name":"Hotel Master Executivo","asciiName":"HOTEL MASTER EXECUTIVO","alternatenames":[],"lat":-8.4166,"lon":-70.75,"countryCode":"BR"},{"name":"Mercure Apt Royal Brooklin 3","asciiName":"Mercure Apt Royal Brooklin 3","alternatenames":[],"lat":-23.5333,"lon":-46.6166,"countryCode":"BR"},{"name":"Mercure Apt Meireles 3","asciiName":"MERCURE APT MEIRELES 3","alternatenames":[],"lat":-3.3166,"lon":-41.4166,"countryCode":"BR"},{"name":"Provence Pituba Apart","asciiName":"PROVENCE PITUBA APART","alternatenames":[],"lat":-14.6833,"lon":-41.0333,"countryCode":"BR"},{"name":"Mercure Apt Moema 3","asciiName":"Mercure Apt Moema 3","alternatenames":[],"lat":-23.5333,"lon":-46.6166,"countryCode":"BR"},{"name":"Porto Seguro Praia Hotel","asciiName":"PORTO SEGURO PRAIA HOTEL","alternatenames":[],"lat":-16.4333,"lon":-39.0833,"countryCode":"BR"},{"name":"Ibis Paulinia","asciiName":"IBIS PAULINIA","alternatenames":[],"lat":-22.75,"lon":-47.1666,"countryCode":"BR"},{"name":"Center Hotel","asciiName":"CENTER HOTEL","alternatenames":[],"lat":-22.8999,"lon":-43.2333,"countryCode":"BR"},{"name":"Golden Tulip Iate Plaza","asciiName":"GOLDEN TULIP IATE PLAZA","alternatenames":[],"lat":-3.3166,"lon":-41.4166,"countryCode":"BR"},{"name":"Ocean Tower Flat","asciiName":"OCEAN TOWER FLAT","alternatenames":[],"lat":-3.3166,"lon":-41.4166,"countryCode":"BR"},{"name":"Mercure Apt Sete D Setembro 3","asciiName":"MERCURE APT SETE D SETEMBRO 3","alternatenames":[],"lat":-25.4166,"lon":-49.25,"countryCode":"BR"},{"name":"Atlantis Copacabana Hotel","asciiName":"ATLANTIS COPACABANA HOTEL","alternatenames":[],"lat":-22.8999,"lon":-43.2333,"countryCode":"BR"},{"name":"Mercure Apt Mogi D Cruzes 3","asciiName":"MERCURE APT MOGI D CRUZES 3","alternatenames":[],"lat":-23.5166,"lon":-46.1833,"countryCode":"BR"},{"name":"Manhattan Plaza","asciiName":"MANHATTAN PLAZA","alternatenames":[],"lat":-15.7833,"lon":-47.9166,"countryCode":"BR"},{"name":"Hotel San Martin","asciiName":"HOTEL SAN MARTIN","alternatenames":[],"lat":-25.55,"lon":-54.5833,"countryCode":"BR"},{"name":"Mercure Apt The Must 3","asciiName":"Mercure Apt The Must 3","alternatenames":[],"lat":-23.5333,"lon":-46.6166,"countryCode":"BR"},{"name":"Mercure Apt Excellence 3","asciiName":"Mercure Apt Excellence 3","alternatenames":[],"lat":-23.5333,"lon":-46.6166,"countryCode":"BR"},{"name":"Mercure Apt Lifecenter 3","asciiName":"MERCURE APT LIFECENTER 3","alternatenames":[],"lat":-19.9166,"lon":-43.9333,"countryCode":"BR"},{"name":"San Michel Hotel","asciiName":"SAN MICHEL HOTEL","alternatenames":[],"lat":-9.4499,"lon":-36.0333,"countryCode":"BR"},{"name":"Praia Centro","asciiName":"PRAIA CENTRO","alternatenames":[],"lat":-10.8616,"lon":-53.104,"countryCode":"BR"},{"name":"Tropical Da Bahia","asciiName":"TROPICAL DA BAHIA","alternatenames":[],"lat":-12.5916,"lon":-38.3116,"countryCode":"BR"},{"name":"Bristol Villa Real Hotel","asciiName":"BRISTOL VILLA REAL HOTEL","alternatenames":[],"lat":-28.7833,"lon":-50.8,"countryCode":"BR"},{"name":"Stream Palace Hotel","asciiName":"STREAM PALACE HOTEL","alternatenames":[],"lat":-21.1666,"lon":-47.8,"countryCode":"BR"},{"name":"Golden Tulip Park Plaza","asciiName":"Golden Tulip Park Plaza","alternatenames":[],"lat":-23.5333,"lon":-46.6166,"countryCode":"BR"},{"name":"Mercure Apt Saint Lawrence 3","asciiName":"Mercure Apt Saint Lawrence 3","alternatenames":[],"lat":-23.5333,"lon":-46.6166,"countryCode":"BR"},{"name":"Vernon Palace","asciiName":"VERNON PALACE","alternatenames":[],"lat":-25.4166,"lon":-49.25,"countryCode":"BR"},{"name":"Mercure Apt Pasargada 3","asciiName":"MERCURE APT PASARGADA 3","alternatenames":[],"lat":-20.807,"lon":-40.2676,"countryCode":"BR"},{"name":"Mercure Apt Jundiai 3","asciiName":"MERCURE APT JUNDIAI 3","alternatenames":[],"lat":-23.1833,"lon":-46.8666,"countryCode":"BR"},{"name":"Mercure Apt Platz 3","asciiName":"MERCURE APT PLATZ 3","alternatenames":[],"lat":-26.3,"lon":-48.8333,"countryCode":"BR"},{"name":"Ducasse Rio Hotel","asciiName":"DUCASSE RIO HOTEL","alternatenames":[],"lat":-22.8999,"lon":-43.2333,"countryCode":"BR"},{"name":"Mercure Apt Privilege 3","asciiName":"Mercure Apt Privilege 3","alternatenames":[],"lat":-23.5333,"lon":-46.6166,"countryCode":"BR"},{"name":"Mercure Apt Navegantes 3","asciiName":"MERCURE APT NAVEGANTES 3","alternatenames":[],"lat":-8.05,"lon":-34.8999,"countryCode":"BR"},{"name":"Ipanema Inn","asciiName":"IPANEMA INN","alternatenames":[],"lat":-22.8999,"lon":-43.2333,"countryCode":"BR"},{"name":"Best Western Lord Manaus Htl","asciiName":"BEST WESTERN LORD MANAUS HTL","alternatenames":[],"lat":-3.1333,"lon":-60.0166,"countryCode":"BR"},{"name":"Marian Palace Hotel","asciiName":"Marian Palace Hotel","alternatenames":[],"lat":-23.5333,"lon":-46.6166,"countryCode":"BR"},{"name":"Novotel Rondonopolis","asciiName":"NOVOTEL RONDONOPOLIS","alternatenames":[],"lat":-15.5609,"lon":-55.8357,"countryCode":"BR"},{"name":"Everest Rio","asciiName":"EVEREST RIO","alternatenames":[],"lat":-22.98517,"lon":-43.20752,"countryCode":"BR"},{"name":"Golden Park","asciiName":"GOLDEN PARK","alternatenames":[],"lat":-12.9833,"lon":-38.5166,"countryCode":"BR"},{"name":"Matsubara Hotel","asciiName":"MATSUBARA HOTEL","alternatenames":[],"lat":-9.6666,"lon":-35.7166,"countryCode":"BR"},{"name":"Hotel Rafain Centro","asciiName":"HOTEL RAFAIN CENTRO","alternatenames":[],"lat":-25.55,"lon":-54.5833,"countryCode":"BR"},{"name":"Bristol Ambassador Flat","asciiName":"BRISTOL AMBASSADOR FLAT","alternatenames":[],"lat":-25.4166,"lon":-49.25,"countryCode":"BR"},{"name":"Novotel Sao Bento Do Sul","asciiName":"NOVOTEL SAO BENTO DO SUL","alternatenames":[],"lat":-25.4166,"lon":-49.25,"countryCode":"BR"},{"name":"Mercure Grand Sp Ibirapuera 4","asciiName":"Mercure Grand Sp Ibirapuera 4","alternatenames":[],"lat":-23.5333,"lon":-46.6166,"countryCode":"BR"},{"name":"Novotel Campo Grande","asciiName":"NOVOTEL CAMPO GRANDE","alternatenames":[],"lat":-20.4499,"lon":-54.6166,"countryCode":"BR"},{"name":"Mercure Apt My Place 3","asciiName":"MERCURE APT MY PLACE 3","alternatenames":[],"lat":-19.9166,"lon":-43.9333,"countryCode":"BR"},{"name":"Royal Palm Plaza Hotel","asciiName":"ROYAL PALM PLAZA HOTEL","alternatenames":[],"lat":-22.8999,"lon":-47.0833,"countryCode":"BR"},{"name":"Hotel E Fazenda Rosa Dos Ventos","asciiName":"HOTEL E FAZENDA ROSA DOS VENTOS","alternatenames":[],"lat":-22.4333,"lon":-42.9833,"countryCode":"BR"},{"name":"Mercure Apt Il Giardino 3","asciiName":"MERCURE APT IL GIARDINO 3","alternatenames":[],"lat":-30.0333,"lon":-51.2,"countryCode":"BR"},{"name":"Mercure Apt Blumenau 3","asciiName":"MERCURE APT BLUMENAU 3","alternatenames":[],"lat":-26.9333,"lon":-49.05,"countryCode":"BR"},{"name":"Casa Grande Hotel Resort   Spa","asciiName":"CASA GRANDE HOTEL RESORT   SPA","alternatenames":[],"lat":-24,"lon":-46.2666,"countryCode":"BR"},{"name":"Ondina Apart Hotel","asciiName":"ONDINA APART HOTEL","alternatenames":[],"lat":-12.9833,"lon":-38.5166,"countryCode":"BR"},{"name":"Comfort Hotel Fortaleza","asciiName":"COMFORT HOTEL FORTALEZA","alternatenames":[],"lat":-3.3166,"lon":-41.4166,"countryCode":"BR"},{"name":"Novotel Sao Paulo Morumbi","asciiName":"Novotel Sao Paulo Morumbi","alternatenames":[],"lat":-23.5333,"lon":-46.6166,"countryCode":"BR"},{"name":"Novotel Sao Jose Dos Campos","asciiName":"Novotel Sao Jose Dos Campos","alternatenames":[],"lat":-23.5333,"lon":-46.6166,"countryCode":"BR"},{"name":"Best Western Regent Park Ste","asciiName":"Best Western Regent Park Ste","alternatenames":[],"lat":-23.5333,"lon":-46.6166,"countryCode":"BR"},{"name":"Blue Tree Towers Berrini","asciiName":"Blue Tree Towers Berrini","alternatenames":[],"lat":-23.5333,"lon":-46.6166,"countryCode":"BR"},{"name":"Grand Hotel Rayon","asciiName":"GRAND HOTEL RAYON","alternatenames":[],"lat":-25.4166,"lon":-49.25,"countryCode":"BR"},{"name":"Quality Suites Garden Plaza","asciiName":"QUALITY SUITES GARDEN PLAZA","alternatenames":[],"lat":-22.3166,"lon":-49.0666,"countryCode":"BR"},{"name":"Mar Hotel","asciiName":"MAR HOTEL","alternatenames":[],"lat":-8.05,"lon":-34.8999,"countryCode":"BR"},{"name":"Internacional Palace Hotel","asciiName":"INTERNACIONAL PALACE HOTEL","alternatenames":[],"lat":-8.05,"lon":-34.8999,"countryCode":"BR"},{"name":"Melia Maceio","asciiName":"MELIA MACEIO","alternatenames":[],"lat":-9.6666,"lon":-35.7166,"countryCode":"BR"},{"name":"Marriott Sao Paulo Airport","asciiName":"Marriott Sao Paulo Airport","alternatenames":[],"lat":-23.5333,"lon":-46.6166,"countryCode":"BR"},{"name":"Address Cidade Jardim Executive","asciiName":"ADDRESS CIDADE JARDIM EXECUTIVE","alternatenames":[],"lat":-9.4499,"lon":-36.0333,"countryCode":"BR"},{"name":"Bourbon Curitiba Hotel And Tow","asciiName":"BOURBON CURITIBA HOTEL AND TOW","alternatenames":[],"lat":-25.4166,"lon":-49.25,"countryCode":"BR"},{"name":"Ibiza Copacabana Hotel","asciiName":"IBIZA COPACABANA HOTEL","alternatenames":[],"lat":-22.8999,"lon":-43.2333,"countryCode":"BR"},{"name":"Parthenon Les Jardins","asciiName":"Parthenon Les Jardins","alternatenames":[],"lat":-23.5333,"lon":-46.6166,"countryCode":"BR"},{"name":"Real Palace Hotel","asciiName":"REAL PALACE HOTEL","alternatenames":[],"lat":-22.8999,"lon":-43.2333,"countryCode":"BR"},{"name":"Plaza Sao Rafael Hotel","asciiName":"PLAZA SAO RAFAEL HOTEL","alternatenames":[],"lat":-8.4166,"lon":-70.75,"countryCode":"BR"},{"name":"Praia Ipanema","asciiName":"PRAIA IPANEMA","alternatenames":[],"lat":-22.8999,"lon":-43.2333,"countryCode":"BR"},{"name":"Mercure Apt Saint Germain 3","asciiName":"Mercure Apt Saint Germain 3","alternatenames":[],"lat":-23.5333,"lon":-46.6166,"countryCode":"BR"},{"name":"Luxor Continental Copacabana","asciiName":"LUXOR CONTINENTAL COPACABANA","alternatenames":[],"lat":-22.8999,"lon":-43.2333,"countryCode":"BR"},{"name":"Transamerica Sao Paulo Hotel","asciiName":"Transamerica Sao Paulo Hotel","alternatenames":[],"lat":-23.5333,"lon":-46.6166,"countryCode":"BR"},{"name":"Copacabana Palace","asciiName":"COPACABANA PALACE","alternatenames":[],"lat":-22.96744,"lon":-43.17875,"countryCode":"BR"},{"name":"Grande Hotel Sao Francisco","asciiName":"GRANDE HOTEL SAO FRANCISCO","alternatenames":[],"lat":-22.8999,"lon":-43.2333,"countryCode":"BR"},{"name":"Arpoador Inn","asciiName":"ARPOADOR INN","alternatenames":[],"lat":-22.8999,"lon":-43.2333,"countryCode":"BR"},{"name":"Grand Hotel Ca D Oro","asciiName":"GRAND HOTEL CA D ORO","alternatenames":[],"lat":-9.4499,"lon":-36.0333,"countryCode":"BR"},{"name":"Atlante Plaza Hotel","asciiName":"ATLANTE PLAZA HOTEL","alternatenames":[],"lat":-8.05,"lon":-34.8999,"countryCode":"BR"},{"name":"Celi Praia Hotel","asciiName":"CELI PRAIA HOTEL","alternatenames":[],"lat":-10.9166,"lon":-37.0666,"countryCode":"BR"},{"name":"Kubitschek Plaza","asciiName":"Kubitschek Plaza","alternatenames":[],"lat":-15.7833,"lon":-47.9166,"countryCode":"BR"},{"name":"Reife Palace Hotel","asciiName":"REIFE PALACE HOTEL","alternatenames":[],"lat":-8.05,"lon":-34.8999,"countryCode":"BR"},{"name":"Best Western Pier Vitoria Htl","asciiName":"BEST WESTERN PIER VITORIA HTL","alternatenames":[],"lat":-20.3166,"lon":-40.3499,"countryCode":"BR"},{"name":"Hotel Brisa Tower","asciiName":"HOTEL BRISA TOWER","alternatenames":[],"lat":-8.3333,"lon":-70.9166,"countryCode":"BR"},{"name":"Maison Joly","asciiName":"MAISON JOLY","alternatenames":[],"lat":-23.7833,"lon":-45.3499,"countryCode":"BR"},{"name":"Glenzhaus Lodge","asciiName":"GLENZHAUS LODGE","alternatenames":[],"lat":-22.75,"lon":-41.8833,"countryCode":"BR"},{"name":"Best Western Hotel Da Costa","asciiName":"BEST WESTERN HOTEL DA COSTA","alternatenames":[],"lat":-10.976,"lon":-37.042,"countryCode":"BR"},{"name":"Casa De Prince","asciiName":"CASA DE PRINCE","alternatenames":[],"lat":-14.6833,"lon":-41.0333,"countryCode":"BR"},{"name":"Txai Resort","asciiName":"TXAI RESORT","alternatenames":[],"lat":-14.6333,"lon":-39.5333,"countryCode":"BR"},{"name":"Hotel Deville Curitiba","asciiName":"HOTEL DEVILLE CURITIBA","alternatenames":[],"lat":-25.4166,"lon":-49.25,"countryCode":"BR"},{"name":"Quality Resort Aracatuba","asciiName":"QUALITY RESORT ARACATUBA","alternatenames":[],"lat":-2.5166,"lon":-66.4166,"countryCode":"BR"},{"name":"Mercure Apt Angra Porto  Bali","asciiName":"MERCURE APT ANGRA PORTO  BALI","alternatenames":[],"lat":-23,"lon":-44.3,"countryCode":"BR"},{"name":"Oca Miramar Maragogi Resort","asciiName":"OCA MIRAMAR MARAGOGI RESORT","alternatenames":[],"lat":-9.0166,"lon":-35.2166,"countryCode":"BR"},{"name":"Best Western Hotel Caicara","asciiName":"BEST WESTERN HOTEL CAICARA","alternatenames":[],"lat":-7.11301,"lon":-34.82679,"countryCode":"BR"},{"name":"Ibis Rio De Janeiro Centro","asciiName":"IBIS RIO DE JANEIRO CENTRO","alternatenames":[],"lat":-22.8999,"lon":-43.2333,"countryCode":"BR"},{"name":"Ibis Tambore","asciiName":"IBIS TAMBORE","alternatenames":[],"lat":-23.5166,"lon":-46.8833,"countryCode":"BR"},{"name":"Ponta Negra Beach","asciiName":"PONTA NEGRA BEACH","alternatenames":[],"lat":-8.3333,"lon":-72.7166,"countryCode":"BR"},{"name":"Iguazu Hostel - Falls Inn","asciiName":"IGUAZU HOSTEL - FALLS INN","alternatenames":[],"lat":-25.5666,"lon":-54.5666,"countryCode":"BR"},{"name":"Los Troncos Apart Hotel","asciiName":"LOS TRONCOS APART HOTEL","alternatenames":[],"lat":-25.5666,"lon":-54.5666,"countryCode":"BR"},{"name":"Hotel San Rafael","asciiName":"HOTEL SAN RAFAEL","alternatenames":[],"lat":-25.55,"lon":-54.5833,"countryCode":"BR"},{"name":"Bella Italia Hotel And Events","asciiName":"BELLA ITALIA HOTEL AND EVENTS","alternatenames":[],"lat":-10.8616,"lon":-53.104,"countryCode":"BR"},{"name":"Mercure Paraty Santa Clara","asciiName":"MERCURE PARATY SANTA CLARA","alternatenames":[],"lat":-5.5666,"lon":-63.05,"countryCode":"BR"},{"name":"Ibis Goiania","asciiName":"IBIS GOIANIA","alternatenames":[],"lat":-16.6666,"lon":-49.2666,"countryCode":"BR"},{"name":"Carmen","asciiName":"CARMEN","alternatenames":[],"lat":-25.5666,"lon":-54.5666,"countryCode":"BR"},{"name":"Sofitel Jequitimar Guaruja","asciiName":"SOFITEL JEQUITIMAR GUARUJA","alternatenames":[],"lat":-21.8833,"lon":-54.0333,"countryCode":"BR"},{"name":"Arituba Park Hotel","asciiName":"ARITUBA PARK HOTEL","alternatenames":[],"lat":-8.3333,"lon":-72.7166,"countryCode":"BR"},{"name":"Comfort Hotel Curitiba","asciiName":"COMFORT HOTEL CURITIBA","alternatenames":[],"lat":-25.4166,"lon":-49.25,"countryCode":"BR"},{"name":"Hotel Bandeirantes","asciiName":"HOTEL BANDEIRANTES","alternatenames":[],"lat":-22.8999,"lon":-43.2333,"countryCode":"BR"},{"name":"Best Western Solar Porto De","asciiName":"BEST WESTERN SOLAR PORTO DE","alternatenames":[],"lat":-8.4,"lon":-35.0666,"countryCode":"BR"},{"name":"Travel Inn Rio Roiss Hotel","asciiName":"TRAVEL INN RIO ROISS HOTEL","alternatenames":[],"lat":-22.8999,"lon":-43.2333,"countryCode":"BR"},{"name":"Resort Costa Brasilis","asciiName":"RESORT COSTA BRASILIS","alternatenames":[],"lat":-8.6999,"lon":-72.8166,"countryCode":"BR"},{"name":"Vila Gale Mares","asciiName":"VILA GALE MARES","alternatenames":[],"lat":-10.1166,"lon":-36.2833,"countryCode":"BR"},{"name":"Provence Iracema Flat","asciiName":"PROVENCE IRACEMA FLAT","alternatenames":[],"lat":-10.0833,"lon":-69.0833,"countryCode":"BR"},{"name":"Transamerica Comandatuba","asciiName":"TRANSAMERICA COMANDATUBA","alternatenames":[],"lat":-15.3,"lon":-39.0666,"countryCode":"BR"},{"name":"Sofitel Florianopolis","asciiName":"SOFITEL FLORIANOPOLIS","alternatenames":[],"lat":-7.9166,"lon":-73.2,"countryCode":"BR"},{"name":"Travel Inn Macae","asciiName":"TRAVEL INN MACAE","alternatenames":[],"lat":-22.3833,"lon":-41.7833,"countryCode":"BR"},{"name":"Mirasol Copacabana Hotel Ltda","asciiName":"MIRASOL COPACABANA HOTEL LTDA","alternatenames":[],"lat":-22.8999,"lon":-43.2333,"countryCode":"BR"},{"name":"Master Palace Hotel","asciiName":"MASTER PALACE HOTEL","alternatenames":[],"lat":-8.4166,"lon":-70.75,"countryCode":"BR"},{"name":"Hotel O K    Rio De Janeiro","asciiName":"HOTEL O K    RIO DE JANEIRO","alternatenames":[],"lat":-22.8999,"lon":-43.2333,"countryCode":"BR"},{"name":"Slaviero Rockefeller Hotel","asciiName":"SLAVIERO ROCKEFELLER HOTEL","alternatenames":[],"lat":-25.4166,"lon":-49.25,"countryCode":"BR"},{"name":"Pousada Lunazul Travelinn","asciiName":"POUSADA LUNAZUL TRAVELINN","alternatenames":[],"lat":-22.75,"lon":-41.8833,"countryCode":"BR"},{"name":"Slaviero Full Jazz","asciiName":"SLAVIERO FULL JAZZ","alternatenames":[],"lat":-25.4166,"lon":-49.25,"countryCode":"BR"},{"name":"Estanplaza Nacoes Unidas","asciiName":"ESTANPLAZA NACOES UNIDAS","alternatenames":[],"lat":-9.4499,"lon":-36.0333,"countryCode":"BR"},{"name":"Hotel Master Express Perimetral","asciiName":"HOTEL MASTER EXPRESS PERIMETRAL","alternatenames":[],"lat":-8.4166,"lon":-70.75,"countryCode":"BR"},{"name":"Harmonia Residence","asciiName":"HARMONIA RESIDENCE","alternatenames":[],"lat":-8.4166,"lon":-70.75,"countryCode":"BR"},{"name":"Nautico Praia Hotel","asciiName":"NAUTICO PRAIA HOTEL","alternatenames":[],"lat":-8.6999,"lon":-72.8166,"countryCode":"BR"},{"name":"Golden Tulip Interatlantico","asciiName":"GOLDEN TULIP INTERATLANTICO","alternatenames":[],"lat":-8.3333,"lon":-72.7166,"countryCode":"BR"},{"name":"Luxor Auberge De La Langouste","asciiName":"LUXOR AUBERGE DE LA LANGOUSTE","alternatenames":[],"lat":-22.75,"lon":-41.8833,"countryCode":"BR"},{"name":"Fasano Hotel E Restaurante","asciiName":"FASANO HOTEL E RESTAURANTE","alternatenames":[],"lat":-22.8999,"lon":-43.2333,"countryCode":"BR"},{"name":"Luxor Dos Reis","asciiName":"LUXOR DOS REIS","alternatenames":[],"lat":-22.75,"lon":-41.8833,"countryCode":"BR"},{"name":"Luxor Vila Boa Vida I","asciiName":"LUXOR VILA BOA VIDA I","alternatenames":[],"lat":-22.75,"lon":-41.8833,"countryCode":"BR"},{"name":"Best Western Dubai Macae","asciiName":"BEST WESTERN DUBAI MACAE","alternatenames":[],"lat":-22.3833,"lon":-41.7833,"countryCode":"BR"},{"name":"Luxor Corais E Conchas","asciiName":"LUXOR CORAIS E CONCHAS","alternatenames":[],"lat":-22.75,"lon":-41.8833,"countryCode":"BR"},{"name":"Luxor Joao Fernandes","asciiName":"LUXOR JOAO FERNANDES","alternatenames":[],"lat":-22.75,"lon":-41.8833,"countryCode":"BR"},{"name":"Crillon Palace Hotel","asciiName":"CRILLON PALACE HOTEL","alternatenames":[],"lat":-23.3,"lon":-51.15,"countryCode":"BR"},{"name":"Ibis Campo Grande","asciiName":"IBIS CAMPO GRANDE","alternatenames":[],"lat":-10.8616,"lon":-53.104,"countryCode":"BR"},{"name":"Luxor Lestada","asciiName":"LUXOR LESTADA","alternatenames":[],"lat":-22.75,"lon":-41.8833,"countryCode":"BR"},{"name":"Luxor Byblos","asciiName":"LUXOR BYBLOS","alternatenames":[],"lat":-22.75,"lon":-41.8833,"countryCode":"BR"},{"name":"Real Castilha","asciiName":"REAL CASTILHA","alternatenames":[],"lat":-9.4499,"lon":-36.0333,"countryCode":"BR"},{"name":"Clan Villa Emma Residence Servi","asciiName":"CLAN VILLA EMMA RESIDENCE SERVI","alternatenames":[],"lat":-8.4166,"lon":-72.8166,"countryCode":"BR"},{"name":"Ibis Criciuma","asciiName":"IBIS CRICIUMA","alternatenames":[],"lat":-20.2166,"lon":-41.6166,"countryCode":"BR"},{"name":"Sleep Inn Joinville","asciiName":"SLEEP INN JOINVILLE","alternatenames":[],"lat":-26.3,"lon":-48.8333,"countryCode":"BR"},{"name":"Convento Do Carmo Hotel","asciiName":"CONVENTO DO CARMO HOTEL","alternatenames":[],"lat":-12.966,"lon":-38.3966,"countryCode":"BR"},{"name":"Quality Resort Convention Ctr","asciiName":"QUALITY RESORT CONVENTION CTR","alternatenames":[],"lat":-17.4166,"lon":-40.4833,"countryCode":"BR"},{"name":"Victory Business Hotel","asciiName":"VICTORY BUSINESS HOTEL","alternatenames":[],"lat":-21.75,"lon":-43.3333,"countryCode":"BR"},{"name":"Pousada La Pedrera","asciiName":"POUSADA LA PEDRERA","alternatenames":[],"lat":-22.75,"lon":-41.8833,"countryCode":"BR"},{"name":"Copacabana Rio Hotel","asciiName":"COPACABANA RIO HOTEL","alternatenames":[],"lat":-22.98268,"lon":-43.19108,"countryCode":"BR"},{"name":"Best Western Praia Mar Hotel","asciiName":"BEST WESTERN PRAIA MAR HOTEL","alternatenames":[],"lat":-2.492,"lon":-44.263,"countryCode":"BR"},{"name":"Best Western Granville Prk Htl","asciiName":"BEST WESTERN GRANVILLE PRK HTL","alternatenames":[],"lat":-25.4166,"lon":-49.25,"countryCode":"BR"},{"name":"Rio Colinas Hotel","asciiName":"RIO COLINAS HOTEL","alternatenames":[],"lat":-22.8999,"lon":-43.2333,"countryCode":"BR"},{"name":"Ibis Taubate","asciiName":"IBIS TAUBATE","alternatenames":[],"lat":-23.0333,"lon":-45.55,"countryCode":"BR"},{"name":"Comfort Hotel Taguatinga","asciiName":"COMFORT HOTEL TAGUATINGA","alternatenames":[],"lat":-12.4166,"lon":-46.4333,"countryCode":"BR"},{"name":"Best Western Arco Hotel","asciiName":"BEST WESTERN ARCO HOTEL","alternatenames":[],"lat":-22.3166,"lon":-49.0666,"countryCode":"BR"},{"name":"Hb Sequoia Residence","asciiName":"HB SEQUOIA RESIDENCE","alternatenames":[],"lat":-9.4499,"lon":-36.0333,"countryCode":"BR"},{"name":"Mercure Sao Jose Dos Campos 3","asciiName":"MERCURE SAO JOSE DOS CAMPOS 3","alternatenames":[],"lat":-22.1666,"lon":-45.1,"countryCode":"BR"},{"name":"Ponta Dos Ganchos","asciiName":"PONTA DOS GANCHOS","alternatenames":[],"lat":-27.6043,"lon":-48.5139,"countryCode":"BR"},{"name":"Best Western Metro Tiete","asciiName":"Best Western Metro Tiete","alternatenames":[],"lat":-23.5636,"lon":-46.6364,"countryCode":"BR"},{"name":"Parthenon London","asciiName":"Parthenon London","alternatenames":[],"lat":-23.5333,"lon":-46.6166,"countryCode":"BR"},{"name":"Pousada Do Sandi","asciiName":"POUSADA DO SANDI","alternatenames":[],"lat":-23.2166,"lon":-44.7166,"countryCode":"BR"},{"name":"Comfort Hotel Franca","asciiName":"COMFORT HOTEL FRANCA","alternatenames":[],"lat":-11.5666,"lon":-40.6,"countryCode":"BR"},{"name":"Travel Inn Ibirapuera","asciiName":"Travel Inn Ibirapuera","alternatenames":[],"lat":-23.5517,"lon":-46.6275,"countryCode":"BR"},{"name":"Classic Hotel","asciiName":"CLASSIC HOTEL","alternatenames":[],"lat":-10.0833,"lon":-69.0833,"countryCode":"BR"},{"name":"Tropical Manaus","asciiName":"TROPICAL MANAUS BUSINESS","alternatenames":[],"lat":-3.1333,"lon":-60.0166,"countryCode":"BR"},{"name":"Comfort Suites Macae","asciiName":"COMFORT SUITES MACAE","alternatenames":[],"lat":-22.3833,"lon":-41.7833,"countryCode":"BR"},{"name":"Tropical Das Cataratas","asciiName":"TROPICAL DAS CATARATAS","alternatenames":[],"lat":-25.55,"lon":-54.5833,"countryCode":"BR"},{"name":"Mercure Apt Itacorubi 3","asciiName":"MERCURE APT ITACORUBI 3","alternatenames":[],"lat":-7.9166,"lon":-73.2,"countryCode":"BR"},{"name":"Quality Hotel Moema","asciiName":"Quality Hotel Moema","alternatenames":[],"lat":-23.5333,"lon":-46.6166,"countryCode":"BR"},{"name":"Comfort Inn Porto Alegre","asciiName":"COMFORT INN PORTO ALEGRE","alternatenames":[],"lat":-30.0333,"lon":-51.2,"countryCode":"BR"},{"name":"Oasis Plaza Othon Classic","asciiName":"OASIS PLAZA OTHON CLASSIC","alternatenames":[],"lat":-9.4499,"lon":-36.0333,"countryCode":"BR"},{"name":"Quality Hotel Curitiba","asciiName":"QUALITY HOTEL CURITIBA","alternatenames":[],"lat":-25.4166,"lon":-49.25,"countryCode":"BR"},{"name":"Comfort Inn Taguatinga","asciiName":"COMFORT INN TAGUATINGA","alternatenames":[],"lat":-12.4166,"lon":-46.4333,"countryCode":"BR"},{"name":"Ibis Sao Paulo Interlagos","asciiName":"Ibis Sao Paulo Interlagos","alternatenames":[],"lat":-23.5333,"lon":-46.6166,"countryCode":"BR"},{"name":"Ibis Aracaju","asciiName":"IBIS ARACAJU","alternatenames":[],"lat":-10.9166,"lon":-37.0666,"countryCode":"BR"},{"name":"Bristol Saint Emilion","asciiName":"BRISTOL SAINT EMILION","alternatenames":[],"lat":-25.4166,"lon":-49.25,"countryCode":"BR"},{"name":"Quality Hotel Aracaju","asciiName":"QUALITY HOTEL ARACAJU","alternatenames":[],"lat":-10.9166,"lon":-37.0666,"countryCode":"BR"},{"name":"Mercure Apt Manaus 3","asciiName":"MERCURE APT MANAUS 3","alternatenames":[],"lat":-3.1333,"lon":-60.0166,"countryCode":"BR"},{"name":"Blue Tree Premium Salvador","asciiName":"BLUE TREE PREMIUM SALVADOR","alternatenames":[],"lat":-13.0166,"lon":-38.5,"countryCode":"BR"},{"name":"Hotel Wetega","asciiName":"HOTEL WETEGA","alternatenames":[],"lat":-20.4393,"lon":-55.7654,"countryCode":"BR"},{"name":"Hotel Caicara","asciiName":"HOTEL CAICARA","alternatenames":[],"lat":-7.1174,"lon":-34.8275,"countryCode":"BR"},{"name":"Bristol Dom Ricardo Hotel","asciiName":"BRISTOL DOM RICARDO HOTEL","alternatenames":[],"lat":-25.4166,"lon":-49.25,"countryCode":"BR"},{"name":"Hotel Zagaia Resort","asciiName":"HOTEL ZAGAIA RESORT","alternatenames":[],"lat":-20.4393,"lon":-55.7654,"countryCode":"BR"},{"name":"Mercure Gramado 3","asciiName":"MERCURE GRAMADO 3","alternatenames":[],"lat":-29.3666,"lon":-52.9833,"countryCode":"BR"},{"name":"Lord Hotel","asciiName":"LORD HOTEL","alternatenames":[],"lat":-5.0833,"lon":-42.8166,"countryCode":"BR"},{"name":"Comfort Hotel Moema","asciiName":"Comfort Hotel Moema","alternatenames":[],"lat":-23.5333,"lon":-46.6166,"countryCode":"BR"},{"name":"Ariau Amazon Towers Hotel","asciiName":"ARIAU AMAZON TOWERS HOTEL","alternatenames":[],"lat":-3.1333,"lon":-60.0166,"countryCode":"BR"},{"name":"Clarion Hotel Jardim Europa","asciiName":"Clarion Hotel Jardim Europa","alternatenames":[],"lat":-23.5333,"lon":-46.6166,"countryCode":"BR"},{"name":"Vila Gale Salvador","asciiName":"VILA GALE SALVADOR","alternatenames":[],"lat":-12.9833,"lon":-38.5166,"countryCode":"BR"},{"name":"Ibis Caxias Do Sul","asciiName":"IBIS CAXIAS DO SUL","alternatenames":[],"lat":-29.1666,"lon":-51.1833,"countryCode":"BR"},{"name":"Hotel Black Stream","asciiName":"HOTEL BLACK STREAM","alternatenames":[],"lat":-21.1666,"lon":-47.8,"countryCode":"BR"},{"name":"Joi","asciiName":"JOI","alternatenames":[],"lat":-26.3,"lon":-48.8333,"countryCode":"BR"},{"name":"Vila Gale Fortaleza","asciiName":"VILA GALE FORTALEZA","alternatenames":[],"lat":-3.3166,"lon":-41.4166,"countryCode":"BR"},{"name":"Mercure Apt Vitoria 3","asciiName":"MERCURE APT VITORIA 3","alternatenames":[],"lat":-20.3166,"lon":-40.3499,"countryCode":"BR"},{"name":"Howard Johnson Hotel Sao Paulo","asciiName":"Howard Johnson Hotel Sao Paulo","alternatenames":[],"lat":-23.5333,"lon":-46.6166,"countryCode":"BR"},{"name":"Comfort Hotel Nova Paulista","asciiName":"Comfort Hotel Nova Paulista","alternatenames":[],"lat":-23.5333,"lon":-46.6166,"countryCode":"BR"},{"name":"Mercure Apt Botafogo 3","asciiName":"MERCURE APT BOTAFOGO 3","alternatenames":[],"lat":-22.8999,"lon":-43.2333,"countryCode":"BR"},{"name":"Ibis Salvador Rio Vermelho","asciiName":"IBIS SALVADOR RIO VERMELHO","alternatenames":[],"lat":-12.9833,"lon":-38.5166,"countryCode":"BR"},{"name":"Clarion Hotel Alphaville","asciiName":"CLARION HOTEL ALPHAVILLE","alternatenames":[],"lat":-23.5166,"lon":-46.8833,"countryCode":"BR"},{"name":"Mercure Apt Twin Towers 3","asciiName":"MERCURE APT TWIN TOWERS 3","alternatenames":[],"lat":-23.6999,"lon":-46.55,"countryCode":"BR"},{"name":"Mercure Sao Paulo Paulista 3","asciiName":"Mercure Sao Paulo Paulista 3","alternatenames":[],"lat":-23.4666,"lon":-46.6499,"countryCode":"BR"},{"name":"Vilamar Othon Palace","asciiName":"VILAMAR OTHON PALACE","alternatenames":[],"lat":-3.3166,"lon":-41.4166,"countryCode":"BR"},{"name":"Mosquito Blue Jericoacoara","asciiName":"MOSQUITO BLUE JERICOACOARA","alternatenames":[],"lat":-3.3166,"lon":-41.4166,"countryCode":"BR"},{"name":"Quality Inn N Sts Congonhas A","asciiName":"Quality Inn N Sts Congonhas A","alternatenames":[],"lat":-23.5333,"lon":-46.6166,"countryCode":"BR"},{"name":"Quality Hotel Faria Lima","asciiName":"Quality Hotel Faria Lima","alternatenames":[],"lat":-23.5333,"lon":-46.6166,"countryCode":"BR"},{"name":"Comfort Suites Londrina","asciiName":"COMFORT SUITES LONDRINA","alternatenames":[],"lat":-20.4499,"lon":-54.6166,"countryCode":"BR"},{"name":"Mirador Rio Hotel","asciiName":"MIRADOR RIO HOTEL","alternatenames":[],"lat":-22.8999,"lon":-43.2333,"countryCode":"BR"},{"name":"Majestic Rio Palace Hotel","asciiName":"MAJESTIC RIO PALACE HOTEL","alternatenames":[],"lat":-22.8999,"lon":-43.2333,"countryCode":"BR"},{"name":"Intercity Premium Porto Alegre","asciiName":"INTERCITY PREMIUM PORTO ALEGRE","alternatenames":[],"lat":-30.0333,"lon":-51.2,"countryCode":"BR"},{"name":"Quality Suites Santo Andre","asciiName":"QUALITY SUITES SANTO ANDRE","alternatenames":[],"lat":-23.6666,"lon":-46.5166,"countryCode":"BR"},{"name":"Baia Norte Othon Classic","asciiName":"BAIA NORTE OTHON CLASSIC","alternatenames":[],"lat":-7.9166,"lon":-73.2,"countryCode":"BR"},{"name":"Comfort Suites Alphaville","asciiName":"COMFORT SUITES ALPHAVILLE","alternatenames":[],"lat":-23.5166,"lon":-46.8833,"countryCode":"BR"},{"name":"Comfort Hotel Downtown","asciiName":"Comfort Hotel Downtown","alternatenames":[],"lat":-23.5333,"lon":-46.6166,"countryCode":"BR"},{"name":"Iguazu Grand Hotel And Casino","asciiName":"IGUAZU GRAND HOTEL AND CASINO","alternatenames":[],"lat":-25.5666,"lon":-54.5666,"countryCode":"BR"},{"name":"Arvoredo Residence","asciiName":"ARVOREDO RESIDENCE","alternatenames":[],"lat":-8.4166,"lon":-70.75,"countryCode":"BR"},{"name":"Breezes Costa Do Sauipe","asciiName":"BREEZES COSTA DO SAUIPE","alternatenames":[],"lat":-12.9833,"lon":-38.5166,"countryCode":"BR"},{"name":"Hotel Unique","asciiName":"Hotel Unique","alternatenames":[],"lat":-23.5333,"lon":-46.6166,"countryCode":"BR"},{"name":"Hb Flat Ninety","asciiName":"Hb Flat Ninety","alternatenames":[],"lat":-23.5333,"lon":-46.6166,"countryCode":"BR"},{"name":"Best Western Royal Atlantic Ht","asciiName":"BEST WESTERN ROYAL ATLANTIC HT","alternatenames":[],"lat":-26.995,"lon":-48.645,"countryCode":"BR"},{"name":"Comfort Hotel Vitoria Praia","asciiName":"COMFORT HOTEL VITORIA PRAIA","alternatenames":[],"lat":-20.3166,"lon":-40.3499,"countryCode":"BR"},{"name":"Comfort Inn Itu","asciiName":"COMFORT INN ITU","alternatenames":[],"lat":-23.2666,"lon":-47.3166,"countryCode":"BR"},{"name":"Hotel Master Express","asciiName":"HOTEL MASTER EXPRESS","alternatenames":[],"lat":-8.4166,"lon":-70.75,"countryCode":"BR"},{"name":"Quality Suites Bela Cintra","asciiName":"Quality Suites Bela Cintra","alternatenames":[],"lat":-23.5333,"lon":-46.6166,"countryCode":"BR"},{"name":"Ibis Ribeirao Preto","asciiName":"IBIS RIBEIRAO PRETO","alternatenames":[],"lat":-21.1666,"lon":-47.8,"countryCode":"BR"},{"name":"Barcelo Porto Seguro Conv Spa","asciiName":"BARCELO PORTO SEGURO CONV SPA","alternatenames":[],"lat":-10.8616,"lon":-53.104,"countryCode":"BR"},{"name":"Qi Ibirapuera Hotel","asciiName":"QI IBIRAPUERA HOTEL","alternatenames":[],"lat":-23.5166,"lon":-46.8833,"countryCode":"BR"},{"name":"Quality Hotel Alfonso Pena","asciiName":"QUALITY HOTEL ALFONSO PENA","alternatenames":[],"lat":-19.9166,"lon":-43.9333,"countryCode":"BR"},{"name":"Mercure Brasilia 3","asciiName":"MERCURE BRASILIA 3","alternatenames":[],"lat":-15.7833,"lon":-47.9166,"countryCode":"BR"},{"name":"Intercity Premium Caxias Do Su","asciiName":"INTERCITY PREMIUM CAXIAS DO SU","alternatenames":[],"lat":-29.1666,"lon":-51.1833,"countryCode":"BR"},{"name":"Barcelo Oasis Praia Das Fonte","asciiName":"BARCELO OASIS PRAIA DAS FONTE","alternatenames":[],"lat":-4.1833,"lon":-38.1333,"countryCode":"BR"},{"name":"Intercity Diplomata","asciiName":"INTERCITY DIPLOMATA","alternatenames":[],"lat":-27.5833,"lon":-48.5666,"countryCode":"BR"},{"name":"Quality Suites Alvorada","asciiName":"Quality Suites Alvorada","alternatenames":[],"lat":-23.5333,"lon":-46.6166,"countryCode":"BR"},{"name":"Castro Park Hotel","asciiName":"CASTRO PARK HOTEL","alternatenames":[],"lat":-16.6666,"lon":-49.2666,"countryCode":"BR"},{"name":"Quality Suites Water Plaza","asciiName":"QUALITY SUITES WATER PLAZA","alternatenames":[],"lat":-20.3333,"lon":-40.2833,"countryCode":"BR"},{"name":"Mercure Apt Central Towers 3","asciiName":"Mercure Apt Central Towers 3","alternatenames":[],"lat":-23.5333,"lon":-46.6166,"countryCode":"BR"},{"name":"Ibis Indaiatuba","asciiName":"IBIS INDAIATUBA","alternatenames":[],"lat":-23.0833,"lon":-47.2333,"countryCode":"BR"},{"name":"Ibis Fortaleza Porto Das Dunas","asciiName":"IBIS FORTALEZA PORTO DAS DUNAS","alternatenames":[],"lat":-3.8999,"lon":-38.3666,"countryCode":"BR"},{"name":"iguazu grand hotel resort casino","asciiName":"iguazu grand hotel resort casino","alternatenames":[],"lat":-25.5666,"lon":-54.5666,"countryCode":"BR"},{"name":"cataratas","asciiName":"cataratas","alternatenames":[],"lat":-23.6,"lon":-54.5,"countryCode":"BR"},{"name":"Pantanal Wildlife Center","asciiName":"Pantanal Wildlife Center","alternatenames":[],"lat":-16.75844,"lon":-56.87682,"countryCode":"BR"},{"name":"Hotel Boutique A Casa Das Portas Velhas","asciiName":"Hotel Boutique A Casa Das Portas Velhas","alternatenames":[],"lat":-12.9776,"lon":-38.5114,"countryCode":"BR"},{"name":"Acropolis Marina Hotel","asciiName":"Acropolis Marina Hotel","alternatenames":[],"lat":-23.0012,"lon":-44.3018,"countryCode":"BR"},{"name":"Actuall Hotel e Eventos","asciiName":"Actuall Hotel e Eventos","alternatenames":[],"lat":-19.9562,"lon":-44.0584,"countryCode":"BR"},{"name":"Adaba - Blue Ocean Flat Residence","asciiName":"Adaba - Blue Ocean Flat Residence","alternatenames":[],"lat":-3.72284,"lon":-38.51,"countryCode":"BR"},{"name":"Adaba Luzon Flat Residence","asciiName":"Adaba Luzon Flat Residence","alternatenames":[],"lat":-3.72973,"lon":-38.4981,"countryCode":"BR"},{"name":"Adaba Mistral","asciiName":"Adaba Mistral","alternatenames":[],"lat":-3.72661,"lon":-38.5091,"countryCode":"BR"},{"name":"Hotel Aero Park","asciiName":"Hotel Aero Park","alternatenames":[],"lat":-23.3257,"lon":-51.1402,"countryCode":"BR"},{"name":"Hotel Água Marinha","asciiName":"Hotel Agua Marinha","alternatenames":[],"lat":-3.72007,"lon":-38.5141,"countryCode":"BR"},{"name":"Águas Do Iguaçú Hotel Centro","asciiName":"Aguas Do Iguacu Hotel Centro","alternatenames":[],"lat":-25.5348,"lon":-54.5857,"countryCode":"BR"},{"name":"Águas Mornas Palace Hotel","asciiName":"Aguas Mornas Palace Hotel","alternatenames":[],"lat":-27.7014,"lon":-48.8336,"countryCode":"BR"},{"name":"Aguas Palace Hotel","asciiName":"Aguas Palace Hotel","alternatenames":[],"lat":-9.396,"lon":-40.5052,"countryCode":"BR"},{"name":"Airam Brasília Hotel","asciiName":"Airam Brasilia Hotel","alternatenames":[],"lat":-15.7801,"lon":-47.9292,"countryCode":"BR"},{"name":"Alamar Hotel","asciiName":"Alamar Hotel","alternatenames":[],"lat":-12.995,"lon":-38.4415,"countryCode":"BR"},{"name":"Aldeia do Mar Chales","asciiName":"Aldeia do Mar Chales","alternatenames":[],"lat":-17.0353,"lon":-39.5441,"countryCode":"BR"},{"name":"Altareggia Plaza Hotel - Curitiba","asciiName":"Altareggia Plaza Hotel - Curitiba","alternatenames":[],"lat":-25.4307,"lon":-49.2606,"countryCode":"BR"},{"name":"Alvor Hotel Graciosa   Quatro Barras","asciiName":"Alvor Hotel Graciosa   Quatro Barras","alternatenames":[],"lat":-25.3632,"lon":-49.0792,"countryCode":"BR"},{"name":"Amaralina Praia Hotel","asciiName":"Amaralina Praia Hotel","alternatenames":[],"lat":-13.0118,"lon":-38.4678,"countryCode":"BR"},{"name":"Hotel Amazon Plaza","asciiName":"Hotel Amazon Plaza","alternatenames":[],"lat":-15.5951,"lon":-56.0989,"countryCode":"BR"},{"name":"America Towers Hotel","asciiName":"America Towers Hotel","alternatenames":[],"lat":-12.9818,"lon":-38.4543,"countryCode":"BR"},{"name":"Eco Resort Angra dos Reis","asciiName":"Eco Resort Angra dos Reis","alternatenames":[],"lat":-23.0219,"lon":-44.3421,"countryCode":"BR"},{"name":"Hotel Anthurium Parque Ltda","asciiName":"Hotel Anthurium Parque Ltda","alternatenames":[],"lat":-26.3072,"lon":-48.8465,"countryCode":"BR"},{"name":"Anthurium Praia Hotel Ltda","asciiName":"Anthurium Praia Hotel Ltda","alternatenames":[],"lat":-26.6842,"lon":-48.6874,"countryCode":"BR"},{"name":"Apa Hotel","asciiName":"Apa Hotel","alternatenames":[],"lat":-22.9664,"lon":-43.1828,"countryCode":"BR"},{"name":"Aquarela Praia","asciiName":"Aquarela Praia","alternatenames":[],"lat":-16.4738,"lon":-39.0638,"countryCode":"BR"},{"name":"Aquários Praia Hotel","asciiName":"Aquarios Praia Hotel","alternatenames":[],"lat":-10.9546,"lon":-37.0442,"countryCode":"BR"},{"name":"Aquarius Selva Hotel","asciiName":"Aquarius Selva Hotel","alternatenames":[],"lat":-8.75808,"lon":-63.878,"countryCode":"BR"},{"name":"Aquaville Resort & Hotel","asciiName":"Aquaville Resort & Hotel","alternatenames":[],"lat":-3.83282,"lon":-38.3975,"countryCode":"BR"},{"name":"Araçá Praia","asciiName":"Araca Praia","alternatenames":[],"lat":-5.87679,"lon":-35.176,"countryCode":"BR"},{"name":"Aracaju Praia Hotel","asciiName":"Aracaju Praia Hotel","alternatenames":[],"lat":-10.9513,"lon":-37.0448,"countryCode":"BR"},{"name":"Aram Yamí  Hotel Boutique","asciiName":"Aram Yami  Hotel Boutique","alternatenames":[],"lat":-12.9647,"lon":-38.5047,"countryCode":"BR"},{"name":"Arcada Bistrô","asciiName":"Arcada Bistro","alternatenames":[],"lat":-8.11732,"lon":-34.8954,"countryCode":"BR"},{"name":"Arcos Rio Palace Hotel","asciiName":"Arcos Rio Palace Hotel","alternatenames":[],"lat":-22.9127,"lon":-43.1839,"countryCode":"BR"},{"name":"Marbello Ariaú Hotel","asciiName":"Marbello Ariau Hotel","alternatenames":[],"lat":-3.73527,"lon":-38.4566,"countryCode":"BR"},{"name":"Arraial Dajuda Eco Resort","asciiName":"Arraial Dajuda Eco Resort","alternatenames":[],"lat":-16.4511,"lon":-39.0646,"countryCode":"BR"},{"name":"Arraial Praia Hotel Pousada","asciiName":"Arraial Praia Hotel Pousada","alternatenames":[],"lat":-16.4739,"lon":-39.0638,"countryCode":"BR"},{"name":"Astron Flat Curitiba","asciiName":"Astron Flat Curitiba","alternatenames":[],"lat":-25.4321,"lon":-49.2598,"countryCode":"BR"},{"name":"Astron Quatro Rodas Olinda","asciiName":"Astron Quatro Rodas Olinda","alternatenames":[],"lat":-8.00937,"lon":-34.8553,"countryCode":"BR"},{"name":"Astron St Moritz","asciiName":"Astron St Moritz","alternatenames":[],"lat":-23.7078,"lon":-46.549,"countryCode":"BR"},{"name":"Atalaia Palace Hotel","asciiName":"Atalaia Palace Hotel","alternatenames":[],"lat":-25.3787,"lon":-51.4498,"countryCode":"BR"},{"name":"Hotel Atlantic Tower","asciiName":"Hotel Atlantic Tower","alternatenames":[],"lat":-13.0078,"lon":-38.5189,"countryCode":"BR"},{"name":"Atlantico Buzios Convention & Resort","asciiName":"Atlantico Buzios Convention & Resort","alternatenames":[],"lat":-22.7554,"lon":-41.8836,"countryCode":"BR"},{"name":"Hotel Atlântico","asciiName":"Hotel Atlantico","alternatenames":[],"lat":-12.9969,"lon":-38.4432,"countryCode":"BR"},{"name":"Atobá Praia Hotel","asciiName":"Atoba Praia Hotel","alternatenames":[],"lat":-26.9995,"lon":-48.625,"countryCode":"BR"},{"name":"Augusta Boulevard Hotel","asciiName":"Augusta Boulevard Hotel","alternatenames":[],"lat":-23.5527,"lon":-46.6538,"countryCode":"BR"},{"name":"Hotel Avenida Palace","asciiName":"Hotel Avenida Palace","alternatenames":[],"lat":-23.9692,"lon":-46.3341,"countryCode":"BR"},{"name":"Bahia Park Hotel","asciiName":"Bahia Park Hotel","alternatenames":[],"lat":-13.0134,"lon":-38.4877,"countryCode":"BR"},{"name":"Bahia Mar Hotel","asciiName":"Bahia Mar Hotel","alternatenames":[],"lat":-12.9938,"lon":-38.4416,"countryCode":"BR"},{"name":"Baia Norte Palace Hotel","asciiName":"Baia Norte Palace Hotel","alternatenames":[],"lat":-27.5957,"lon":-48.5551,"countryCode":"BR"},{"name":"Barão Center Hotel","asciiName":"Barao Center Hotel","alternatenames":[],"lat":-2.42694,"lon":-54.7134,"countryCode":"BR"},{"name":"Barra Da Lagoa","asciiName":"Barra Da Lagoa","alternatenames":[],"lat":-22.7542,"lon":-41.8826,"countryCode":"BR"},{"name":"Bay Park Hotel Resort","asciiName":"Bay Park Hotel Resort","alternatenames":[],"lat":-15.7843,"lon":-47.8537,"countryCode":"BR"},{"name":"Beach Class Resort Muro Alto","asciiName":"Beach Class Resort Muro Alto","alternatenames":[],"lat":-8.43522,"lon":-34.982,"countryCode":"BR"},{"name":"Beach Class Suites","asciiName":"Beach Class Suites","alternatenames":[],"lat":-8.10813,"lon":-34.8884,"countryCode":"BR"},{"name":"Beach Park Suites Resort","asciiName":"Beach Park Suites Resort","alternatenames":[],"lat":-3.8747,"lon":-38.3698,"countryCode":"BR"},{"name":"Hotel Beira Mar","asciiName":"Hotel Beira Mar","alternatenames":[],"lat":-3.72579,"lon":-38.4925,"countryCode":"BR"},{"name":"Beira Rio Hotel","asciiName":"Beira Rio Hotel","alternatenames":[],"lat":-1.47574,"lon":-48.4622,"countryCode":"BR"},{"name":"Bella Italia Hotel","asciiName":"Bella Italia Hotel","alternatenames":[],"lat":-25.5347,"lon":-54.5765,"countryCode":"BR"},{"name":"Pousada Bella Nina","asciiName":"Pousada Bella Nina","alternatenames":[],"lat":-22.8303,"lon":-42.0079,"countryCode":"BR"},{"name":"Hotel Belle Residence","asciiName":"Hotel Belle Residence","alternatenames":[],"lat":-19.506,"lon":-42.5722,"countryCode":"BR"},{"name":"Hotel Beloalter","asciiName":"Hotel Beloalter","alternatenames":[],"lat":-2.42481,"lon":-54.7162,"countryCode":"BR"},{"name":"Bergson Executive Flat","asciiName":"Bergson Executive Flat","alternatenames":[],"lat":-29.1699,"lon":-51.18,"countryCode":"BR"},{"name":"Hotel Bertaso","asciiName":"Hotel Bertaso","alternatenames":[],"lat":-27.1054,"lon":-52.6143,"countryCode":"BR"},{"name":"Best Western Shalimar Praia Hotel","asciiName":"Best Western Shalimar Praia Hotel","alternatenames":[],"lat":-16.4402,"lon":-39.0633,"countryCode":"BR"},{"name":"Best Western Suites Le Jardin Resort& Spa","asciiName":"Best Western Suites Le Jardin Resort& Spa","alternatenames":[],"lat":-17.7441,"lon":-48.6315,"countryCode":"BR"},{"name":"Best Western Tamandaré Plaza Hotel","asciiName":"Best Western Tamandare Plaza Hotel","alternatenames":[],"lat":-16.6812,"lon":-49.2681,"countryCode":"BR"},{"name":"Hotel Biarritz","asciiName":"Hotel Biarritz","alternatenames":[],"lat":-22.9773,"lon":-43.1895,"countryCode":"BR"},{"name":"Blue Tree Towers São José dos Campos","asciiName":"Blue Tree Towers Sao Jose dos Campos","alternatenames":[],"lat":-23.19752,"lon":-45.88941,"countryCode":"BR"},{"name":"Blue Tree Millenium Flat","asciiName":"Blue Tree Millenium Flat","alternatenames":[],"lat":-30.052,"lon":-51.2297,"countryCode":"BR"},{"name":"Blue Tree Park Angra dos Reis","asciiName":"Blue Tree Park Angra dos Reis","alternatenames":[],"lat":-23.0069,"lon":-44.3185,"countryCode":"BR"},{"name":"Blue Tree Premium Brusque","asciiName":"Blue Tree Premium Brusque","alternatenames":[],"lat":-27.0899,"lon":-48.8993,"countryCode":"BR"},{"name":"Hotel Blue Tree","asciiName":"Hotel Blue Tree","alternatenames":[],"lat":-23.3142,"lon":-51.1707,"countryCode":"BR"},{"name":"Hotel Blue Tree Caesar Towers Florianópolis","asciiName":"Hotel Blue Tree Caesar Towers Florianopolis","alternatenames":[],"lat":-27.5848,"lon":-48.5459,"countryCode":"BR"},{"name":"Blue Tree Premium Fortaleza","asciiName":"Blue Tree Premium Fortaleza","alternatenames":[],"lat":-3.72346,"lon":-38.5105,"countryCode":"BR"},{"name":"Blue Tree Towers Joinville","asciiName":"Blue Tree Towers Joinville","alternatenames":[],"lat":-26.3038,"lon":-48.8467,"countryCode":"BR"},{"name":"Blue Tree Towers Mac","asciiName":"Blue Tree Towers Mac","alternatenames":[],"lat":-22.4099,"lon":-41.8084,"countryCode":"BR"},{"name":"Blue Tree Towers Porto Alegre","asciiName":"Blue Tree Towers Porto Alegre","alternatenames":[],"lat":-30.0314,"lon":-51.1945,"countryCode":"BR"},{"name":"Hotel Blue Tree Towers Recife","asciiName":"Hotel Blue Tree Towers Recife","alternatenames":[],"lat":-8.21246,"lon":-34.9197,"countryCode":"BR"},{"name":"Blue Tree Towers Santo André","asciiName":"Blue Tree Towers Santo Andre","alternatenames":[],"lat":-23.6681,"lon":-46.5372,"countryCode":"BR"},{"name":"Bomtempo Resort","asciiName":"Bomtempo Resort","alternatenames":[],"lat":-22.3526,"lon":-43.0956,"countryCode":"BR"},{"name":"Bonaparte Express Curitiba","asciiName":"Bonaparte Express Curitiba","alternatenames":[],"lat":-25.4334,"lon":-49.2598,"countryCode":"BR"},{"name":"Boreas Apart Hotel","asciiName":"Boreas Apart Hotel","alternatenames":[],"lat":-3.74306,"lon":-38.4537,"countryCode":"BR"},{"name":"Hotel do Bosque","asciiName":"Hotel do Bosque","alternatenames":[],"lat":-22.9612,"lon":-44.4408,"countryCode":"BR"},{"name":"Boulevard Da Praia Apart Hotel","asciiName":"Boulevard Da Praia Apart Hotel","alternatenames":[],"lat":-16.5719,"lon":-39.1672,"countryCode":"BR"},{"name":"Bourbon São Paulo Business Hotel","asciiName":"Bourbon Sao Paulo Business Hotel","alternatenames":[],"lat":-23.5418,"lon":-46.6436,"countryCode":"BR"},{"name":"Bourbon Alphaville Business Hotel","asciiName":"Bourbon Alphaville Business Hotel","alternatenames":[],"lat":-23.4939,"lon":-46.8496,"countryCode":"BR"},{"name":"Bourbon Atibaia SPA Resort","asciiName":"Bourbon Atibaia SPA Resort","alternatenames":[],"lat":-21.7616,"lon":-45.412,"countryCode":"BR"},{"name":"Bourbon Batel Express Hotel","asciiName":"Bourbon Batel Express Hotel","alternatenames":[],"lat":-25.4443,"lon":-49.2875,"countryCode":"BR"},{"name":"Bourbon Cascavel Express Hotel","asciiName":"Bourbon Cascavel Express Hotel","alternatenames":[],"lat":-24.9543,"lon":-53.4588,"countryCode":"BR"},{"name":"Bourbon Cataratas Convention Resort","asciiName":"Bourbon Cataratas Convention Resort","alternatenames":[],"lat":-25.5471,"lon":-54.5787,"countryCode":"BR"},{"name":"Bourbon Convention Ibirapuera","asciiName":"Bourbon Convention Ibirapuera","alternatenames":[],"lat":-23.6085,"lon":-46.6668,"countryCode":"BR"},{"name":"Bourbon Curitiba Convention Hotel","asciiName":"Bourbon Curitiba Convention Hotel","alternatenames":[],"lat":-25.4306,"lon":-49.2734,"countryCode":"BR"},{"name":"Bourbon Joinville Business Hotel","asciiName":"Bourbon Joinville Business Hotel","alternatenames":[],"lat":-26.3036,"lon":-48.8503,"countryCode":"BR"},{"name":"Bourbon Londrina Business Hotel","asciiName":"Bourbon Londrina Business Hotel","alternatenames":[],"lat":-23.312,"lon":-51.1606,"countryCode":"BR"},{"name":"Brasil Palace Hotel","asciiName":"Brasil Palace Hotel","alternatenames":[],"lat":-19.9191,"lon":-43.9385,"countryCode":"BR"},{"name":"Hotel Brasil Tropical Residence","asciiName":"Hotel Brasil Tropical Residence","alternatenames":[],"lat":-3.72637,"lon":-38.4983,"countryCode":"BR"},{"name":"Brasilia Alvorada Park","asciiName":"Brasilia Alvorada Park","alternatenames":[],"lat":-15.7798,"lon":-47.9292,"countryCode":"BR"},{"name":"Brasília Santana Gold Flat","asciiName":"Brasilia Santana Gold Flat","alternatenames":[],"lat":-23.4998,"lon":-46.6242,"countryCode":"BR"},{"name":"Braston Hotel São Paulo","asciiName":"Braston Hotel Sao Paulo","alternatenames":[],"lat":-23.5497,"lon":-46.6455,"countryCode":"BR"},{"name":"Brisa Da Praia","asciiName":"Brisa Da Praia","alternatenames":[],"lat":-16.4075,"lon":-39.0474,"countryCode":"BR"},{"name":"Brisa Mar Hotel","asciiName":"Brisa Mar Hotel","alternatenames":[],"lat":-2.49296,"lon":-44.3065,"countryCode":"BR"},{"name":"Bristol Century Plaza","asciiName":"Bristol Century Plaza","alternatenames":[],"lat":-21.7953,"lon":-50.7995,"countryCode":"BR"},{"name":"Ramada Bristol Confins Airport Hotel","asciiName":"Ramada Bristol Confins Airport Hotel","alternatenames":[],"lat":-19.629,"lon":-43.8974,"countryCode":"BR"},{"name":"Bristol Costa Victoria","asciiName":"Bristol Costa Victoria","alternatenames":[],"lat":-20.2969,"lon":-40.2974,"countryCode":"BR"},{"name":"Hotel Thermas","asciiName":"Hotel Thermas","alternatenames":[],"lat":-5.16713,"lon":-37.3524,"countryCode":"BR"},{"name":"Bristol Viale Cataratas Hotel","asciiName":"Bristol Viale Cataratas Hotel","alternatenames":[],"lat":-25.5594,"lon":-54.5625,"countryCode":"BR"},{"name":"Bristol Flexy Upper","asciiName":"Bristol Flexy Upper","alternatenames":[],"lat":-25.4267,"lon":-49.2542,"countryCode":"BR"},{"name":"Bristol Hotel Guarapari Residence","asciiName":"Bristol Hotel Guarapari Residence","alternatenames":[],"lat":-20.6755,"lon":-40.4991,"countryCode":"BR"},{"name":"Bristol Metropolitan","asciiName":"Bristol Metropolitan","alternatenames":[],"lat":-19.9329,"lon":-43.9264,"countryCode":"BR"},{"name":"Pampulha Lieu","asciiName":"Pampulha Lieu","alternatenames":[],"lat":-19.873,"lon":-43.98,"countryCode":"BR"},{"name":"Bristol Praia Do Canto","asciiName":"Bristol Praia Do Canto","alternatenames":[],"lat":-20.3057,"lon":-40.2915,"countryCode":"BR"},{"name":"Bristol Quartier Latin","asciiName":"Bristol Quartier Latin","alternatenames":[],"lat":-20.2964,"lon":-40.295,"countryCode":"BR"},{"name":"Bristol Steel Valley","asciiName":"Bristol Steel Valley","alternatenames":[],"lat":-19.4787,"lon":-42.5284,"countryCode":"BR"},{"name":"Bristol Castelmar Hotel","asciiName":"Bristol Castelmar Hotel","alternatenames":[],"lat":-27.5925,"lon":-48.5585,"countryCode":"BR"},{"name":"Bristol Dobly Brasil 500 Hotel","asciiName":"Bristol Dobly Brasil 500 Hotel","alternatenames":[],"lat":-25.4416,"lon":-49.2778,"countryCode":"BR"},{"name":"Hotel Metrópole Bristol","asciiName":"Hotel Metropole Bristol","alternatenames":[],"lat":-23.4237,"lon":-51.9371,"countryCode":"BR"},{"name":"Bristol Dobly Oceania Park Hotel","asciiName":"Bristol Dobly Oceania Park Hotel","alternatenames":[],"lat":-27.4325,"lon":-48.4002,"countryCode":"BR"},{"name":"Bristol Evidence Apart Hotel","asciiName":"Bristol Evidence Apart Hotel","alternatenames":[],"lat":-16.6799,"lon":-49.255,"countryCode":"BR"},{"name":"Golden Plaza Residence","asciiName":"Golden Plaza Residence","alternatenames":[],"lat":-19.9271,"lon":-43.9409,"countryCode":"BR"},{"name":"Bristol Merit Hotel","asciiName":"Bristol Merit Hotel","alternatenames":[],"lat":-19.9203,"lon":-43.9392,"countryCode":"BR"},{"name":"Hotel Bristol Multy Bebber","asciiName":"Hotel Bristol Multy Bebber","alternatenames":[],"lat":-27.4051,"lon":-51.2204,"countryCode":"BR"},{"name":"Castelmar Hotéis Turismo","asciiName":"Castelmar Hoteis Turismo","alternatenames":[],"lat":-27.5925,"lon":-48.5585,"countryCode":"BR"},{"name":"Dom Ricardo Hotel","asciiName":"Dom Ricardo Hotel","alternatenames":[],"lat":-25.5363,"lon":-49.1806,"countryCode":"BR"},{"name":"Multy Exceler Plaza Hotel","asciiName":"Multy Exceler Plaza Hotel","alternatenames":[],"lat":-20.4678,"lon":-54.6323,"countryCode":"BR"},{"name":"Lang Palace Hotel","asciiName":"Lang Palace Hotel","alternatenames":[],"lat":-27.0968,"lon":-52.6143,"countryCode":"BR"},{"name":"Hotel Vila Velha","asciiName":"Hotel Vila Velha","alternatenames":[],"lat":-25.1091,"lon":-50.1602,"countryCode":"BR"},{"name":"Bristol Upper Residence","asciiName":"Bristol Upper Residence","alternatenames":[],"lat":-25.4166,"lon":-49.25,"countryCode":"BR"},{"name":"Hotel Butique Quinta das Videiras","asciiName":"Hotel Butique Quinta das Videiras","alternatenames":[],"lat":-27.6013,"lon":-48.4684,"countryCode":"BR"},{"name":"Búzios Ariaú Hotel","asciiName":"Buzios Ariau Hotel","alternatenames":[],"lat":-22.7486,"lon":-41.8814,"countryCode":"BR"},{"name":"Búzios Guest House","asciiName":"Buzios Guest House","alternatenames":[],"lat":-22.75,"lon":-41.8833,"countryCode":"BR"},{"name":"Best Western Pier Vitória Hotel","asciiName":"Best Western Pier Vitoria Hotel","alternatenames":[],"lat":-20.2925,"lon":-40.2902,"countryCode":"BR"},{"name":"Hotel Caesar Business Lagoa dos Ingleses, Alphaville","asciiName":"Hotel Caesar Business Lagoa dos Ingleses, Alphaville","alternatenames":[],"lat":-20.098,"lon":-43.9055,"countryCode":"BR"},{"name":"Hotel Caesar Business São José dos Campos","asciiName":"Hotel Caesar Business Sao Jose dos Campos","alternatenames":[],"lat":-23.1955,"lon":-45.873,"countryCode":"BR"},{"name":"Hotel Caesar Business São Paulo Int’l Airport","asciiName":"Hotel Caesar Business Sao Paulo Int'l Airport","alternatenames":[],"lat":-23.4635,"lon":-46.5335,"countryCode":"BR"},{"name":"Calhau Praia Hotel","asciiName":"Calhau Praia Hotel","alternatenames":[],"lat":-2.48278,"lon":-44.2448,"countryCode":"BR"},{"name":"Cana Brava Resort","asciiName":"Cana Brava Resort","alternatenames":[],"lat":-14.7973,"lon":-39.0355,"countryCode":"BR"},{"name":"Canarius Palace Hotel","asciiName":"Canarius Palace Hotel","alternatenames":[],"lat":-8.12814,"lon":-34.8991,"countryCode":"BR"},{"name":"Hotel Cannes Palace","asciiName":"Hotel Cannes Palace","alternatenames":[],"lat":-20.3219,"lon":-40.3387,"countryCode":"BR"},{"name":"Caravelle Palace Hotel","asciiName":"Caravelle Palace Hotel","alternatenames":[],"lat":-25.4304,"lon":-49.2753,"countryCode":"BR"},{"name":"Hotel Carima","asciiName":"Hotel Carima","alternatenames":[],"lat":-25.5471,"lon":-54.5787,"countryCode":"BR"},{"name":"Carlton Hotelaria e Turismo Ltda","asciiName":"Carlton Hotelaria e Turismo Ltda","alternatenames":[],"lat":-15.7845,"lon":-47.9121,"countryCode":"BR"},{"name":"Casa da Montanha","asciiName":"Casa da Montanha","alternatenames":[],"lat":-29.3753,"lon":-50.876,"countryCode":"BR"},{"name":"Casa Grande Hotel Resort & Spa","asciiName":"Casa Grande Hotel Resort & Spa","alternatenames":[],"lat":-23.9898,"lon":-46.2418,"countryCode":"BR"},{"name":"Casas Brancas Boutique - Hotel & Spa","asciiName":"Casas Brancas Boutique - Hotel & Spa","alternatenames":[],"lat":-22.8795,"lon":-42.0197,"countryCode":"BR"},{"name":"Castelo Plaza Hotel Auto Serviço","asciiName":"Castelo Plaza Hotel Auto Servico","alternatenames":[],"lat":-16.6799,"lon":-49.255,"countryCode":"BR"},{"name":"Castro S Park Hotel","asciiName":"Castro S Park Hotel","alternatenames":[],"lat":-16.6617,"lon":-49.2502,"countryCode":"BR"},{"name":"Hotel Catharina Paraguaçu","asciiName":"Hotel Catharina Paraguacu","alternatenames":[],"lat":-13.0121,"lon":-38.491,"countryCode":"BR"},{"name":"Catussaba Hotel Geral","asciiName":"Catussaba Hotel Geral","alternatenames":[],"lat":-12.9457,"lon":-38.3406,"countryCode":"BR"},{"name":"Condomínio Rio Claro Central Park Flat Service","asciiName":"Condominio Rio Claro Central Park Flat Service","alternatenames":[],"lat":-22.4106,"lon":-47.5691,"countryCode":"BR"},{"name":"Centro Sul Hotel","asciiName":"Centro Sul Hotel","alternatenames":[],"lat":-27.5977,"lon":-48.5477,"countryCode":"BR"},{"name":"Manaus Hotéis Century Apart Service","asciiName":"Manaus Hoteis Century Apart Service","alternatenames":[],"lat":-3.10198,"lon":-60.0237,"countryCode":"BR"},{"name":"Ceolatto Palace Hotel","asciiName":"Ceolatto Palace Hotel","alternatenames":[],"lat":-15.6487,"lon":-56.1429,"countryCode":"BR"},{"name":"César Palace Hotel","asciiName":"Cesar Palace Hotel","alternatenames":[],"lat":-21.7595,"lon":-43.3472,"countryCode":"BR"},{"name":"César Park Hotel","asciiName":"Cesar Park Hotel","alternatenames":[],"lat":-21.7603,"lon":-43.3462,"countryCode":"BR"},{"name":"Ceta Ecotel","asciiName":"Ceta Ecotel","alternatenames":[],"lat":-0.04947,"lon":-51.1192,"countryCode":"BR"},{"name":"Cheverny Apart Hotel","asciiName":"Cheverny Apart Hotel","alternatenames":[],"lat":-19.9273,"lon":-43.9372,"countryCode":"BR"},{"name":"Classic","asciiName":"Classic","alternatenames":[],"lat":-3.72258,"lon":-38.5076,"countryCode":"BR"},{"name":"Colinas Residencia","asciiName":"Colinas Residencia","alternatenames":[],"lat":-22.981,"lon":-43.1941,"countryCode":"BR"},{"name":"Colonial Chile Hotel","asciiName":"Colonial Chile Hotel","alternatenames":[],"lat":-12.9767,"lon":-38.5143,"countryCode":"BR"},{"name":"Pousada Colonial de Gramado","asciiName":"Pousada Colonial de Gramado","alternatenames":[],"lat":-3.72632,"lon":-38.5006,"countryCode":"BR"},{"name":"Comfort Hotel Araraquara","asciiName":"Comfort Hotel Araraquara","alternatenames":[],"lat":-21.7848,"lon":-48.1994,"countryCode":"BR"},{"name":"Comfort Hotel Franca","asciiName":"Comfort Hotel Franca","alternatenames":[],"lat":-20.5508,"lon":-47.4053,"countryCode":"BR"},{"name":"Comfort Hotel Fortaleza","asciiName":"Comfort Hotel Fortaleza","alternatenames":[],"lat":-3.73222,"lon":-38.4933,"countryCode":"BR"},{"name":"Comfort Hotel Guarulhos","asciiName":"Comfort Hotel Guarulhos","alternatenames":[],"lat":-23.4976,"lon":-46.4722,"countryCode":"BR"},{"name":"Comfort Hotel Manaus","asciiName":"Comfort Hotel Manaus","alternatenames":[],"lat":-3.13239,"lon":-59.9841,"countryCode":"BR"},{"name":"Comfort Moema","asciiName":"Comfort Moema","alternatenames":[],"lat":-23.5511,"lon":-46.9125,"countryCode":"BR"},{"name":"Comfort Hotel Sao Jose dos Campos","asciiName":"Comfort Hotel Sao Jose dos Campos","alternatenames":[],"lat":-23.1888,"lon":-45.8792,"countryCode":"BR"},{"name":"Comfort Suites Brasilia","asciiName":"Comfort Suites Brasilia","alternatenames":[],"lat":-15.7895,"lon":-47.8879,"countryCode":"BR"},{"name":"Comfort Suites Campinas","asciiName":"Comfort Suites Campinas","alternatenames":[],"lat":-22.8889,"lon":-47.0778,"countryCode":"BR"},{"name":"Comfort Suites Flamboyant","asciiName":"Comfort Suites Flamboyant","alternatenames":[],"lat":-16.688,"lon":-49.2468,"countryCode":"BR"},{"name":"Atlantica - Comfort Suites Londrina","asciiName":"Atlantica - Comfort Suites Londrina","alternatenames":[],"lat":-23.34,"lon":-51.1838,"countryCode":"BR"},{"name":"Comfort Hotel Uberlandia","asciiName":"Comfort Hotel Uberlandia","alternatenames":[],"lat":-18.9136,"lon":-48.3043,"countryCode":"BR"},{"name":"Continental Business","asciiName":"Continental Business","alternatenames":[],"lat":-30.0287,"lon":-51.224,"countryCode":"BR"},{"name":"Hotel Continental Inn","asciiName":"Hotel Continental Inn","alternatenames":[],"lat":-25.538,"lon":-54.5763,"countryCode":"BR"},{"name":"Hotel Continental Porto Alegre","asciiName":"Hotel Continental Porto Alegre","alternatenames":[],"lat":-30.0277,"lon":-51.2287,"countryCode":"BR"},{"name":"Copa Sul Hotel","asciiName":"Copa Sul Hotel","alternatenames":[],"lat":-22.9832,"lon":-43.1909,"countryCode":"BR"},{"name":"Copacabana Sol Hotel","asciiName":"Copacabana Sol Hotel","alternatenames":[],"lat":-22.96996,"lon":-43.18899,"countryCode":"BR"},{"name":"Coral Plaza Apart Hotel","asciiName":"Coral Plaza Apart Hotel","alternatenames":[],"lat":-5.87471,"lon":-35.177,"countryCode":"BR"},{"name":"Coral Tower","asciiName":"Coral Tower","alternatenames":[],"lat":-30.0399,"lon":-51.1769,"countryCode":"BR"},{"name":"Coral Tower Trade Center","asciiName":"Coral Tower Trade Center","alternatenames":[],"lat":-29.9999,"lon":-51.1915,"countryCode":"BR"},{"name":"Hotel Costa do Atlântico","asciiName":"Hotel Costa do Atlantico","alternatenames":[],"lat":-5.86869,"lon":-35.1821,"countryCode":"BR"},{"name":"Costa Atlântico Hotel","asciiName":"Costa Atlantico Hotel","alternatenames":[],"lat":-2.49141,"lon":-44.2825,"countryCode":"BR"},{"name":"Costa do Mar Hotel","asciiName":"Costa do Mar Hotel","alternatenames":[],"lat":-3.724,"lon":-38.5046,"countryCode":"BR"},{"name":"Hotel Costa Norte","asciiName":"Hotel Costa Norte","alternatenames":[],"lat":-27.4292,"lon":-48.3994,"countryCode":"BR"},{"name":"Hotel Costa Norte Ponta das Canas","asciiName":"Hotel Costa Norte Ponta das Canas","alternatenames":[],"lat":-27.398,"lon":-48.4304,"countryCode":"BR"},{"name":"Cristal Palace Arpoador","asciiName":"Cristal Palace Arpoador","alternatenames":[],"lat":-22.9869,"lon":-43.1911,"countryCode":"BR"},{"name":"Crisul Hotéis Turismo S/A","asciiName":"Crisul Hoteis Turismo S/A","alternatenames":[],"lat":-28.6794,"lon":-49.3734,"countryCode":"BR"},{"name":"Crowne Plaza","asciiName":"Crowne Plaza","alternatenames":[],"lat":-23.5587,"lon":-46.6585,"countryCode":"BR"},{"name":"Crowne Plaza Belém","asciiName":"Crowne Plaza Belem","alternatenames":[],"lat":-1.45284,"lon":-48.4892,"countryCode":"BR"},{"name":"Hotel Crowne Plaza Curitiba","asciiName":"Hotel Crowne Plaza Curitiba","alternatenames":[],"lat":-25.426,"lon":-49.2708,"countryCode":"BR"},{"name":"Hotel Cupim Lazer","asciiName":"Hotel Cupim Lazer","alternatenames":[],"lat":-20.8166,"lon":-43.8108,"countryCode":"BR"},{"name":"Czar Hotel","asciiName":"Czar Hotel","alternatenames":[],"lat":-16.6799,"lon":-49.255,"countryCode":"BR"},{"name":"Dall Onder Vittória Hotel","asciiName":"Dall Onder Vittoria Hotel","alternatenames":[],"lat":-29.1705,"lon":-51.5126,"countryCode":"BR"},{"name":"Hotel Dan","asciiName":"Hotel Dan","alternatenames":[],"lat":-23.5478,"lon":-46.649,"countryCode":"BR"},{"name":"Hotel Debret","asciiName":"Hotel Debret","alternatenames":[],"lat":-22.9803,"lon":-43.1897,"countryCode":"BR"},{"name":"Del Punto Hotel","asciiName":"Del Punto Hotel","alternatenames":[],"lat":-9.40037,"lon":-40.5048,"countryCode":"BR"},{"name":"Hotel Del Rey","asciiName":"Hotel Del Rey","alternatenames":[],"lat":-25.5343,"lon":-54.5884,"countryCode":"BR"},{"name":"Delphia Praia de Iracema Hotel","asciiName":"Delphia Praia de Iracema Hotel","alternatenames":[],"lat":-3.72099,"lon":-38.5119,"countryCode":"BR"},{"name":"Delphia Terrazzo Ponta Negra Flat","asciiName":"Delphia Terrazzo Ponta Negra Flat","alternatenames":[],"lat":-5.87769,"lon":-35.1763,"countryCode":"BR"},{"name":"Delphin Hotel Guarujá","asciiName":"Delphin Hotel Guaruja","alternatenames":[],"lat":-23.9908,"lon":-46.2449,"countryCode":"BR"},{"name":"Diamante Palace Hotel Ltda","asciiName":"Diamante Palace Hotel Ltda","alternatenames":[],"lat":-18.23974,"lon":-43.61159,"countryCode":"BR"},{"name":"Hotel Diogo","asciiName":"Hotel Diogo","alternatenames":[],"lat":-3.72464,"lon":-38.5036,"countryCode":"BR"},{"name":"Diplomata Hotel","asciiName":"Diplomata Hotel","alternatenames":[],"lat":-15.6481,"lon":-56.1233,"countryCode":"BR"},{"name":"Divi Divi","asciiName":"Divi Divi","alternatenames":[],"lat":-5.87509,"lon":-35.1773,"countryCode":"BR"},{"name":"Hotel Dorisol Pipa Ocean View","asciiName":"Hotel Dorisol Pipa Ocean View","alternatenames":[],"lat":-5.79448,"lon":-35.211,"countryCode":"BR"},{"name":"Dorisol Pipa Ocean View Village Resort","asciiName":"Dorisol Pipa Ocean View Village Resort","alternatenames":[],"lat":-6.06951,"lon":-35.2405,"countryCode":"BR"},{"name":"Dorisol Porto De Galinhas","asciiName":"Dorisol Porto De Galinhas","alternatenames":[],"lat":-8.06348,"lon":-34.8693,"countryCode":"BR"},{"name":"Dorisol Porto De Galinhas Resort","asciiName":"Dorisol Porto De Galinhas Resort","alternatenames":[],"lat":-8.50417,"lon":-35.0011,"countryCode":"BR"},{"name":"Hotel Dover","asciiName":"Hotel Dover","alternatenames":[],"lat":-9.67272,"lon":-35.7167,"countryCode":"BR"},{"name":"Dunas Mar Palace Hotel","asciiName":"Dunas Mar Palace Hotel","alternatenames":[],"lat":-3.74319,"lon":-38.4526,"countryCode":"BR"},{"name":"Duomo Park Hotel","asciiName":"Duomo Park Hotel","alternatenames":[],"lat":-25.436,"lon":-49.2771,"countryCode":"BR"},{"name":"Duque Center Hotel","asciiName":"Duque Center Hotel","alternatenames":[],"lat":-30.0325,"lon":-51.2248,"countryCode":"BR"},{"name":"Hotel Slaviero Executive Curitiba","asciiName":"Hotel Slaviero Executive Curitiba","alternatenames":[],"lat":-25.4413,"lon":-49.28,"countryCode":"BR"},{"name":"Eco Paradise Hotel","asciiName":"Eco Paradise Hotel","alternatenames":[],"lat":-3.62607,"lon":-38.7304,"countryCode":"BR"},{"name":"Ecoresort Tororomba","asciiName":"Ecoresort Tororomba","alternatenames":[],"lat":-14.992,"lon":-38.9979,"countryCode":"BR"},{"name":"Encantes do Nordeste","asciiName":"Encantes do Nordeste","alternatenames":[],"lat":-2.76102,"lon":-42.8293,"countryCode":"BR"},{"name":"Enotel Porto de Galinhas Resort & Spa","asciiName":"Enotel Porto de Galinhas Resort & Spa","alternatenames":[],"lat":-8.47372,"lon":-34.9975,"countryCode":"BR"},{"name":"Harbor Self Estação do Sol Praia Hotel","asciiName":"Harbor Self Estacao do Sol Praia Hotel","alternatenames":[],"lat":-8.50475,"lon":-35.0013,"countryCode":"BR"},{"name":"Hotel Estalagem St Hubertus","asciiName":"Hotel Estalagem St Hubertus","alternatenames":[],"lat":-29.396,"lon":-50.8748,"countryCode":"BR"},{"name":"Pousada das Canoas by Hotéis Eurosol","asciiName":"Pousada das Canoas by Hoteis Eurosol","alternatenames":[],"lat":-6.18421,"lon":-35.0927,"countryCode":"BR"},{"name":"Hotel Eurosol Tibau (Pipa) Resort","asciiName":"Hotel Eurosol Tibau (Pipa) Resort","alternatenames":[],"lat":-6.18968,"lon":-35.0915,"countryCode":"BR"},{"name":"Everest Porto Alegre Hotel","asciiName":"Everest Porto Alegre Hotel","alternatenames":[],"lat":-30.0336,"lon":-51.2278,"countryCode":"BR"},{"name":"Condomínio Rio Poty Executive Flat","asciiName":"Condominio Rio Poty Executive Flat","alternatenames":[],"lat":-5.09128,"lon":-42.7924,"countryCode":"BR"},{"name":"Condomínio Edifício Express Flat","asciiName":"Condominio Edificio Express Flat","alternatenames":[],"lat":-12.9807,"lon":-38.4568,"countryCode":"BR"},{"name":"Fazenda Do Betione Hotel","asciiName":"Fazenda Do Betione Hotel","alternatenames":[],"lat":-20.5521,"lon":-56.6404,"countryCode":"BR"},{"name":"Feira Palace Hotel","asciiName":"Feira Palace Hotel","alternatenames":[],"lat":-12.2531,"lon":-38.9544,"countryCode":"BR"},{"name":"Fildi Hotel","asciiName":"Fildi Hotel","alternatenames":[],"lat":-22.797,"lon":-47.2247,"countryCode":"BR"},{"name":"Florianópolis Palace Hotel - Floph","asciiName":"Florianopolis Palace Hotel - Floph","alternatenames":[],"lat":-27.5955,"lon":-48.548,"countryCode":"BR"},{"name":"Four Points by Sheraton Curitiba","asciiName":"Four Points by Sheraton Curitiba","alternatenames":[],"lat":-25.4426,"lon":-49.2793,"countryCode":"BR"},{"name":"Foz Plaza Hotel","asciiName":"Foz Plaza Hotel","alternatenames":[],"lat":-25.5359,"lon":-54.5816,"countryCode":"BR"},{"name":"Foz Presidente Hotel","asciiName":"Foz Presidente Hotel","alternatenames":[],"lat":-25.5371,"lon":-54.5833,"countryCode":"BR"},{"name":"Galápagos Hotel","asciiName":"Galapagos Hotel","alternatenames":[],"lat":-22.7409,"lon":-41.9599,"countryCode":"BR"},{"name":"Hotel GAPH - Maringá","asciiName":"Hotel GAPH - Maringa","alternatenames":[],"lat":-23.4319,"lon":-51.8853,"countryCode":"BR"},{"name":"Garden Hotel Campina Grande Rizorte e Centro de Convenções","asciiName":"Garden Hotel Campina Grande Rizorte e Centro de Convencoes","alternatenames":[],"lat":-7.23566,"lon":-35.8624,"countryCode":"BR"},{"name":"Gávea Hotel","asciiName":"Gavea Hotel","alternatenames":[],"lat":-23.945,"lon":-46.3023,"countryCode":"BR"},{"name":"Hotel Gávea","asciiName":"Hotel Gavea","alternatenames":[],"lat":-23.0361,"lon":-45.5629,"countryCode":"BR"},{"name":"Hotel Geranius","asciiName":"Hotel Geranius","alternatenames":[],"lat":-27.4402,"lon":-48.3888,"countryCode":"BR"},{"name":"Hotel Global Garden","asciiName":"Hotel Global Garden","alternatenames":[],"lat":-15.5775,"lon":-56.1,"countryCode":"BR"},{"name":"Golden Blue Hotel","asciiName":"Golden Blue Hotel","alternatenames":[],"lat":-23.3241,"lon":-51.1604,"countryCode":"BR"},{"name":"Golden Dolphin Hotel","asciiName":"Golden Dolphin Hotel","alternatenames":[],"lat":-17.7396,"lon":-48.6283,"countryCode":"BR"},{"name":"Condomínio do Edifício Golden Dolphin Village","asciiName":"Condominio do Edificio Golden Dolphin Village","alternatenames":[],"lat":-16.3827,"lon":-39.0377,"countryCode":"BR"},{"name":"Condomínio Edifício Golden Dolphin Resort","asciiName":"Condominio Edificio Golden Dolphin Resort","alternatenames":[],"lat":-17.7252,"lon":-48.6433,"countryCode":"BR"},{"name":"Golden Park Hotel","asciiName":"Golden Park Hotel","alternatenames":[],"lat":-22.9218,"lon":-43.1745,"countryCode":"BR"},{"name":"Golden Tulip Belas Artes","asciiName":"Golden Tulip Belas Artes","alternatenames":[],"lat":-23.5574,"lon":-46.6575,"countryCode":"BR"},{"name":"Golden Tulip Continental","asciiName":"Golden Tulip Continental","alternatenames":[],"lat":-22.9622,"lon":-43.1685,"countryCode":"BR"},{"name":"Golden Tulip Golden Beach","asciiName":"Golden Tulip Golden Beach","alternatenames":[],"lat":-8.2054,"lon":-34.9177,"countryCode":"BR"},{"name":"Golden Tulip Paulista Plaza","asciiName":"Golden Tulip Paulista Plaza","alternatenames":[],"lat":-23.5715,"lon":-46.646,"countryCode":"BR"},{"name":"Golden Tulip Regente","asciiName":"Golden Tulip Regente","alternatenames":[],"lat":-22.9816,"lon":-43.1899,"countryCode":"BR"},{"name":"Gran Hotel Stella Maris Resort","asciiName":"Gran Hotel Stella Maris Resort","alternatenames":[],"lat":-12.9704,"lon":-38.5124,"countryCode":"BR"},{"name":"Gran Rio Park Hotel","asciiName":"Gran Rio Park Hotel","alternatenames":[],"lat":-20.8136,"lon":-49.3807,"countryCode":"BR"},{"name":"Gran Roca","asciiName":"Gran Roca","alternatenames":[],"lat":-23.1251,"lon":-46.5507,"countryCode":"BR"},{"name":"Grand Bittar Hotel","asciiName":"Grand Bittar Hotel","alternatenames":[],"lat":-15.7937,"lon":-47.8898,"countryCode":"BR"},{"name":"Mercure Grand Hotel Internacional Foz","asciiName":"Mercure Grand Hotel Internacional Foz","alternatenames":[],"lat":-25.5365,"lon":-54.5844,"countryCode":"BR"},{"name":"Grand Plaza","asciiName":"Grand Plaza","alternatenames":[],"lat":-23.5716,"lon":-46.6468,"countryCode":"BR"},{"name":"Grande São Luís Hotel","asciiName":"Grande Sao Luis Hotel","alternatenames":[],"lat":-2.52775,"lon":-44.307,"countryCode":"BR"},{"name":"Grand Ville Hotel","asciiName":"Grand Ville Hotel","alternatenames":[],"lat":-22.1156,"lon":-45.061,"countryCode":"BR"},{"name":"Grande Hotel da Barra","asciiName":"Grande Hotel da Barra","alternatenames":[],"lat":-13.0028,"lon":-38.5325,"countryCode":"BR"},{"name":"Granville Park Hotel","asciiName":"Granville Park Hotel","alternatenames":[],"lat":-25.4302,"lon":-49.277,"countryCode":"BR"},{"name":"Green Place","asciiName":"Green Place","alternatenames":[],"lat":-23.5953,"lon":-46.6485,"countryCode":"BR"},{"name":"Hamburgo Palace Hotel Ltda","asciiName":"Hamburgo Palace Hotel Ltda","alternatenames":[],"lat":-26.9764,"lon":-48.6391,"countryCode":"BR"},{"name":"Hampton Park Residence","asciiName":"Hampton Park Residence","alternatenames":[],"lat":-23.5707,"lon":-46.6578,"countryCode":"BR"},{"name":"Buriti Suite Hotel","asciiName":"Buriti Suite Hotel","alternatenames":[],"lat":-20.4557,"lon":-54.6081,"countryCode":"BR"},{"name":"Hotel do Lago","asciiName":"Hotel do Lago","alternatenames":[],"lat":-23.326,"lon":-51.1779,"countryCode":"BR"},{"name":"Harbor Hotel Colonial","asciiName":"Harbor Hotel Colonial","alternatenames":[],"lat":-25.5472,"lon":-54.5787,"countryCode":"BR"},{"name":"Harbor Querencia Hotel","asciiName":"Harbor Querencia Hotel","alternatenames":[],"lat":-24.9503,"lon":-53.4397,"countryCode":"BR"},{"name":"Harbor Hotel Regent Suites","asciiName":"Harbor Hotel Regent Suites","alternatenames":[],"lat":-30.0317,"lon":-51.2259,"countryCode":"BR"},{"name":"Hardman Praia Hotel","asciiName":"Hardman Praia Hotel","alternatenames":[],"lat":-7.10101,"lon":-34.832,"countryCode":"BR"},{"name":"Heritage Residence","asciiName":"Heritage Residence","alternatenames":[],"lat":-23.5537,"lon":-46.6579,"countryCode":"BR"},{"name":"Hilton Belém Hotel","asciiName":"Hilton Belem Hotel","alternatenames":[],"lat":-1.45362,"lon":-48.4944,"countryCode":"BR"},{"name":"Hotel Holiday Inn Express Natal","asciiName":"Hotel Holiday Inn Express Natal","alternatenames":[],"lat":-5.8729,"lon":-35.1804,"countryCode":"BR"},{"name":"Holiday Inn Santa Felicidade","asciiName":"Holiday Inn Santa Felicidade","alternatenames":[],"lat":-25.5349,"lon":-49.1921,"countryCode":"BR"},{"name":"Holiday Inn Express","asciiName":"Holiday Inn Express","alternatenames":[],"lat":-25.5349,"lon":-49.1921,"countryCode":"BR"},{"name":"Holiday Inn Hotel Salvador Bahia","asciiName":"Holiday Inn Hotel Salvador Bahia","alternatenames":[],"lat":-12.9886,"lon":-38.447,"countryCode":"BR"},{"name":"Hotel Holz","asciiName":"Hotel Holz","alternatenames":[],"lat":-26.2952,"lon":-48.8808,"countryCode":"BR"},{"name":"Hotel Aruan","asciiName":"Hotel Aruan","alternatenames":[],"lat":-20.2808,"lon":-40.2889,"countryCode":"BR"},{"name":"Augustus","asciiName":"Augustus","alternatenames":[],"lat":-16.6627,"lon":-49.2523,"countryCode":"BR"},{"name":"Hotel Bahia do Sol","asciiName":"Hotel Bahia do Sol","alternatenames":[],"lat":-12.9888,"lon":-38.5232,"countryCode":"BR"},{"name":"Camburi Praia Hotel","asciiName":"Camburi Praia Hotel","alternatenames":[],"lat":-20.2867,"lon":-40.2914,"countryCode":"BR"},{"name":"Hotel Canto do Sol","asciiName":"Hotel Canto do Sol","alternatenames":[],"lat":-20.2684,"lon":-40.2725,"countryCode":"BR"},{"name":"Hotel Cassino","asciiName":"Hotel Cassino","alternatenames":[],"lat":-25.5461,"lon":-54.5894,"countryCode":"BR"},{"name":"Hotel Centro Europeu Tourist","asciiName":"Hotel Centro Europeu Tourist","alternatenames":[],"lat":-25.4329,"lon":-49.2751,"countryCode":"BR"},{"name":"Cocal Hotel","asciiName":"Cocal Hotel","alternatenames":[],"lat":-3.72813,"lon":-38.5104,"countryCode":"BR"},{"name":"Columbia","asciiName":"Columbia","alternatenames":[],"lat":-23.5415,"lon":-46.6408,"countryCode":"BR"},{"name":"Hotel Coquille","asciiName":"Hotel Coquille","alternatenames":[],"lat":-23.47043,"lon":-45.06943,"countryCode":"BR"},{"name":"Hotel Costa Mar","asciiName":"Hotel Costa Mar","alternatenames":[],"lat":-9.66268,"lon":-35.7031,"countryCode":"BR"},{"name":"Das Americas Hotel","asciiName":"Das Americas Hotel","alternatenames":[],"lat":-15.7938,"lon":-47.891,"countryCode":"BR"},{"name":"Hotel do Frade","asciiName":"Hotel do Frade","alternatenames":[],"lat":-22.961,"lon":-44.4381,"countryCode":"BR"},{"name":"Horsa Excelsior Sao Paulo Hotel","asciiName":"Horsa Excelsior Sao Paulo Hotel","alternatenames":[],"lat":-23.5425,"lon":-46.6404,"countryCode":"BR"},{"name":"Hotel Fazenda Clube Dos 200","asciiName":"Hotel Fazenda Clube Dos 200","alternatenames":[],"lat":-22.6438,"lon":-44.5817,"countryCode":"BR"},{"name":"Hotel Fazenda Hipica Atibaia","asciiName":"Hotel Fazenda Hipica Atibaia","alternatenames":[],"lat":-23.1057,"lon":-46.5013,"countryCode":"BR"},{"name":"Hotel Tulip  Inn Batel","asciiName":"Hotel Tulip  Inn Batel","alternatenames":[],"lat":-25.4389,"lon":-49.2791,"countryCode":"BR"},{"name":"Hotel Senac Ilha do Boi","asciiName":"Hotel Senac Ilha do Boi","alternatenames":[],"lat":-20.3109,"lon":-40.2832,"countryCode":"BR"},{"name":"Hotel Itaguaçú","asciiName":"Hotel Itaguacu","alternatenames":[],"lat":-27.6003,"lon":-48.6053,"countryCode":"BR"},{"name":"Jaraguá","asciiName":"Jaragua","alternatenames":[],"lat":-27.1736,"lon":-51.5054,"countryCode":"BR"},{"name":"Hotel Joamar","asciiName":"Hotel Joamar","alternatenames":[],"lat":-23.5436,"lon":-46.6397,"countryCode":"BR"},{"name":"Hotel   Klein  Ville","asciiName":"Hotel   Klein  Ville","alternatenames":[],"lat":-29.3719,"lon":-50.8155,"countryCode":"BR"},{"name":"Marazul Hotel S/A Geral","asciiName":"Marazul Hotel S/A Geral","alternatenames":[],"lat":-13.0065,"lon":-38.533,"countryCode":"BR"},{"name":"Hotel Meridional","asciiName":"Hotel Meridional","alternatenames":[],"lat":-3.72738,"lon":-38.5208,"countryCode":"BR"},