[{"name":"Hotel El Recuerdo","asciiName":"Hotel El Recuerdo","alternatenames":[],"lat":11.11667,"lon":-74.1,"countryCode":"CO"},{"name":"Estadero Los Paisas","asciiName":"Estadero Los Paisas","alternatenames":[],"lat":6.81778,"lon":-71.80528,"countryCode":"CO"},{"name":"Estadero Las Delicias","asciiName":"Estadero Las Delicias","alternatenames":[],"lat":6.87528,"lon":-71.80972,"countryCode":"CO"},{"name":"Estadero La Cabana","asciiName":"Estadero La Cabana","alternatenames":[],"lat":6.83778,"lon":-71.805,"countryCode":"CO"},{"name":"Hotel Caribe Cartagena","asciiName":"Hotel Caribe Cartagena","alternatenames":[],"lat":10.408,"lon":-75.556,"countryCode":"CO"},{"name":"Lancaster House","asciiName":"Lancaster House","alternatenames":[],"lat":4.6911,"lon":-74.0924,"countryCode":"CO"},{"name":"NH Collection Bogotá Teleport Royal","asciiName":"NH Collection Bogota Teleport Royal","alternatenames":[],"lat":4.69176,"lon":-74.03541,"countryCode":"CO"},{"name":"Radisson Royal Hotel Cali","asciiName":"Radisson Royal Hotel Cali","alternatenames":[],"lat":3.3712,"lon":-76.53843,"countryCode":"CO"},{"name":"Bogota Plaza Summit Hotel","asciiName":"Bogota Plaza Summit Hotel","alternatenames":[],"lat":4.63525,"lon":-74.09229,"countryCode":"CO"},{"name":"Decameron Galeon ALL INCLUSIVE","asciiName":"Decameron Galeon ALL INCLUSIVE","alternatenames":[],"lat":11.2373,"lon":-74.203,"countryCode":"CO"},{"name":"Hotel Casa Medina Bogota","asciiName":"Hotel Casa Medina Bogota","alternatenames":[],"lat":4.6103,"lon":-74.0722,"countryCode":"CO"},{"name":"Hotel Bogota Royal","asciiName":"Hotel Bogota Royal","alternatenames":[],"lat":4.64968,"lon":-74.05939,"countryCode":"CO"},{"name":"101 Park House","asciiName":"101 Park House","alternatenames":[],"lat":4.6559,"lon":-74.1185,"countryCode":"CO"},{"name":"Decameron Aquarium ALL INCLUSIVE","asciiName":"Decameron Aquarium ALL INCLUSIVE","alternatenames":[],"lat":12.582,"lon":-81.6889,"countryCode":"CO"},{"name":"Decameron Cartagena All Inclusive","asciiName":"Decameron Cartagena All Inclusive","alternatenames":[],"lat":10.4107,"lon":-75.5561,"countryCode":"CO"},{"name":"Casa Real","asciiName":"Casa Real","alternatenames":[],"lat":4.67421,"lon":-74.0443,"countryCode":"CO"},{"name":"Hamilton Court","asciiName":"Hamilton Court","alternatenames":[],"lat":4.6661,"lon":-74.05609,"countryCode":"CO"},{"name":"Ghl Comfort Hotel Torre De Cali","asciiName":"Ghl Comfort Hotel Torre De Cali","alternatenames":[],"lat":3.42985,"lon":-76.54375,"countryCode":"CO"},{"name":"Costa Azul Beach Hotel","asciiName":"Costa Azul Beach Hotel","alternatenames":[],"lat":6.3833,"lon":-70.4499,"countryCode":"CO"},{"name":"Hotel Park 10","asciiName":"Hotel Park 10","alternatenames":[],"lat":6.21194,"lon":-75.56519,"countryCode":"CO"},{"name":"El Belvedere","asciiName":"El Belvedere","alternatenames":[],"lat":4.68619,"lon":-74.0503,"countryCode":"CO"},{"name":"Windsor House Hotel","asciiName":"Windsor House Hotel","alternatenames":[],"lat":4.67791,"lon":-74.04416,"countryCode":"CO"},{"name":"Hotel Capital","asciiName":"Hotel Capital","alternatenames":[],"lat":4.6,"lon":-74.0833,"countryCode":"CO"},{"name":"Casa Dann Carlton","asciiName":"Casa Dann Carlton","alternatenames":[],"lat":4.68089,"lon":-74.05406,"countryCode":"CO"},{"name":"Puerta De Barranquilla","asciiName":"Puerta De Barranquilla","alternatenames":[],"lat":3.9047,"lon":-73.0764,"countryCode":"CO"},{"name":"Hotel De La Ville","asciiName":"Hotel De La Ville","alternatenames":[],"lat":4.6838,"lon":-74.046,"countryCode":"CO"},{"name":"Four Points  Medellin","asciiName":"Four Points  Medellin","alternatenames":[],"lat":6.19923,"lon":-75.57624,"countryCode":"CO"},{"name":"Hotel La Boheme Royal","asciiName":"Hotel La Boheme Royal","alternatenames":[],"lat":4.66633,"lon":-74.05388,"countryCode":"CO"},{"name":"Dann Carlton Bogota","asciiName":"Dann Carlton Bogota","alternatenames":[],"lat":4.68834,"lon":-74.04707,"countryCode":"CO"},{"name":"Hotel Charleston Bogota","asciiName":"Hotel Charleston Bogota","alternatenames":[],"lat":4.67002,"lon":-74.05351,"countryCode":"CO"},{"name":"Andino Royal","asciiName":"Andino Royal","alternatenames":[],"lat":4.6,"lon":-74.0833,"countryCode":"CO"},{"name":"Bogota Royal Hotel At Wtc","asciiName":"Bogota Royal Hotel At Wtc","alternatenames":[],"lat":4.6,"lon":-74.0833,"countryCode":"CO"},{"name":"Tryp Chicamocha","asciiName":"TRYP CHICAMOCHA","alternatenames":[],"lat":7.1216,"lon":-73.11676,"countryCode":"CO"},{"name":"Hotel El Poblado Plaza","asciiName":"Hotel El Poblado Plaza","alternatenames":[],"lat":6.25,"lon":-75.5833,"countryCode":"CO"},{"name":"Cali Hotel Casa Del Alferez","asciiName":"Cali Hotel Casa Del Alferez","alternatenames":[],"lat":3.42584,"lon":-76.53773,"countryCode":"CO"},{"name":"Hotel Toscana Plaza Cali","asciiName":"Hotel Toscana Plaza Cali","alternatenames":[],"lat":3.39932,"lon":-76.54211,"countryCode":"CO"},{"name":"Casa El Carretero","asciiName":"CASA EL CARRETERO","alternatenames":[],"lat":-2.4666,"lon":-72.2666,"countryCode":"CO"},{"name":"Hotel Isla Paraiso Secreto","asciiName":"HOTEL ISLA PARAISO SECRETO","alternatenames":[],"lat":-2.4666,"lon":-72.2666,"countryCode":"CO"},{"name":"Hotel Las Colinas","asciiName":"HOTEL LAS COLINAS","alternatenames":[],"lat":5.06814,"lon":-75.51741,"countryCode":"CO"},{"name":"Plaza Rosa Hotel Medellin","asciiName":"Plaza Rosa Hotel Medellin","alternatenames":[],"lat":6.20759,"lon":-75.56415,"countryCode":"CO"},{"name":"Apartamentos Estelar","asciiName":"APARTAMENTOS ESTELAR","alternatenames":[],"lat":4.70526,"lon":-74.04682,"countryCode":"CO"},{"name":"Hotel Estacion","asciiName":"Hotel Estacion","alternatenames":[],"lat":10.1,"lon":-75.05,"countryCode":"CO"},{"name":"Hotel Armenia Estelar","asciiName":"Hotel Armenia Estelar","alternatenames":[],"lat":6.1166,"lon":-75.8,"countryCode":"CO"},{"name":"Hotel Valle Real","asciiName":"Hotel Valle Real","alternatenames":[],"lat":3.45798,"lon":-76.52956,"countryCode":"CO"},{"name":"Dann Sochogota Hotel","asciiName":"Dann Sochogota Hotel","alternatenames":[],"lat":5.7833,"lon":-73.1166,"countryCode":"CO"},{"name":"Hotel Almirante Cartagena Estelar","asciiName":"HOTEL ALMIRANTE CARTAGENA ESTELAR","alternatenames":[],"lat":10.39951,"lon":-75.55939,"countryCode":"CO"},{"name":"Hotel Suites Jones","asciiName":"Hotel Suites Jones","alternatenames":[],"lat":4.67825,"lon":-74.10549,"countryCode":"CO"},{"name":"Paipa Hotel Y Centro De Convenciones","asciiName":"Paipa Hotel Y Centro De Convenciones","alternatenames":[],"lat":5.7833,"lon":-73.1166,"countryCode":"CO"},{"name":"Pavillon Hotel Royal","asciiName":"Pavillon Hotel Royal","alternatenames":[],"lat":4.67718,"lon":-74.04658,"countryCode":"CO"},{"name":"Sunrise Hotel","asciiName":"SUNRISE HOTEL","alternatenames":[],"lat":12.52675,"lon":-81.72206,"countryCode":"CO"},{"name":"Hotel La Fontana Estelar","asciiName":"Hotel La Fontana Estelar","alternatenames":[],"lat":4.70439,"lon":-74.0833,"countryCode":"CO"},{"name":"Hotel Las Americas Global Res","asciiName":"Hotel Las Americas Global Res","alternatenames":[],"lat":10.4166,"lon":-75.5333,"countryCode":"CO"},{"name":"Las Lomas Hotel","asciiName":"Las Lomas Hotel","alternatenames":[],"lat":6.15,"lon":-75.3666,"countryCode":"CO"},{"name":"Cocoplum Beach Hotel","asciiName":"Cocoplum Beach Hotel","alternatenames":[],"lat":-1.4166,"lon":-73.5166,"countryCode":"CO"},{"name":"San Andres Noble House Hotel","asciiName":"San Andres Noble House Hotel","alternatenames":[],"lat":-1.4166,"lon":-73.5166,"countryCode":"CO"},{"name":"Bacata","asciiName":"Bacata","alternatenames":[],"lat":4.6072,"lon":-74.0796,"countryCode":"CO"},{"name":"andes plaza","asciiName":"andes plaza","alternatenames":[],"lat":4.6859,"lon":-74.04827,"countryCode":"CO"},{"name":"bahia hotel cartagena","asciiName":"bahia hotel cartagena","alternatenames":[],"lat":10.40588,"lon":-75.53009,"countryCode":"CO"},{"name":"Belfort Dann Carlton","asciiName":"Belfort Dann Carlton","alternatenames":[],"lat":6.21941,"lon":-75.5686,"countryCode":"CO"},{"name":"barranquilla plaza","asciiName":"barranquilla plaza","alternatenames":[],"lat":11.00297,"lon":-74.81141,"countryCode":"CO"},{"name":"arena blanca hotel","asciiName":"arena blanca hotel","alternatenames":[],"lat":12.58076,"lon":-81.68985,"countryCode":"CO"},{"name":"arhuaco hotel","asciiName":"arhuaco hotel","alternatenames":[],"lat":11.2555,"lon":-74.20409,"countryCode":"CO"},{"name":"austral hotel","asciiName":"austral hotel","alternatenames":[],"lat":3.41204,"lon":-76.55565,"countryCode":"CO"},{"name":"104 Art Suites","asciiName":"104 Art Suites","alternatenames":[],"lat":4.60987,"lon":-74.08205,"countryCode":"CO"},{"name":"agua hotel","asciiName":"agua hotel","alternatenames":[],"lat":10.42515,"lon":-75.54728,"countryCode":"CO"},{"name":"altamira","asciiName":"altamira","alternatenames":[],"lat":4.45814,"lon":-75.24852,"countryCode":"CO"},{"name":"Bantú hotel","asciiName":"Bantu hotel","alternatenames":[],"lat":10.42782,"lon":-75.54679,"countryCode":"CO"},{"name":"american dream","asciiName":"american dream","alternatenames":[],"lat":4.63279,"lon":-74.09189,"countryCode":"CO"},{"name":"american golf","asciiName":"american golf","alternatenames":[],"lat":10.97923,"lon":-74.79928,"countryCode":"CO"},{"name":"hotel aristi","asciiName":"hotel aristi","alternatenames":[],"lat":3.44755,"lon":-76.53246,"countryCode":"CO"},{"name":"barahona 446","asciiName":"barahona 446","alternatenames":[],"lat":10.41425,"lon":-75.52633,"countryCode":"CO"},{"name":"Hotel bocagrande cartagena de indias","asciiName":"Hotel bocagrande cartagena de indias","alternatenames":[],"lat":10.41373,"lon":-75.53358,"countryCode":"CO"},{"name":"Bogota regency","asciiName":"Bogota regency","alternatenames":[],"lat":4.70201,"lon":-74.02897,"countryCode":"CO"},{"name":"bolivar hotel","asciiName":"bolivar hotel","alternatenames":[],"lat":7.88509,"lon":-72.48682,"countryCode":"CO"},{"name":"bh el retiro","asciiName":"bh el retiro","alternatenames":[],"lat":4.71105,"lon":-74.1086,"countryCode":"CO"},{"name":"bh la quinta","asciiName":"bh la quinta","alternatenames":[],"lat":4.65597,"lon":-74.05249,"countryCode":"CO"},{"name":"bh la salle","asciiName":"bh la salle","alternatenames":[],"lat":4.64166,"lon":-74.06036,"countryCode":"CO"},{"name":"sofitel santa clara","asciiName":"sofitel santa clara","alternatenames":[],"lat":10.42913,"lon":-75.54806,"countryCode":"CO"},{"name":"bovedas de santa clara","asciiName":"bovedas de santa clara","alternatenames":[],"lat":10.42841,"lon":-75.54718,"countryCode":"CO"},{"name":"cañaveral hotel","asciiName":"canaveral hotel","alternatenames":[],"lat":11.20183,"lon":-74.22644,"countryCode":"CO"},{"name":"capilla del mar","asciiName":"capilla del mar","alternatenames":[],"lat":10.4036,"lon":-75.55505,"countryCode":"CO"},{"name":"carretero hotel","asciiName":"carretero hotel","alternatenames":[],"lat":5.06713,"lon":-75.51829,"countryCode":"CO"},{"name":"cartagena millennium hotel","asciiName":"cartagena millennium hotel","alternatenames":[],"lat":10.36725,"lon":-75.46854,"countryCode":"CO"},{"name":"cartagena plaza","asciiName":"cartagena plaza","alternatenames":[],"lat":10.40181,"lon":-75.55648,"countryCode":"CO"},{"name":"casa cabal hotel","asciiName":"casa cabal hotel","alternatenames":[],"lat":10.41425,"lon":-75.52633,"countryCode":"CO"},{"name":"casa del arzobispado","asciiName":"casa del arzobispado","alternatenames":[],"lat":10.42393,"lon":-75.55034,"countryCode":"CO"},{"name":"casa la font","asciiName":"casa la font","alternatenames":[],"lat":4.86137,"lon":-74.06442,"countryCode":"CO"},{"name":"casa lola hotel","asciiName":"casa lola hotel","alternatenames":[],"lat":10.41999,"lon":-75.54583,"countryCode":"CO"},{"name":"casa victoria hotel","asciiName":"casa victoria hotel","alternatenames":[],"lat":6.21194,"lon":-75.56476,"countryCode":"CO"},{"name":"casa zuetana 108","asciiName":"casa zuetana 108","alternatenames":[],"lat":4.69577,"lon":-74.055,"countryCode":"CO"},{"name":"celebrities suites","asciiName":"celebrities suites","alternatenames":[],"lat":4.663,"lon":-74.063,"countryCode":"CO"},{"name":"charleston cartagena","asciiName":"charleston cartagena","alternatenames":[],"lat":10.41,"lon":-75.53,"countryCode":"CO"},{"name":"charlotte cartagena hotel","asciiName":"charlotte cartagena hotel","alternatenames":[],"lat":10.42299,"lon":-75.47607,"countryCode":"CO"},{"name":"charlotte","asciiName":"charlotte","alternatenames":[],"lat":4.58927,"lon":-74.09391,"countryCode":"CO"},{"name":"confort 80 hotel","asciiName":"confort 80 hotel","alternatenames":[],"lat":4.60987,"lon":-74.08205,"countryCode":"CO"},{"name":"costa del sol hotel","asciiName":"costa del sol hotel","alternatenames":[],"lat":10.41373,"lon":-75.53358,"countryCode":"CO"},{"name":"country international hotel","asciiName":"country international hotel","alternatenames":[],"lat":11.00341,"lon":-74.80844,"countryCode":"CO"},{"name":"hotel casa quero","asciiName":"hotel casa quero","alternatenames":[],"lat":10.41425,"lon":-75.52633,"countryCode":"CO"},{"name":"Hotel Centro Internacional","asciiName":"Hotel Centro Internacional","alternatenames":[],"lat":4.605,"lon":-74.08346,"countryCode":"CO"},{"name":"cabo de la vela","asciiName":"cabo de la vela","alternatenames":[],"lat":6.24272,"lon":-75.59188,"countryCode":"CO"},{"name":"caribe princess","asciiName":"caribe princess","alternatenames":[],"lat":10.99686,"lon":-74.79909,"countryCode":"CO"},{"name":"casa del curato","asciiName":"casa del curato","alternatenames":[],"lat":10.42732,"lon":-75.54839,"countryCode":"CO"},{"name":"casa india catalina","asciiName":"casa india catalina","alternatenames":[],"lat":10.42405,"lon":-75.54997,"countryCode":"CO"},{"name":"casa pestagua","asciiName":"casa pestagua","alternatenames":[],"lat":10.41425,"lon":-75.52633,"countryCode":"CO"},{"name":"cosmos 100","asciiName":"cosmos 100","alternatenames":[],"lat":4.6106,"lon":-74.0759,"countryCode":"CO"},{"name":"Crowne Plaza Tequendama","asciiName":"Crowne Plaza Tequendama","alternatenames":[],"lat":4.61319,"lon":-74.07058,"countryCode":"CO"},{"name":"Dann Avenida 19","asciiName":"Dann Avenida 19","alternatenames":[],"lat":4.6508,"lon":-74.0567,"countryCode":"CO"},{"name":"dann carlton cali","asciiName":"dann carlton cali","alternatenames":[],"lat":3.45001,"lon":-76.54072,"countryCode":"CO"},{"name":"dann carlton medellin","asciiName":"dann carlton medellin","alternatenames":[],"lat":6.20701,"lon":-75.57133,"countryCode":"CO"},{"name":"dann cartagena","asciiName":"dann cartagena","alternatenames":[],"lat":10.39717,"lon":-75.56328,"countryCode":"CO"},{"name":"dann combeima hotel","asciiName":"dann combeima hotel","alternatenames":[],"lat":4.44066,"lon":-75.24414,"countryCode":"CO"},{"name":"dann el prado hotel","asciiName":"dann el prado hotel","alternatenames":[],"lat":10.9989,"lon":-74.8009,"countryCode":"CO"},{"name":"Dann norte hotel","asciiName":"Dann norte hotel","alternatenames":[],"lat":4.68834,"lon":-74.04707,"countryCode":"CO"},{"name":"De la feria estelar hotel","asciiName":"De la feria estelar hotel","alternatenames":[],"lat":4.63293,"lon":-74.09403,"countryCode":"CO"},{"name":"De la opera","asciiName":"De la opera","alternatenames":[],"lat":4.6,"lon":-74.08,"countryCode":"CO"},{"name":"don jaime hotel","asciiName":"don jaime hotel","alternatenames":[],"lat":3.45829,"lon":-76.53282,"countryCode":"CO"},{"name":"Duruelo hospederia y centro de convenciones","asciiName":"Duruelo hospederia y centro de convenciones","alternatenames":[],"lat":5.64382,"lon":-73.52635,"countryCode":"CO"},{"name":"Dann carlton barranquilla","asciiName":"Dann carlton barranquilla","alternatenames":[],"lat":11.01338,"lon":-74.82681,"countryCode":"CO"},{"name":"Dann carlton bucaramanga","asciiName":"Dann carlton bucaramanga","alternatenames":[],"lat":7.11862,"lon":-73.1124,"countryCode":"CO"},{"name":"hotel el dorado","asciiName":"hotel el dorado","alternatenames":[],"lat":10.40784,"lon":-75.54684,"countryCode":"CO"},{"name":"el camping","asciiName":"el camping","alternatenames":[],"lat":4.6415,"lon":-74.0745,"countryCode":"CO"},{"name":"el dorado san andrés","asciiName":"el dorado san andres","alternatenames":[],"lat":12.54501,"lon":-81.70758,"countryCode":"CO"},{"name":"el marques hotel boutique","asciiName":"el marques hotel boutique","alternatenames":[],"lat":10.42323,"lon":-75.55217,"countryCode":"CO"},{"name":"embassy suites bogota","asciiName":"embassy suites bogota","alternatenames":[],"lat":4.65242,"lon":-74.0555,"countryCode":"CO"},{"name":"estelar blue hotel","asciiName":"estelar blue hotel","alternatenames":[],"lat":6.20258,"lon":-75.56988,"countryCode":"CO"},{"name":"estelar estacion hotel","asciiName":"estelar estacion hotel","alternatenames":[],"lat":3.89063,"lon":-77.07338,"countryCode":"CO"},{"name":"estelar milla de oro hotel","asciiName":"estelar milla de oro hotel","alternatenames":[],"lat":6.2057,"lon":-75.58648,"countryCode":"CO"},{"name":"estelar oceania hotel","asciiName":"estelar oceania hotel","alternatenames":[],"lat":10.39552,"lon":-75.55667,"countryCode":"CO"},{"name":"estelar poblado alejandria hotel","asciiName":"estelar poblado alejandria hotel","alternatenames":[],"lat":6.20003,"lon":-75.56787,"countryCode":"CO"},{"name":"Estelar Santamar Hotel & Centro de Convenciones","asciiName":"Estelar Santamar Hotel & Centro de Convenciones","alternatenames":[],"lat":11.16775,"lon":-74.23067,"countryCode":"CO"},{"name":"excelsior hotel","asciiName":"excelsior hotel","alternatenames":[],"lat":4.6112,"lon":-74.0824,"countryCode":"CO"},{"name":"egina","asciiName":"egina","alternatenames":[],"lat":6.2501,"lon":-75.5833,"countryCode":"CO"},{"name":"egina bogota","asciiName":"egina bogota","alternatenames":[],"lat":4.62394,"lon":-74.06601,"countryCode":"CO"},{"name":"zaguan de la huerta bed and breaksfast hotel","asciiName":"zaguan de la huerta bed and breaksfast hotel","alternatenames":[],"lat":10.42899,"lon":-75.54583,"countryCode":"CO"},{"name":"embassy park","asciiName":"embassy park","alternatenames":[],"lat":4.63,"lon":-74.09,"countryCode":"CO"},{"name":"escorial","asciiName":"escorial","alternatenames":[],"lat":5.09163,"lon":-75.51865,"countryCode":"CO"},{"name":"estelar recinto del pensamiento","asciiName":"estelar recinto del pensamiento","alternatenames":[],"lat":5.0883,"lon":-75.50016,"countryCode":"CO"},{"name":"Four Points By Sheraton Cali","asciiName":"Four Points By Sheraton Cali","alternatenames":[],"lat":3.44942,"lon":-76.51845,"countryCode":"CO"},{"name":"genova hotel","asciiName":"genova hotel","alternatenames":[],"lat":10.9892,"lon":-74.80009,"countryCode":"CO"},{"name":"ghl comfort los heroes","asciiName":"ghl comfort los heroes","alternatenames":[],"lat":4.66103,"lon":-74.0602,"countryCode":"CO"},{"name":"ghl hotel capital","asciiName":"ghl hotel capital","alternatenames":[],"lat":4.63156,"lon":-74.08453,"countryCode":"CO"},{"name":"finca la floresta","asciiName":"finca la floresta","alternatenames":[],"lat":4.53133,"lon":-75.69844,"countryCode":"CO"},{"name":"hotel florida","asciiName":"hotel florida","alternatenames":[],"lat":6.2508,"lon":-75.58826,"countryCode":"CO"},{"name":"gran hotel","asciiName":"gran hotel","alternatenames":[],"lat":6.27,"lon":-75.6,"countryCode":"CO"},{"name":"grand house","asciiName":"grand house","alternatenames":[],"lat":4.67902,"lon":-74.05421,"countryCode":"CO"},{"name":"guadalajara hotel","asciiName":"guadalajara hotel","alternatenames":[],"lat":3.91581,"lon":-76.30074,"countryCode":"CO"},{"name":"habitel","asciiName":"habitel","alternatenames":[],"lat":4.62929,"lon":-74.0824,"countryCode":"CO"},{"name":"hacienda royal","asciiName":"hacienda royal","alternatenames":[],"lat":4.69192,"lon":-74.03214,"countryCode":"CO"},{"name":"hilton cartagena hotel","asciiName":"hilton cartagena hotel","alternatenames":[],"lat":10.39375,"lon":-75.55943,"countryCode":"CO"},{"name":"holiday inn express medellin","asciiName":"holiday inn express medellin","alternatenames":[],"lat":6.20338,"lon":-75.57168,"countryCode":"CO"},{"name":"hotel dann las velas","asciiName":"hotel dann las velas","alternatenames":[],"lat":10.39748,"lon":-75.56324,"countryCode":"CO"},{"name":"hotel de pereira","asciiName":"hotel de pereira","alternatenames":[],"lat":4.8083,"lon":-75.69184,"countryCode":"CO"},{"name":"hotel la font","asciiName":"hotel la font","alternatenames":[],"lat":4.61241,"lon":-74.07552,"countryCode":"CO"},{"name":"hotel obelisco","asciiName":"hotel obelisco","alternatenames":[],"lat":3.4569,"lon":-76.5224,"countryCode":"CO"},{"name":"hotel san pietro","asciiName":"hotel san pietro","alternatenames":[],"lat":10.3983,"lon":-75.55965,"countryCode":"CO"},{"name":"hotel america","asciiName":"hotel america","alternatenames":[],"lat":4.65077,"lon":-74.05967,"countryCode":"CO"},{"name":"howard johnson emaus","asciiName":"howard johnson emaus","alternatenames":[],"lat":4.65097,"lon":-74.05415,"countryCode":"CO"},{"name":"hostal de federman","asciiName":"hostal de federman","alternatenames":[],"lat":4.68048,"lon":-74.13649,"countryCode":"CO"},{"name":"hostal san diego","asciiName":"hostal san diego","alternatenames":[],"lat":10.42863,"lon":-75.54692,"countryCode":"CO"},{"name":"intercontinental cali","asciiName":"intercontinental cali","alternatenames":[],"lat":3.459,"lon":-76.529,"countryCode":"CO"},{"name":"Intercontinental Movich Medellín","asciiName":"Intercontinental Movich Medellin","alternatenames":[],"lat":6.21365,"lon":-75.5582,"countryCode":"CO"},{"name":"irotama","asciiName":"irotama","alternatenames":[],"lat":11.15236,"lon":-74.2257,"countryCode":"CO"},{"name":"isla arena beach club","asciiName":"isla arena beach club","alternatenames":[],"lat":10.40757,"lon":-75.55203,"countryCode":"CO"},{"name":"internacional","asciiName":"internacional","alternatenames":[],"lat":6.23592,"lon":-75.57513,"countryCode":"CO"},{"name":"La Merced Hotel Boutique","asciiName":"La Merced Hotel Boutique","alternatenames":[],"lat":10.42656,"lon":-75.55149,"countryCode":"CO"},{"name":"las americas global resort hotel","asciiName":"las americas global resort hotel","alternatenames":[],"lat":10.46064,"lon":-75.5061,"countryCode":"CO"},{"name":"lugano suites imperial","asciiName":"lugano suites imperial","alternatenames":[],"lat":4.65599,"lon":-74.05995,"countryCode":"CO"},{"name":"le manoir","asciiName":"le manoir","alternatenames":[],"lat":4.69293,"lon":-74.05573,"countryCode":"CO"},{"name":"laureles 70","asciiName":"laureles 70","alternatenames":[],"lat":6.24689,"lon":-75.58899,"countryCode":"CO"},{"name":"san francisco bogota","asciiName":"san francisco bogota","alternatenames":[],"lat":4.60973,"lon":-74.0718,"countryCode":"CO"},{"name":"madaura hotel de aventura y centro de convenciones","asciiName":"madaura hotel de aventura y centro de convenciones","alternatenames":[],"lat":4.20731,"lon":-74.64575,"countryCode":"CO"},{"name":"medellin royal hotel","asciiName":"medellin royal hotel","alternatenames":[],"lat":6.19815,"lon":-75.57263,"countryCode":"CO"},{"name":"metrotel royal park","asciiName":"metrotel royal park","alternatenames":[],"lat":4.66035,"lon":-74.05945,"countryCode":"CO"},{"name":"monterrey","asciiName":"monterrey","alternatenames":[],"lat":10.42135,"lon":-75.54769,"countryCode":"CO"},{"name":"monticelo hospederia y casa de espiritualidad","asciiName":"monticelo hospederia y casa de espiritualidad","alternatenames":[],"lat":6.29571,"lon":-75.56497,"countryCode":"CO"},{"name":"morrison","asciiName":"morrison","alternatenames":[],"lat":4.73,"lon":-74.12,"countryCode":"CO"},{"name":"nutibara hotel medellin","asciiName":"nutibara hotel medellin","alternatenames":[],"lat":6.23593,"lon":-75.57514,"countryCode":"CO"},{"name":"master 34","asciiName":"master 34","alternatenames":[],"lat":4.62378,"lon":-74.0737,"countryCode":"CO"},{"name":"mediterraneo","asciiName":"mediterraneo","alternatenames":[],"lat":6.24721,"lon":-75.58916,"countryCode":"CO"},{"name":"parque 97 suites hotel","asciiName":"parque 97 suites hotel","alternatenames":[],"lat":4.68413,"lon":-74.05356,"countryCode":"CO"},{"name":"pension stein hotel","asciiName":"pension stein hotel","alternatenames":[],"lat":3.45218,"lon":-76.53989,"countryCode":"CO"},{"name":"playa hotel","asciiName":"playa hotel","alternatenames":[],"lat":10.39931,"lon":-75.5598,"countryCode":"CO"},{"name":"plaza versalles hotel","asciiName":"plaza versalles hotel","alternatenames":[],"lat":3.45965,"lon":-76.53064,"countryCode":"CO"},{"name":"portales del campestre hotel","asciiName":"portales del campestre hotel","alternatenames":[],"lat":6.18845,"lon":-75.57585,"countryCode":"CO"},{"name":"porton medellin hotel","asciiName":"porton medellin hotel","alternatenames":[],"lat":6.21194,"lon":-75.5758,"countryCode":"CO"},{"name":"puerta del sol hotel","asciiName":"puerta del sol hotel","alternatenames":[],"lat":10.99089,"lon":-74.81057,"countryCode":"CO"},{"name":"plaza 26 hotel","asciiName":"plaza 26 hotel","alternatenames":[],"lat":4.58784,"lon":-74.10923,"countryCode":"CO"},{"name":"plaza de las americas","asciiName":"plaza de las americas","alternatenames":[],"lat":3.46168,"lon":-76.52843,"countryCode":"CO"},{"name":"QT Country suites","asciiName":"QT Country suites","alternatenames":[],"lat":6.23198,"lon":-75.57174,"countryCode":"CO"},{"name":"real de la T","asciiName":"real de la T","alternatenames":[],"lat":4.66818,"lon":-74.05386,"countryCode":"CO"},{"name":"san felipe hotel","asciiName":"san felipe hotel","alternatenames":[],"lat":10.40917,"lon":-75.53083,"countryCode":"CO"},{"name":"san fernando plaza hotel","asciiName":"san fernando plaza hotel","alternatenames":[],"lat":6.2249,"lon":-75.57894,"countryCode":"CO"},{"name":"san francisco de asis hotel barranquilla","asciiName":"san francisco de asis hotel barranquilla","alternatenames":[],"lat":10.9904,"lon":-74.80493,"countryCode":"CO"},{"name":"san francisco santa marta rodadero","asciiName":"san francisco santa marta rodadero","alternatenames":[],"lat":11.2555,"lon":-74.20408,"countryCode":"CO"},{"name":"santa monica hotel","asciiName":"santa monica hotel","alternatenames":[],"lat":4.64137,"lon":-74.05978,"countryCode":"CO"},{"name":"santafe boutique hotel","asciiName":"santafe boutique hotel","alternatenames":[],"lat":4.69676,"lon":-74.04395,"countryCode":"CO"},{"name":"santorini hotel & resort","asciiName":"santorini hotel & resort","alternatenames":[],"lat":11.14318,"lon":-74.22593,"countryCode":"CO"},{"name":"santorini hotel boutique","asciiName":"santorini hotel boutique","alternatenames":[],"lat":11.14318,"lon":-74.22593,"countryCode":"CO"},{"name":"sazagua boutique hotel","asciiName":"sazagua boutique hotel","alternatenames":[],"lat":4.80825,"lon":-75.69416,"countryCode":"CO"},{"name":"sea flower caribbean hotel","asciiName":"sea flower caribbean hotel","alternatenames":[],"lat":12.58367,"lon":-81.69927,"countryCode":"CO"},{"name":"sheraton hotel bogota","asciiName":"sheraton hotel bogota","alternatenames":[],"lat":4.66029,"lon":-74.10946,"countryCode":"CO"},{"name":"sicarare hotel","asciiName":"sicarare hotel","alternatenames":[],"lat":10.48083,"lon":-73.25119,"countryCode":"CO"},{"name":"sol caribe campo hotel","asciiName":"sol caribe campo hotel","alternatenames":[],"lat":12.53839,"lon":-81.71158,"countryCode":"CO"},{"name":"sol caribe providencia","asciiName":"sol caribe providencia","alternatenames":[],"lat":13.34873,"lon":-81.37234,"countryCode":"CO"},{"name":"sol caribe san andres","asciiName":"sol caribe san andres","alternatenames":[],"lat":12.58405,"lon":-81.69983,"countryCode":"CO"},{"name":"suites 101 park house","asciiName":"suites 101 park house","alternatenames":[],"lat":4.6875,"lon":-74.05406,"countryCode":"CO"},{"name":"suites 108","asciiName":"suites 108","alternatenames":[],"lat":4.69261,"lon":-74.04656,"countryCode":"CO"},{"name":"hotel soratama","asciiName":"hotel soratama","alternatenames":[],"lat":4.81487,"lon":-75.69463,"countryCode":"CO"},{"name":"San Pedro de Majaguia","asciiName":"San Pedro de Majaguia","alternatenames":[],"lat":10.17936,"lon":-75.73863,"countryCode":"CO"},{"name":"tamaca beach resort hotel","asciiName":"tamaca beach resort hotel","alternatenames":[],"lat":11.20087,"lon":-74.22729,"countryCode":"CO"},{"name":"Toledo Hotel","asciiName":"Toledo Hotel","alternatenames":[],"lat":10.40152,"lon":-75.55706,"countryCode":"CO"},{"name":"windsor cali","asciiName":"windsor cali","alternatenames":[],"lat":3.45929,"lon":-76.53129,"countryCode":"CO"},{"name":"hotel verde mar","asciiName":"hotel verde mar","alternatenames":[],"lat":12.5846,"lon":-81.69527,"countryCode":"CO"},{"name":"varuna","asciiName":"varuna","alternatenames":[],"lat":5.06158,"lon":-75.49556,"countryCode":"CO"},{"name":"villa de la candelaria","asciiName":"villa de la candelaria","alternatenames":[],"lat":6.25869,"lon":-75.55477,"countryCode":"CO"},{"name":"Hotel Barú","asciiName":"Hotel Baru","alternatenames":["Hotel Baru","Hotel Barú"],"lat":1.60976,"lon":-75.60563,"countryCode":"CO"},{"name":"Hotel Suramericana","asciiName":"Hotel Suramericana","alternatenames":["Hotel Suramericana"],"lat":1.61756,"lon":-75.61491,"countryCode":"CO"},{"name":"Hotel Kamani","asciiName":"Hotel Kamani","alternatenames":["Hotel Kamani"],"lat":1.61678,"lon":-75.61434,"countryCode":"CO"},{"name":"Hotel Royal Plaza","asciiName":"Hotel Royal Plaza","alternatenames":["Hotel Royal Plaza"],"lat":1.61521,"lon":-75.61276,"countryCode":"CO"},{"name":"Hotel Panorama","asciiName":"Hotel Panorama","alternatenames":["Hotel Panorama"],"lat":1.61813,"lon":-75.61185,"countryCode":"CO"},{"name":"Hotel Caquetá Real","asciiName":"Hotel Caqueta Real","alternatenames":["Hotel Caqueta Real","Hotel Caquetá Real"],"lat":1.61912,"lon":-75.61246,"countryCode":"CO"},{"name":"Hotel Metropol","asciiName":"Hotel Metropol","alternatenames":["Hotel Metropol"],"lat":1.61779,"lon":-75.6134,"countryCode":"CO"},{"name":"Hotel Karimagua","asciiName":"Hotel Karimagua","alternatenames":["Hotel Karimagua"],"lat":1.61771,"lon":-75.61341,"countryCode":"CO"},{"name":"Tryp Medellín Hotel","asciiName":"Tryp Medellin Hotel","alternatenames":[],"lat":6.25906,"lon":-75.5866,"countryCode":"CO"},{"name":"33 Conquest","asciiName":"33 Conquest","alternatenames":[],"lat":6.24114,"lon":-75.5832,"countryCode":"CO"},{"name":"Abadia Plaza","asciiName":"Abadia Plaza","alternatenames":[],"lat":4.81407,"lon":-75.69654,"countryCode":"CO"},{"name":"Affinity Suites Apart Hotel","asciiName":"Affinity Suites Apart Hotel","alternatenames":[],"lat":6.20011,"lon":-75.57431,"countryCode":"CO"},{"name":"Aguamarina Hotel Boutique","asciiName":"Aguamarina Hotel Boutique","alternatenames":[],"lat":10.4248,"lon":-75.5522,"countryCode":"CO"},{"name":"Alcazar De Oviedo Apart Hotel","asciiName":"Alcazar De Oviedo Apart Hotel","alternatenames":[],"lat":6.20053,"lon":-75.57549,"countryCode":"CO"},{"name":"Alfiz Hotel Boutique","asciiName":"Alfiz Hotel Boutique","alternatenames":[],"lat":10.42312,"lon":-75.55016,"countryCode":"CO"},{"name":"Allure Chocolat Hotel By Karisma","asciiName":"Allure Chocolat Hotel By Karisma","alternatenames":[],"lat":10.42021,"lon":-75.54833,"countryCode":"CO"},{"name":"Ambassador Medellin","asciiName":"Ambassador Medellin","alternatenames":[],"lat":6.24114,"lon":-75.6095,"countryCode":"CO"},{"name":"Ananda Boutique","asciiName":"Ananda Boutique","alternatenames":[],"lat":10.42543,"lon":-75.5506,"countryCode":"CO"},{"name":"Aparta Hotel Tom Suites Cartagena","asciiName":"Aparta Hotel Tom Suites Cartagena","alternatenames":[],"lat":10.42027,"lon":-75.54756,"countryCode":"CO"},{"name":"Aparta Suite Torre Poblado","asciiName":"Aparta Suite Torre Poblado","alternatenames":[],"lat":6.20957,"lon":-75.5698,"countryCode":"CO"},{"name":"Apartahotel Casa Catalina Real","asciiName":"Apartahotel Casa Catalina Real","alternatenames":[],"lat":10.42532,"lon":-75.54716,"countryCode":"CO"},{"name":"Apartahotel La Provincia","asciiName":"Apartahotel La Provincia","alternatenames":[],"lat":6.23448,"lon":-75.55704,"countryCode":"CO"},{"name":"Apartamentos Kim","asciiName":"Apartamentos Kim","alternatenames":[],"lat":10.40277,"lon":-75.55463,"countryCode":"CO"},{"name":"Apartasuites Las Vegas","asciiName":"Apartasuites Las Vegas","alternatenames":[],"lat":3.38068,"lon":-76.54449,"countryCode":"CO"},{"name":"Arawak Upar","asciiName":"Arawak Upar","alternatenames":[],"lat":10.47473,"lon":-73.24446,"countryCode":"CO"},{"name":"Armenia Hotel","asciiName":"Armenia Hotel","alternatenames":[],"lat":4.54788,"lon":-75.65716,"countryCode":"CO"},{"name":"Armeria Real","asciiName":"Armeria Real","alternatenames":[],"lat":10.38734,"lon":-75.51966,"countryCode":"CO"},{"name":"Arsenal Hotel Corporativo","asciiName":"Arsenal Hotel Corporativo","alternatenames":[],"lat":10.38734,"lon":-75.51966,"countryCode":"CO"},{"name":"Art Hotel Medellin","asciiName":"Art Hotel Medellin","alternatenames":[],"lat":6.20962,"lon":-75.56909,"countryCode":"CO"},{"name":"Astra Suite 427 Hotel","asciiName":"Astra Suite 427 Hotel","alternatenames":[],"lat":10.43286,"lon":-75.54248,"countryCode":"CO"},{"name":"Atlantic Lux & Masters Casino","asciiName":"Atlantic Lux & Masters Casino","alternatenames":[],"lat":10.40467,"lon":-75.55428,"countryCode":"CO"},{"name":"Atlantis Plaza Hotel","asciiName":"Atlantis Plaza Hotel","alternatenames":[],"lat":7.88826,"lon":-72.50698,"countryCode":"CO"},{"name":"Atrium Plaza","asciiName":"Atrium Plaza","alternatenames":[],"lat":10.99394,"lon":-74.80929,"countryCode":"CO"},{"name":"Balcones De Alheli Bed & Breakfast","asciiName":"Balcones De Alheli Bed & Breakfast","alternatenames":[],"lat":10.42443,"lon":-75.54928,"countryCode":"CO"},{"name":"Barahona 72 Hotel","asciiName":"Barahona 72 Hotel","alternatenames":[],"lat":10.97652,"lon":-74.81007,"countryCode":"CO"},{"name":"Barlovento","asciiName":"Barlovento","alternatenames":[],"lat":10.40043,"lon":-75.55666,"countryCode":"CO"},{"name":"Best Western Cyan Suites","asciiName":"Best Western Cyan Suites","alternatenames":[],"lat":6.21189,"lon":-75.5652,"countryCode":"CO"},{"name":"Best Western Skyplus","asciiName":"Best Western Skyplus","alternatenames":[],"lat":6.20826,"lon":-75.55904,"countryCode":"CO"},{"name":"Botero Plaza","asciiName":"Botero Plaza","alternatenames":[],"lat":6.24496,"lon":-75.58009,"countryCode":"CO"},{"name":"Boutique Cochera De Hobo","asciiName":"Boutique Cochera De Hobo","alternatenames":[],"lat":10.42748,"lon":-75.54793,"countryCode":"CO"},{"name":"Boutique Florencia Plaza","asciiName":"Boutique Florencia Plaza","alternatenames":[],"lat":6.24496,"lon":-75.58009,"countryCode":"CO"},{"name":"Boutique Santo Domingo","asciiName":"Boutique Santo Domingo","alternatenames":[],"lat":10.42444,"lon":-75.55202,"countryCode":"CO"},{"name":"Boutique Santo Toribio","asciiName":"Boutique Santo Toribio","alternatenames":[],"lat":10.426,"lon":-75.5485,"countryCode":"CO"},{"name":"Buena Vista Express","asciiName":"Buena Vista Express","alternatenames":[],"lat":7.10772,"lon":-73.11622,"countryCode":"CO"},{"name":"Calamari Hostal Boutique","asciiName":"Calamari Hostal Boutique","alternatenames":[],"lat":10.42206,"lon":-75.55235,"countryCode":"CO"},{"name":"Cali Marriott Hotel","asciiName":"Cali Marriott Hotel","alternatenames":[],"lat":3.45626,"lon":-76.53588,"countryCode":"CO"},{"name":"Calypso Beach Welcome","asciiName":"Calypso Beach Welcome","alternatenames":[],"lat":12.59051,"lon":-81.70324,"countryCode":"CO"},{"name":"Campestre Casona Del Camino Real","asciiName":"Campestre Casona Del Camino Real","alternatenames":[],"lat":7.11331,"lon":-73.12047,"countryCode":"CO"},{"name":"Canadiense Barranquilla","asciiName":"Canadiense Barranquilla","alternatenames":[],"lat":10.93858,"lon":-74.79833,"countryCode":"CO"},{"name":"Cartagena Premium","asciiName":"Cartagena Premium","alternatenames":[],"lat":10.40791,"lon":-75.55215,"countryCode":"CO"},{"name":"Cartagena Real","asciiName":"Cartagena Real","alternatenames":[],"lat":10.39446,"lon":-75.56076,"countryCode":"CO"},{"name":"Casa Blanca Welcome","asciiName":"Casa Blanca Welcome","alternatenames":[],"lat":12.58437,"lon":-81.69284,"countryCode":"CO"},{"name":"Casa Boutique Grand Royal Inn","asciiName":"Casa Boutique Grand Royal Inn","alternatenames":[],"lat":10.98826,"lon":-74.82198,"countryCode":"CO"},{"name":"Casa Canabal Hotel Boutique","asciiName":"Casa Canabal Hotel Boutique","alternatenames":[],"lat":10.42263,"lon":-75.544,"countryCode":"CO"},{"name":"Casa Claver Loft Boutique Hotel","asciiName":"Casa Claver Loft Boutique Hotel","alternatenames":[],"lat":10.42246,"lon":-75.5511,"countryCode":"CO"},{"name":"Casa Del Mango Ecolodge By Emblema Hotels","asciiName":"Casa Del Mango Ecolodge By Emblema Hotels","alternatenames":[],"lat":10.42143,"lon":-75.54443,"countryCode":"CO"},{"name":"Casa Del Noble Hotel Galeria","asciiName":"Casa Del Noble Hotel Galeria","alternatenames":[],"lat":10.42669,"lon":-75.54746,"countryCode":"CO"},{"name":"Casa Etnia Hotel Boutique","asciiName":"Casa Etnia Hotel Boutique","alternatenames":[],"lat":11.22894,"lon":-74.17421,"countryCode":"CO"},{"name":"Casa Francheska","asciiName":"Casa Francheska","alternatenames":[],"lat":10.42745,"lon":-75.5461,"countryCode":"CO"},{"name":"Casa Grande Boutique Barranquilla","asciiName":"Casa Grande Boutique Barranquilla","alternatenames":[],"lat":10.9952,"lon":-74.79365,"countryCode":"CO"},{"name":"Casa Hotel Asturias","asciiName":"Casa Hotel Asturias","alternatenames":[],"lat":6.24491,"lon":-75.59311,"countryCode":"CO"},{"name":"Casa Laureles Hotel","asciiName":"Casa Laureles Hotel","alternatenames":[],"lat":6.24262,"lon":-75.59887,"countryCode":"CO"},{"name":"Casa Mara Cartagena","asciiName":"Casa Mara Cartagena","alternatenames":[],"lat":10.42187,"lon":-75.54431,"countryCode":"CO"},{"name":"Casa Mary","asciiName":"Casa Mary","alternatenames":[],"lat":10.42143,"lon":-75.54555,"countryCode":"CO"},{"name":"Casa Pombo","asciiName":"Casa Pombo","alternatenames":[],"lat":10.42335,"lon":-75.55021,"countryCode":"CO"},{"name":"Casa Republicana","asciiName":"Casa Republicana","alternatenames":[],"lat":3.44875,"lon":-76.53564,"countryCode":"CO"},{"name":"Casa Santa Ana","asciiName":"Casa Santa Ana","alternatenames":[],"lat":10.42021,"lon":-75.54394,"countryCode":"CO"},{"name":"Casa Victoria Cartagena","asciiName":"Casa Victoria Cartagena","alternatenames":[],"lat":10.42316,"lon":-75.54556,"countryCode":"CO"},{"name":"Casa Villa Colonial","asciiName":"Casa Villa Colonial","alternatenames":[],"lat":10.42258,"lon":-75.54455,"countryCode":"CO"},{"name":"Casablanca","asciiName":"Casablanca","alternatenames":[],"lat":10.42723,"lon":-75.54968,"countryCode":"CO"},{"name":"Centro Hotel Cartagena","asciiName":"Centro Hotel Cartagena","alternatenames":[],"lat":10.42367,"lon":-75.54802,"countryCode":"CO"},{"name":"City Express Cali","asciiName":"City Express Cali","alternatenames":[],"lat":3.47319,"lon":-76.52721,"countryCode":"CO"},{"name":"Combia Inspiracion","asciiName":"Combia Inspiracion","alternatenames":[],"lat":4.5038,"lon":-75.67891,"countryCode":"CO"},{"name":"Confort San Diego","asciiName":"Confort San Diego","alternatenames":[],"lat":6.23143,"lon":-75.56983,"countryCode":"CO"},{"name":"Corales De Indias","asciiName":"Corales De Indias","alternatenames":[],"lat":10.44318,"lon":-75.52524,"countryCode":"CO"},{"name":"Cosmos Xpress Cali","asciiName":"Cosmos Xpress Cali","alternatenames":[],"lat":3.45439,"lon":-76.52121,"countryCode":"CO"},{"name":"Dann Combeima Ibague","asciiName":"Dann Combeima Ibague","alternatenames":[],"lat":4.44266,"lon":-75.24106,"countryCode":"CO"},{"name":"Dann Monasterio","asciiName":"Dann Monasterio","alternatenames":[],"lat":2.44701,"lon":-76.61605,"countryCode":"CO"},{"name":"Decameron Isla Palma","asciiName":"Decameron Isla Palma","alternatenames":[],"lat":9.73706,"lon":-75.74815,"countryCode":"CO"},{"name":"Decameron Los Delfines","asciiName":"Decameron Los Delfines","alternatenames":[],"lat":12.58316,"lon":-81.68948,"countryCode":"CO"},{"name":"Decameron Maryland","asciiName":"Decameron Maryland","alternatenames":[],"lat":12.59124,"lon":-81.70086,"countryCode":"CO"},{"name":"Decameron Panaca","asciiName":"Decameron Panaca","alternatenames":[],"lat":4.60948,"lon":-75.81517,"countryCode":"CO"},{"name":"Deep Blue","asciiName":"Deep Blue","alternatenames":[],"lat":13.37971,"lon":-81.35703,"countryCode":"CO"},{"name":"Delirio Hotel","asciiName":"Delirio Hotel","alternatenames":[],"lat":10.42469,"lon":-75.55124,"countryCode":"CO"},{"name":"Diamond Premium Barranquilla Hotel","asciiName":"Diamond Premium Barranquilla Hotel","alternatenames":[],"lat":11.00315,"lon":-74.82079,"countryCode":"CO"},{"name":"Diez Categoria Colombia","asciiName":"Diez Categoria Colombia","alternatenames":[],"lat":6.20893,"lon":-75.56536,"countryCode":"CO"},{"name":"Don Pedro De Heredia","asciiName":"Don Pedro De Heredia","alternatenames":[],"lat":10.42466,"lon":-75.54885,"countryCode":"CO"},{"name":"Don Pepe Hotel Boutique","asciiName":"Don Pepe Hotel Boutique","alternatenames":[],"lat":11.24403,"lon":-74.21365,"countryCode":"CO"},{"name":"Egina Medellin","asciiName":"Egina Medellin","alternatenames":[],"lat":6.25249,"lon":-75.58707,"countryCode":"CO"},{"name":"El Candil De Los Santos","asciiName":"El Candil De Los Santos","alternatenames":[],"lat":10.42787,"lon":-75.54699,"countryCode":"CO"},{"name":"El Dorado Welcome","asciiName":"El Dorado Welcome","alternatenames":[],"lat":12.58279,"lon":-81.69038,"countryCode":"CO"},{"name":"El Pedregal","asciiName":"El Pedregal","alternatenames":[],"lat":10.42031,"lon":-75.5444,"countryCode":"CO"},{"name":"Estelar Altamira","asciiName":"Estelar Altamira","alternatenames":[],"lat":4.44825,"lon":-75.24879,"countryCode":"CO"},{"name":"Estelar Apartamentos Barranquilla","asciiName":"Estelar Apartamentos Barranquilla","alternatenames":[],"lat":10.99674,"lon":-74.80997,"countryCode":"CO"},{"name":"Estelar Apartamentos Bucaramanga","asciiName":"Estelar Apartamentos Bucaramanga","alternatenames":[],"lat":7.11976,"lon":-73.11829,"countryCode":"CO"},{"name":"Estelar Apartamentos Medellin","asciiName":"Estelar Apartamentos Medellin","alternatenames":[],"lat":6.19677,"lon":-75.57529,"countryCode":"CO"},{"name":"Estelar El Cable","asciiName":"Estelar El Cable","alternatenames":[],"lat":5.06719,"lon":-75.51671,"countryCode":"CO"},{"name":"Estelar Las Colinas","asciiName":"Estelar Las Colinas","alternatenames":[],"lat":5.06765,"lon":-75.5186,"countryCode":"CO"},{"name":"Eupacla","asciiName":"Eupacla","alternatenames":[],"lat":6.25241,"lon":-75.56673,"countryCode":"CO"},{"name":"Fontamar","asciiName":"Fontamar","alternatenames":[],"lat":10.98241,"lon":-74.78491,"countryCode":"CO"},{"name":"Four Points By Sheraton","asciiName":"Four Points By Sheraton","alternatenames":[],"lat":6.2494,"lon":-75.5986,"countryCode":"CO"},{"name":"Gente De Mar Resort","asciiName":"Gente De Mar Resort","alternatenames":[],"lat":10.18052,"lon":-75.72442,"countryCode":"CO"},{"name":"Ghl Comfort Hotel Costa Azul","asciiName":"Ghl Comfort Hotel Costa Azul","alternatenames":[],"lat":11.10711,"lon":-74.22396,"countryCode":"CO"},{"name":"Ghl Comfort Hotel San Diego","asciiName":"Ghl Comfort Hotel San Diego","alternatenames":[],"lat":6.23191,"lon":-75.57025,"countryCode":"CO"},{"name":"Ghl Hotel Abadia Plaza","asciiName":"Ghl Hotel Abadia Plaza","alternatenames":[],"lat":4.81396,"lon":-75.6967,"countryCode":"CO"},{"name":"Ghl Sunrise","asciiName":"Ghl Sunrise","alternatenames":[],"lat":12.58012,"lon":-81.69458,"countryCode":"CO"},{"name":"Golden House","asciiName":"Golden House","alternatenames":[],"lat":10.9868,"lon":-74.80889,"countryCode":"CO"},{"name":"Granada Real","asciiName":"Granada Real","alternatenames":[],"lat":3.45857,"lon":-76.53369,"countryCode":"CO"},{"name":"Grand Hotel Villavicencio","asciiName":"Grand Hotel Villavicencio","alternatenames":[],"lat":4.13496,"lon":-73.63729,"countryCode":"CO"},{"name":"Hacienda San José Hotel","asciiName":"Hacienda San Jose Hotel","alternatenames":[],"lat":4.80826,"lon":-75.69416,"countryCode":"CO"},{"name":"Hampton By Hilton Barranquilla","asciiName":"Hampton By Hilton Barranquilla","alternatenames":[],"lat":11.00545,"lon":-74.81942,"countryCode":"CO"},{"name":"Hampton By Hilton Cartagena","asciiName":"Hampton By Hilton Cartagena","alternatenames":[],"lat":10.40373,"lon":-75.5549,"countryCode":"CO"},{"name":"Hampton Inn Cartagena","asciiName":"Hampton Inn Cartagena","alternatenames":[],"lat":10.40442,"lon":-75.55532,"countryCode":"CO"},{"name":"Holiday Inn Bucaramanga Cacique","asciiName":"Holiday Inn Bucaramanga Cacique","alternatenames":[],"lat":7.09986,"lon":-73.10708,"countryCode":"CO"},{"name":"Holiday Inn Cartagena","asciiName":"Holiday Inn Cartagena","alternatenames":[],"lat":10.46596,"lon":-75.50068,"countryCode":"CO"},{"name":"Hostal Casa Maria","asciiName":"Hostal Casa Maria","alternatenames":[],"lat":11.26585,"lon":-74.18621,"countryCode":"CO"},{"name":"Hotel Acqua Express","asciiName":"Hotel Acqua Express","alternatenames":[],"lat":6.20635,"lon":-75.56558,"countryCode":"CO"},{"name":"Hotel Arena Blanca Welcome","asciiName":"Hotel Arena Blanca Welcome","alternatenames":[],"lat":12.58087,"lon":-81.69013,"countryCode":"CO"},{"name":"Hotel Auaecoco Cartagena","asciiName":"Hotel Auaecoco Cartagena","alternatenames":[],"lat":10.46923,"lon":-75.49971,"countryCode":"CO"},{"name":"Hotel Benidorm Pereira","asciiName":"Hotel Benidorm Pereira","alternatenames":[],"lat":4.81476,"lon":-75.694,"countryCode":"CO"},{"name":"Hotel Betoma","asciiName":"Hotel Betoma","alternatenames":[],"lat":11.20871,"lon":-74.22795,"countryCode":"CO"},{"name":"Hotel Bh El Poblado Medellin","asciiName":"Hotel Bh El Poblado Medellin","alternatenames":[],"lat":6.19545,"lon":-75.57497,"countryCode":"CO"},{"name":"Hotel Boutique Diego De Alcala Suites","asciiName":"Hotel Boutique Diego De Alcala Suites","alternatenames":[],"lat":10.42613,"lon":-75.54825,"countryCode":"CO"},{"name":"Hotel Boutique El Cortijo","asciiName":"Hotel Boutique El Cortijo","alternatenames":[],"lat":4.81634,"lon":-75.68957,"countryCode":"CO"},{"name":"Hotel Buena Vista","asciiName":"Hotel Buena Vista","alternatenames":[],"lat":7.12489,"lon":-73.11327,"countryCode":"CO"},{"name":"Hotel Cali Plaza Granada","asciiName":"Hotel Cali Plaza Granada","alternatenames":[],"lat":3.45841,"lon":-76.5332,"countryCode":"CO"},{"name":"Hotel Cartagena Plaza","asciiName":"Hotel Cartagena Plaza","alternatenames":[],"lat":10.39635,"lon":-75.49487,"countryCode":"CO"},{"name":"Hotel Casa Del Coliseo","asciiName":"Hotel Casa Del Coliseo","alternatenames":[],"lat":10.42434,"lon":-75.5497,"countryCode":"CO"},{"name":"Hotel Casa La Fe","asciiName":"Hotel Casa La Fe","alternatenames":[],"lat":10.42611,"lon":-75.54843,"countryCode":"CO"},{"name":"Hotel Casa San Agustin","asciiName":"Hotel Casa San Agustin","alternatenames":[],"lat":10.42405,"lon":-75.55034,"countryCode":"CO"},{"name":"Hotel Casa Toscano","asciiName":"Hotel Casa Toscano","alternatenames":[],"lat":3.45137,"lon":-76.53846,"countryCode":"CO"},{"name":"Hotel Charleston Sta Teresa","asciiName":"Hotel Charleston Sta Teresa","alternatenames":[],"lat":10.42303,"lon":-75.54105,"countryCode":"CO"},{"name":"Hotel Charthon Barranquilla","asciiName":"Hotel Charthon Barranquilla","alternatenames":[],"lat":11.00382,"lon":-74.82476,"countryCode":"CO"},{"name":"Hotel Decameron Decalodge Ticuna","asciiName":"Hotel Decameron Decalodge Ticuna","alternatenames":[],"lat":-4.21794,"lon":-69.94249,"countryCode":"CO"},{"name":"Hotel Decameron Galeon Santa Marta","asciiName":"Hotel Decameron Galeon Santa Marta","alternatenames":[],"lat":11.09235,"lon":-74.21833,"countryCode":"CO"},{"name":"Hotel Genova Prado Bed & Breakfast","asciiName":"Hotel Genova Prado Bed & Breakfast","alternatenames":[],"lat":10.99715,"lon":-74.80253,"countryCode":"CO"},{"name":"Hotel Guadaira Resort","asciiName":"Hotel Guadaira Resort","alternatenames":[],"lat":4.20801,"lon":-74.64508,"countryCode":"CO"},{"name":"Hotel Habana Vieja","asciiName":"Hotel Habana Vieja","alternatenames":[],"lat":6.19505,"lon":-75.57634,"countryCode":"CO"},{"name":"Hotel Imbanaco","asciiName":"Hotel Imbanaco","alternatenames":[],"lat":3.42333,"lon":-76.54587,"countryCode":"CO"},{"name":"Hotel Innova Chipichape","asciiName":"Hotel Innova Chipichape","alternatenames":[],"lat":4.62182,"lon":-74.06799,"countryCode":"CO"},{"name":"Hotel Innova Lee","asciiName":"Hotel Innova Lee","alternatenames":[],"lat":10.42029,"lon":-75.54786,"countryCode":"CO"},{"name":"Hotel Interamericano","asciiName":"Hotel Interamericano","alternatenames":[],"lat":10.98353,"lon":-74.78482,"countryCode":"CO"},{"name":"Hotel Internacional La Triada","asciiName":"Hotel Internacional La Triada","alternatenames":[],"lat":7.12049,"lon":-73.1229,"countryCode":"CO"},{"name":"Hotel Intersuites","asciiName":"Hotel Intersuites","alternatenames":[],"lat":10.99553,"lon":-74.81431,"countryCode":"CO"},{"name":"Hotel Isla Del Pirata","asciiName":"Hotel Isla Del Pirata","alternatenames":[],"lat":10.41406,"lon":-75.52639,"countryCode":"CO"},{"name":"Hotel Las Americas Welcome","asciiName":"Hotel Las Americas Welcome","alternatenames":[],"lat":12.58329,"lon":-81.69579,"countryCode":"CO"},{"name":"Hotel Le Parc","asciiName":"Hotel Le Parc","alternatenames":[],"lat":6.20907,"lon":-75.56856,"countryCode":"CO"},{"name":"Hotel Lincoln","asciiName":"Hotel Lincoln","alternatenames":[],"lat":6.24567,"lon":-75.58955,"countryCode":"CO"},{"name":"Hotel Mudejar","asciiName":"Hotel Mudejar","alternatenames":[],"lat":3.4497,"lon":-76.53513,"countryCode":"CO"},{"name":"Hotel Natura","asciiName":"Hotel Natura","alternatenames":[],"lat":6.20686,"lon":-75.56558,"countryCode":"CO"},{"name":"Hotel Or","asciiName":"Hotel Or","alternatenames":[],"lat":10.39969,"lon":-75.55747,"countryCode":"CO"},{"name":"Hotel Oz","asciiName":"Hotel Oz","alternatenames":[],"lat":10.39828,"lon":-75.55929,"countryCode":"CO"},{"name":"Hotel Plaza Mayor Cali","asciiName":"Hotel Plaza Mayor Cali","alternatenames":[],"lat":3.45949,"lon":-76.53513,"countryCode":"CO"},{"name":"Hotel Poblado Boutique","asciiName":"Hotel Poblado Boutique","alternatenames":[],"lat":6.20696,"lon":-75.56499,"countryCode":"CO"},{"name":"Hotel Poblado Campestre","asciiName":"Hotel Poblado Campestre","alternatenames":[],"lat":6.21663,"lon":-75.56658,"countryCode":"CO"},{"name":"Hotel Puerta De San Antonio","asciiName":"Hotel Puerta De San Antonio","alternatenames":[],"lat":3.44875,"lon":-76.54035,"countryCode":"CO"},{"name":"Hotel Royal Decameron Aquarium","asciiName":"Hotel Royal Decameron Aquarium","alternatenames":[],"lat":12.58059,"lon":-81.68816,"countryCode":"CO"},{"name":"Hotel Salento Real","asciiName":"Hotel Salento Real","alternatenames":[],"lat":4.63926,"lon":-75.56969,"countryCode":"CO"},{"name":"Hotel San Juan Internacional","asciiName":"Hotel San Juan Internacional","alternatenames":[],"lat":7.08512,"lon":-73.16066,"countryCode":"CO"},{"name":"Hotel San Simon","asciiName":"Hotel San Simon","alternatenames":[],"lat":4.8142,"lon":-75.69415,"countryCode":"CO"},{"name":"Hotel Santa Cruz Cartagena","asciiName":"Hotel Santa Cruz Cartagena","alternatenames":[],"lat":10.42552,"lon":-75.54764,"countryCode":"CO"},{"name":"Hotel Santa Marta Real","asciiName":"Hotel Santa Marta Real","alternatenames":[],"lat":11.24206,"lon":-74.19357,"countryCode":"CO"},{"name":"Hotel Sierra De La Cruz","asciiName":"Hotel Sierra De La Cruz","alternatenames":[],"lat":6.44702,"lon":-73.14059,"countryCode":"CO"},{"name":"Hotel Solar Casa Laureles","asciiName":"Hotel Solar Casa Laureles","alternatenames":[],"lat":6.24756,"lon":-75.59953,"countryCode":"CO"},{"name":"Hotel Stil Cartagena","asciiName":"Hotel Stil Cartagena","alternatenames":[],"lat":10.42534,"lon":-75.54519,"countryCode":"CO"},{"name":"Hotel Taybo Beach","asciiName":"Hotel Taybo Beach","alternatenames":[],"lat":11.20627,"lon":-74.2269,"countryCode":"CO"},{"name":"Hotel Tiuna Welcome","asciiName":"Hotel Tiuna Welcome","alternatenames":[],"lat":12.58523,"lon":-81.6938,"countryCode":"CO"},{"name":"Hotel Torre Del Reloj","asciiName":"Hotel Torre Del Reloj","alternatenames":[],"lat":10.42317,"lon":-75.54951,"countryCode":"CO"},{"name":"Hotel Valmar","asciiName":"Hotel Valmar","alternatenames":[],"lat":10.48621,"lon":-75.49161,"countryCode":"CO"},{"name":"Hotel Zalmedina","asciiName":"Hotel Zalmedina","alternatenames":[],"lat":10.39995,"lon":-75.55911,"countryCode":"CO"},{"name":"Hotel Zuana Beach Resort","asciiName":"Hotel Zuana Beach Resort","alternatenames":[],"lat":11.14166,"lon":-74.22596,"countryCode":"CO"},{"name":"Howard Johnson Hotel Versalles Barranquilla","asciiName":"Howard Johnson Hotel Versalles Barranquilla","alternatenames":[],"lat":10.99814,"lon":-74.80861,"countryCode":"CO"},{"name":"Innova Cali Hotel","asciiName":"Innova Cali Hotel","alternatenames":[],"lat":3.48667,"lon":-76.49542,"countryCode":"CO"},{"name":"Inntu Hotel","asciiName":"Inntu Hotel","alternatenames":[],"lat":6.24414,"lon":-75.596,"countryCode":"CO"},{"name":"Intercontinental Cartagena","asciiName":"Intercontinental Cartagena","alternatenames":[],"lat":10.40049,"lon":-75.55921,"countryCode":"CO"},{"name":"Internacional Barahona","asciiName":"Internacional Barahona","alternatenames":[],"lat":10.39635,"lon":-75.49487,"countryCode":"CO"},{"name":"Irotama Resort Santa Marta","asciiName":"Irotama Resort Santa Marta","alternatenames":[],"lat":11.14912,"lon":-74.22507,"countryCode":"CO"},{"name":"Isla Del Encanto","asciiName":"Isla Del Encanto","alternatenames":[],"lat":10.39941,"lon":-75.55874,"countryCode":"CO"},{"name":"Karmairi Hotel & Spa","asciiName":"Karmairi Hotel & Spa","alternatenames":[],"lat":10.521,"lon":-75.49595,"countryCode":"CO"},{"name":"Kolor Boutique","asciiName":"Kolor Boutique","alternatenames":[],"lat":6.20494,"lon":-75.56439,"countryCode":"CO"},{"name":"La Campana Hotel Boutique","asciiName":"La Campana Hotel Boutique","alternatenames":[],"lat":6.21171,"lon":-75.56242,"countryCode":"CO"},{"name":"La Casa Del Agua Concept Hotel","asciiName":"La Casa Del Agua Concept Hotel","alternatenames":[],"lat":11.24269,"lon":-74.21201,"countryCode":"CO"},{"name":"La Casa Del Arbol Hotel Boutique","asciiName":"La Casa Del Arbol Hotel Boutique","alternatenames":[],"lat":11.24222,"lon":-74.21529,"countryCode":"CO"},{"name":"La Casa Del Farol Hotel Boutique","asciiName":"La Casa Del Farol Hotel Boutique","alternatenames":[],"lat":11.2427,"lon":-74.212,"countryCode":"CO"},{"name":"La Casa Del Turista","asciiName":"La Casa Del Turista","alternatenames":[],"lat":10.39886,"lon":-75.55803,"countryCode":"CO"},{"name":"La Casa Del Viajero","asciiName":"La Casa Del Viajero","alternatenames":[],"lat":10.41941,"lon":-75.5308,"countryCode":"CO"},{"name":"La Casona B & B","asciiName":"La Casona B & B","alternatenames":[],"lat":10.42356,"lon":-75.54568,"countryCode":"CO"},{"name":"La Passion Hotel","asciiName":"La Passion Hotel","alternatenames":[],"lat":10.42493,"lon":-75.55075,"countryCode":"CO"},{"name":"Las Am?Ricas Torre Del Mar","asciiName":"Las Am?Ricas Torre Del Mar","alternatenames":[],"lat":10.46823,"lon":-75.50089,"countryCode":"CO"},{"name":"Las Vegas Granada","asciiName":"Las Vegas Granada","alternatenames":[],"lat":3.46091,"lon":-76.53208,"countryCode":"CO"},{"name":"Leblon Suites Hotel","asciiName":"Leblon Suites Hotel","alternatenames":[],"lat":6.20769,"lon":-75.58979,"countryCode":"CO"},{"name":"Lord Pierre Welcome","asciiName":"Lord Pierre Welcome","alternatenames":[],"lat":12.58334,"lon":-81.6895,"countryCode":"CO"},{"name":"Luna Nueva","asciiName":"Luna Nueva","alternatenames":[],"lat":10.42218,"lon":-75.54508,"countryCode":"CO"},{"name":"Luxor Condina Hotel Pereira","asciiName":"Luxor Condina Hotel Pereira","alternatenames":[],"lat":4.81446,"lon":-75.69334,"countryCode":"CO"},{"name":"Luxor Plaza","asciiName":"Luxor Plaza","alternatenames":[],"lat":4.81015,"lon":-75.69897,"countryCode":"CO"},{"name":"Makondo Hotel Boutique","asciiName":"Makondo Hotel Boutique","alternatenames":[],"lat":10.42849,"lon":-75.54834,"countryCode":"CO"},{"name":"Marina Suites","asciiName":"Marina Suites","alternatenames":[],"lat":10.39414,"lon":-75.56113,"countryCode":"CO"},{"name":"Movich Cartagena de Indias","asciiName":"Movich Cartagena de Indias","alternatenames":[],"lat":10.42284,"lon":-75.55065,"countryCode":"CO"},{"name":"Hotel Movich Pereira","asciiName":"Hotel Movich Pereira","alternatenames":[],"lat":4.80867,"lon":-75.69171,"countryCode":"CO"},{"name":"Ms Chipichape Cali Hotel","asciiName":"Ms Chipichape Cali Hotel","alternatenames":[],"lat":3.45033,"lon":-76.52172,"countryCode":"CO"},{"name":"Muisca","asciiName":"Muisca","alternatenames":[],"lat":7.88762,"lon":-72.49982,"countryCode":"CO"},{"name":"Nevada","asciiName":"Nevada","alternatenames":[],"lat":3.45822,"lon":-76.5341,"countryCode":"CO"},{"name":"Novelty Suites Hotel","asciiName":"Novelty Suites Hotel","alternatenames":[],"lat":6.20052,"lon":-75.57406,"countryCode":"CO"},{"name":"Nuevo Hotel Cafe Real","asciiName":"Nuevo Hotel Cafe Real","alternatenames":[],"lat":4.53444,"lon":-75.67566,"countryCode":"CO"},{"name":"Nutibara Express","asciiName":"Nutibara Express","alternatenames":[],"lat":6.24732,"lon":-75.56033,"countryCode":"CO"},{"name":"Occidental Grand Cartagena","asciiName":"Occidental Grand Cartagena","alternatenames":[],"lat":10.5247,"lon":-75.49503,"countryCode":"CO"},{"name":"Occidental Playa Manzanillo","asciiName":"Occidental Playa Manzanillo","alternatenames":[],"lat":10.5252,"lon":-75.49285,"countryCode":"CO"},{"name":"On Vacation Amazon","asciiName":"On Vacation Amazon","alternatenames":[],"lat":-4.15973,"lon":-69.93537,"countryCode":"CO"},{"name":"On Vacation Caribbean & Blue Reef","asciiName":"On Vacation Caribbean & Blue Reef","alternatenames":[],"lat":12.58445,"lon":-81.69443,"countryCode":"CO"},{"name":"On Vacation Coral Flower","asciiName":"On Vacation Coral Flower","alternatenames":[],"lat":12.58506,"lon":-81.69272,"countryCode":"CO"},{"name":"Park Hotel","asciiName":"Park Hotel","alternatenames":[],"lat":11.24836,"lon":-74.20485,"countryCode":"CO"},{"name":"Plaza Granada","asciiName":"Plaza Granada","alternatenames":[],"lat":6.25996,"lon":-75.61086,"countryCode":"CO"},{"name":"Plazamar Hotel Boutique","asciiName":"Plazamar Hotel Boutique","alternatenames":[],"lat":3.88661,"lon":-77.07023,"countryCode":"CO"},{"name":"Plazuela San Ignacio","asciiName":"Plazuela San Ignacio","alternatenames":[],"lat":6.24535,"lon":-75.56388,"countryCode":"CO"},{"name":"Portal De San Diego","asciiName":"Portal De San Diego","alternatenames":[],"lat":10.42509,"lon":-75.54826,"countryCode":"CO"},{"name":"Portal Del Rodeo Apart Hotel","asciiName":"Portal Del Rodeo Apart Hotel","alternatenames":[],"lat":6.24496,"lon":-75.58009,"countryCode":"CO"},{"name":"Porton De San Joaquin","asciiName":"Porton De San Joaquin","alternatenames":[],"lat":6.24712,"lon":-75.58683,"countryCode":"CO"},{"name":"Prado 72 Barranquilla","asciiName":"Prado 72 Barranquilla","alternatenames":[],"lat":10.9833,"lon":-74.8,"countryCode":"CO"},{"name":"Puertas De Cartagena","asciiName":"Puertas De Cartagena","alternatenames":[],"lat":10.42681,"lon":-75.5483,"countryCode":"CO"},{"name":"Punta Faro","asciiName":"Punta Faro","alternatenames":[],"lat":9.7439,"lon":-75.8185,"countryCode":"CO"},{"name":"Quadrifolio Hotel Boutique","asciiName":"Quadrifolio Hotel Boutique","alternatenames":[],"lat":10.42822,"lon":-75.55085,"countryCode":"CO"},{"name":"Radisson Cartagena Ocean Pavillion Hotel","asciiName":"Radisson Cartagena Ocean Pavillion Hotel","alternatenames":[],"lat":10.4237,"lon":-75.54826,"countryCode":"CO"},{"name":"Regatta","asciiName":"Regatta","alternatenames":[],"lat":10.40125,"lon":-75.55843,"countryCode":"CO"},{"name":"Riviera Del Mar","asciiName":"Riviera Del Mar","alternatenames":[],"lat":10.98386,"lon":-74.78396,"countryCode":"CO"},{"name":"Rodadero Real","asciiName":"Rodadero Real","alternatenames":[],"lat":11.20412,"lon":-74.22572,"countryCode":"CO"},{"name":"Royal Decameron Baru Beach Resort","asciiName":"Royal Decameron Baru Beach Resort","alternatenames":[],"lat":10.24129,"lon":-75.60581,"countryCode":"CO"},{"name":"Royal Decameron Isleño","asciiName":"Royal Decameron Isleno","alternatenames":[],"lat":12.58603,"lon":-81.69852,"countryCode":"CO"},{"name":"Royal Decameron Marazul","asciiName":"Royal Decameron Marazul","alternatenames":[],"lat":12.5587,"lon":-81.70451,"countryCode":"CO"},{"name":"Ruitoque","asciiName":"Ruitoque","alternatenames":[],"lat":7.11346,"lon":-73.11995,"countryCode":"CO"},{"name":"San Antonio Hotel Boutique","asciiName":"San Antonio Hotel Boutique","alternatenames":[],"lat":3.44752,"lon":-76.53972,"countryCode":"CO"},{"name":"San Martin","asciiName":"San Martin","alternatenames":[],"lat":10.405,"lon":-75.55341,"countryCode":"CO"},{"name":"San Pedro De Majagua","asciiName":"San Pedro De Majagua","alternatenames":[],"lat":10.17936,"lon":-75.73863,"countryCode":"CO"},{"name":"San Pedro Del Fuerte","asciiName":"San Pedro Del Fuerte","alternatenames":[],"lat":6.25933,"lon":-75.59658,"countryCode":"CO"},{"name":"Sanha Plus Hotel","asciiName":"Sanha Plus Hotel","alternatenames":[],"lat":11.15728,"lon":-74.22317,"countryCode":"CO"},{"name":"Santa Maria Del Mar Hotel Boutique","asciiName":"Santa Maria Del Mar Hotel Boutique","alternatenames":[],"lat":11.15573,"lon":-74.22651,"countryCode":"CO"},{"name":"Sercotel Sites","asciiName":"Sercotel Sites","alternatenames":[],"lat":6.20634,"lon":-75.57454,"countryCode":"CO"},{"name":"Smart Suites Royal Barranquilla","asciiName":"Smart Suites Royal Barranquilla","alternatenames":[],"lat":11.02105,"lon":-74.8028,"countryCode":"CO"},{"name":"Sol Arhuaco","asciiName":"Sol Arhuaco","alternatenames":[],"lat":11.20597,"lon":-74.22644,"countryCode":"CO"},{"name":"Sol Hotel Inn","asciiName":"Sol Hotel Inn","alternatenames":[],"lat":11.24836,"lon":-74.20485,"countryCode":"CO"},{"name":"Sonesta Barranquilla","asciiName":"Sonesta Barranquilla","alternatenames":[],"lat":11.01422,"lon":-74.83606,"countryCode":"CO"},{"name":"Sonesta Cartagena","asciiName":"Sonesta Cartagena","alternatenames":[],"lat":10.45015,"lon":-75.51562,"countryCode":"CO"},{"name":"Sonesta Hotel Valledupar","asciiName":"Sonesta Hotel Valledupar","alternatenames":[],"lat":10.475,"lon":-73.24685,"countryCode":"CO"},{"name":"Spiwak Chipichape Cali","asciiName":"Spiwak Chipichape Cali","alternatenames":[],"lat":3.45835,"lon":-76.51181,"countryCode":"CO"},{"name":"Sport Baru Hotel","asciiName":"Sport Baru Hotel","alternatenames":[],"lat":10.15937,"lon":-75.66802,"countryCode":"CO"},{"name":"Stein Colonial","asciiName":"Stein Colonial","alternatenames":[],"lat":3.44917,"lon":-76.53919,"countryCode":"CO"},{"name":"Suite Comfort","asciiName":"Suite Comfort","alternatenames":[],"lat":6.24222,"lon":-75.59014,"countryCode":"CO"},{"name":"Tequendama Inn Cartagena","asciiName":"Tequendama Inn Cartagena","alternatenames":[],"lat":10.40646,"lon":-75.55145,"countryCode":"CO"},{"name":"Tequendama Inn Cartagena De Indias","asciiName":"Tequendama Inn Cartagena De Indias","alternatenames":[],"lat":10.40149,"lon":-75.55549,"countryCode":"CO"},{"name":"Tequendama Inn Estacion","asciiName":"Tequendama Inn Estacion","alternatenames":[],"lat":3.8775,"lon":-77.01498,"countryCode":"CO"},{"name":"Tequendama Inn Santa Marta","asciiName":"Tequendama Inn Santa Marta","alternatenames":[],"lat":11.17089,"lon":-74.22979,"countryCode":"CO"},{"name":"Top Deck Hotel","asciiName":"Top Deck Hotel","alternatenames":[],"lat":4.80834,"lon":-75.73828,"countryCode":"CO"},{"name":"Travelers Apartamentos Y Suites Cali Castellon","asciiName":"Travelers Apartamentos Y Suites Cali Castellon","alternatenames":[],"lat":3.46537,"lon":-76.53282,"countryCode":"CO"},{"name":"Travelers Apartamentos Y Suites Cali Rayda","asciiName":"Travelers Apartamentos Y Suites Cali Rayda","alternatenames":[],"lat":3.44998,"lon":-76.53977,"countryCode":"CO"},{"name":"Tres Casitas Welcome","asciiName":"Tres Casitas Welcome","alternatenames":[],"lat":12.58269,"lon":-81.6886,"countryCode":"CO"},{"name":"Urban Royal Puerta Del Reloj","asciiName":"Urban Royal Puerta Del Reloj","alternatenames":[],"lat":10.39195,"lon":-75.48617,"countryCode":"CO"},{"name":"Verde Mar Welcome","asciiName":"Verde Mar Welcome","alternatenames":[],"lat":12.57825,"lon":-81.7024,"countryCode":"CO"},{"name":"Vizcaya Real","asciiName":"Vizcaya Real","alternatenames":[],"lat":3.46134,"lon":-76.52989,"countryCode":"CO"},{"name":"Waya Guajira","asciiName":"Waya Guajira","alternatenames":[],"lat":11.1721,"lon":-72.58525,"countryCode":"CO"},{"name":"Wyndham Garden Villavicencio Resort","asciiName":"Wyndham Garden Villavicencio Resort","alternatenames":[],"lat":4.22609,"lon":-73.54929,"countryCode":"CO"},{"name":"Zione Luxury Hotel Pereira","asciiName":"Zione Luxury Hotel Pereira","alternatenames":[],"lat":4.80902,"lon":-75.68919,"countryCode":"CO"},{"name":"Hotel Bahia Sardina Welcome","asciiName":"Hotel Bahia Sardina Welcome","alternatenames":[],"lat":12.58571,"lon":-81.69624,"countryCode":"CO"},{"name":"109 Suites","asciiName":"109 Suites","alternatenames":[],"lat":4.69368,"lon":-74.04793,"countryCode":"CO"},{"name":"116 Hotel","asciiName":"116 Hotel","alternatenames":[],"lat":4.70045,"lon":-74.06934,"countryCode":"CO"},{"name":"96 Street Suites","asciiName":"96 Street Suites","alternatenames":[],"lat":4.67782,"lon":-74.04277,"countryCode":"CO"},{"name":"Abc Avenida","asciiName":"Abc Avenida","alternatenames":[],"lat":4.63412,"lon":-74.06389,"countryCode":"CO"},{"name":"Alameda Bogota","asciiName":"Alameda Bogota","alternatenames":[],"lat":4.5768,"lon":-74.10172,"countryCode":"CO"},{"name":"Aloft Bogota Airport","asciiName":"Aloft Bogota Airport","alternatenames":[],"lat":4.62,"lon":-74.074,"countryCode":"CO"},{"name":"Ambar","asciiName":"Ambar","alternatenames":[],"lat":4.60471,"lon":-74.07267,"countryCode":"CO"},{"name":"Ar Hotel Salitre Suites & Spa Centro De Convencion","asciiName":"Ar Hotel Salitre Suites & Spa Centro De Convencion","alternatenames":[],"lat":4.6419,"lon":-74.10507,"countryCode":"CO"},{"name":"Ariston'S","asciiName":"Ariston'S","alternatenames":[],"lat":4.62946,"lon":-74.0877,"countryCode":"CO"},{"name":"Arlington Place","asciiName":"Arlington Place","alternatenames":[],"lat":4.6955,"lon":-74.05154,"countryCode":"CO"},{"name":"Arlington Place","asciiName":"Arlington Place","alternatenames":[],"lat":4.69294,"lon":-74.04564,"countryCode":"CO"},{"name":"Avia 93","asciiName":"Avia 93","alternatenames":[],"lat":4.67619,"lon":-74.04771,"countryCode":"CO"},{"name":"B B Zuetana 106","asciiName":"B B Zuetana 106","alternatenames":[],"lat":4.69267,"lon":-74.04924,"countryCode":"CO"},{"name":"Baviera Hotel","asciiName":"Baviera Hotel","alternatenames":[],"lat":4.69508,"lon":-74.13385,"countryCode":"CO"},{"name":"Bda55","asciiName":"Bda55","alternatenames":[],"lat":4.68031,"lon":-74.11307,"countryCode":"CO"},{"name":"Belle Epoque Suites Boutique","asciiName":"Belle Epoque Suites Boutique","alternatenames":[],"lat":4.67988,"lon":-74.0493,"countryCode":"CO"},{"name":"Belle Epoque Suites Boutique 94","asciiName":"Belle Epoque Suites Boutique 94","alternatenames":[],"lat":4.68236,"lon":-74.05605,"countryCode":"CO"},{"name":"Best Western Plus 93 Park Hotel","asciiName":"Best Western Plus 93 Park Hotel","alternatenames":[],"lat":4.67593,"lon":-74.05076,"countryCode":"CO"},{"name":"Bh Bicentenario Hotel","asciiName":"Bh Bicentenario Hotel","alternatenames":[],"lat":4.60109,"lon":-74.07009,"countryCode":"CO"},{"name":"Bh Tempo Hotel","asciiName":"Bh Tempo Hotel","alternatenames":[],"lat":4.6,"lon":-74.08329,"countryCode":"CO"},{"name":"Blue Suites Hotel","asciiName":"Blue Suites Hotel","alternatenames":[],"lat":4.67784,"lon":-74.05385,"countryCode":"CO"},{"name":"Bog Hotel","asciiName":"Bog Hotel","alternatenames":[],"lat":4.65459,"lon":-74.06038,"countryCode":"CO"},{"name":"Bogota Marriott","asciiName":"Bogota Marriott","alternatenames":[],"lat":4.65942,"lon":-74.1082,"countryCode":"CO"},{"name":"Bogota Plaza Summit Hotels","asciiName":"Bogota Plaza Summit Hotels","alternatenames":[],"lat":4.683,"lon":-74.04369,"countryCode":"CO"},{"name":"Calleja Suites","asciiName":"Calleja Suites","alternatenames":[],"lat":4.70698,"lon":-74.05141,"countryCode":"CO"},{"name":"Casa 95 Aparthotel","asciiName":"Casa 95 Aparthotel","alternatenames":[],"lat":4.67779,"lon":-74.04377,"countryCode":"CO"},{"name":"Casa Gaitan Cortes Boutique","asciiName":"Casa Gaitan Cortes Boutique","alternatenames":[],"lat":4.65076,"lon":-74.05552,"countryCode":"CO"},{"name":"Casa Hotel Cabrera","asciiName":"Casa Hotel Cabrera","alternatenames":[],"lat":4.62693,"lon":-74.0863,"countryCode":"CO"},{"name":"Casa Hotel Santa Barbara 120","asciiName":"Casa Hotel Santa Barbara 120","alternatenames":[],"lat":4.69534,"lon":-74.03421,"countryCode":"CO"},{"name":"Casa Hotel Zuetana 106","asciiName":"Casa Hotel Zuetana 106","alternatenames":[],"lat":4.69267,"lon":-74.04924,"countryCode":"CO"},{"name":"Casa Hotel Zuetana 109","asciiName":"Casa Hotel Zuetana 109","alternatenames":[],"lat":4.62694,"lon":-74.08629,"countryCode":"CO"},{"name":"Casa Hotel Zuetana 119","asciiName":"Casa Hotel Zuetana 119","alternatenames":[],"lat":4.7018,"lon":-74.05932,"countryCode":"CO"},{"name":"Casa Hotel Zuetana 93","asciiName":"Casa Hotel Zuetana 93","alternatenames":[],"lat":4.67817,"lon":-74.05414,"countryCode":"CO"},{"name":"Casa Quinta Hotel Boutique","asciiName":"Casa Quinta Hotel Boutique","alternatenames":[],"lat":4.60235,"lon":-74.06943,"countryCode":"CO"},{"name":"Casanovas","asciiName":"Casanovas","alternatenames":[],"lat":4.62807,"lon":-74.12705,"countryCode":"CO"},{"name":"Casona Real Hotel","asciiName":"Casona Real Hotel","alternatenames":[],"lat":4.68997,"lon":-74.04456,"countryCode":"CO"},{"name":"Caviar Hotel","asciiName":"Caviar Hotel","alternatenames":[],"lat":4.62693,"lon":-74.0863,"countryCode":"CO"},{"name":"Charlies Place","asciiName":"Charlies Place","alternatenames":[],"lat":4.68839,"lon":-74.04095,"countryCode":"CO"},{"name":"Charlotte Plaza 26","asciiName":"Charlotte Plaza 26","alternatenames":[],"lat":4.63279,"lon":-74.08629,"countryCode":"CO"},{"name":"Cite","asciiName":"Cite","alternatenames":[],"lat":4.67325,"lon":-74.05368,"countryCode":"CO"},{"name":"Club House Bogota","asciiName":"Club House Bogota","alternatenames":[],"lat":4.69361,"lon":-74.04154,"countryCode":"CO"},{"name":"Confort 80 Castellana","asciiName":"Confort 80 Castellana","alternatenames":[],"lat":4.68323,"lon":-74.05841,"countryCode":"CO"},{"name":"Continental All Suites","asciiName":"Continental All Suites","alternatenames":[],"lat":4.60046,"lon":-74.06908,"countryCode":"CO"},{"name":"Corferias Inn","asciiName":"Corferias Inn","alternatenames":[],"lat":4.6333,"lon":-74.09122,"countryCode":"CO"},{"name":"Cosmos Insignia","asciiName":"Cosmos Insignia","alternatenames":[],"lat":4.68069,"lon":-74.04633,"countryCode":"CO"},{"name":"Dorado Ferial","asciiName":"Dorado Ferial","alternatenames":[],"lat":4.631,"lon":-74.08895,"countryCode":"CO"},{"name":"Downtown Bogota","asciiName":"Downtown Bogota","alternatenames":[],"lat":4.60679,"lon":-74.06647,"countryCode":"CO"},{"name":"El Duque Centro Internacional","asciiName":"El Duque Centro Internacional","alternatenames":[],"lat":4.60978,"lon":-74.07162,"countryCode":"CO"},{"name":"Estelar Apartamentos Aeropuerto Bogota","asciiName":"Estelar Apartamentos Aeropuerto Bogota","alternatenames":[],"lat":4.62716,"lon":-74.08266,"countryCode":"CO"},{"name":"Estelar Calle 100","asciiName":"Estelar Calle 100","alternatenames":[],"lat":4.68461,"lon":-74.04695,"countryCode":"CO"},{"name":"Estelar Paipa Hotel Spa & Centro De Convenciones","asciiName":"Estelar Paipa Hotel Spa & Centro De Convenciones","alternatenames":[],"lat":5.78181,"lon":-73.12598,"countryCode":"CO"},{"name":"Estelar Parque De La 93","asciiName":"Estelar Parque De La 93","alternatenames":[],"lat":4.674,"lon":-74.04691,"countryCode":"CO"},{"name":"Estelar Windsor House","asciiName":"Estelar Windsor House","alternatenames":[],"lat":4.67797,"lon":-74.04356,"countryCode":"CO"},{"name":"Exe Bacata 95","asciiName":"Exe Bacata 95","alternatenames":[],"lat":4.68048,"lon":-74.04911,"countryCode":"CO"},{"name":"Exe Movich Chico 97","asciiName":"Exe Movich Chico 97","alternatenames":[],"lat":4.68156,"lon":-74.04562,"countryCode":"CO"},{"name":"Hilton Bogota","asciiName":"Hilton Bogota","alternatenames":[],"lat":4.65583,"lon":-74.05516,"countryCode":"CO"},{"name":"Holiday Inn Bogota Airport","asciiName":"Holiday Inn Bogota Airport","alternatenames":[],"lat":4.66199,"lon":-74.10979,"countryCode":"CO"},{"name":"Holiday Inn Express Bogota","asciiName":"Holiday Inn Express Bogota","alternatenames":[],"lat":4.67819,"lon":-74.04752,"countryCode":"CO"},{"name":"Hotel 84 Dc","asciiName":"Hotel 84 Dc","alternatenames":[],"lat":4.66651,"lon":-74.05047,"countryCode":"CO"},{"name":"Hotel Abitare 56","asciiName":"Hotel Abitare 56","alternatenames":[],"lat":4.71991,"lon":-73.9667,"countryCode":"CO"},{"name":"Hotel Antique 65","asciiName":"Hotel Antique 65","alternatenames":[],"lat":4.64885,"lon":-74.05843,"countryCode":"CO"},{"name":"Hotel B3 Virrey","asciiName":"Hotel B3 Virrey","alternatenames":[],"lat":4.67378,"lon":-74.05343,"countryCode":"CO"},{"name":"Hotel Barboleta","asciiName":"Hotel Barboleta","alternatenames":[],"lat":4.63191,"lon":-74.08507,"countryCode":"CO"},{"name":"Hotel Bh Parque 93","asciiName":"Hotel Bh Parque 93","alternatenames":[],"lat":4.67787,"lon":-74.05054,"countryCode":"CO"},{"name":"Hotel Bogota City","asciiName":"Hotel Bogota City","alternatenames":[],"lat":4.63214,"lon":-74.09306,"countryCode":"CO"},{"name":"Hotel Casa Deco","asciiName":"Hotel Casa Deco","alternatenames":[],"lat":4.59832,"lon":-74.06971,"countryCode":"CO"},{"name":"Hotel Emporium","asciiName":"Hotel Emporium","alternatenames":[],"lat":4.62848,"lon":-74.08464,"countryCode":"CO"},{"name":"Hotel Esmeralda Real Bogota","asciiName":"Hotel Esmeralda Real Bogota","alternatenames":[],"lat":4.63096,"lon":-74.09329,"countryCode":"CO"},{"name":"Hotel Esmeralda Real Villavicencio","asciiName":"Hotel Esmeralda Real Villavicencio","alternatenames":[],"lat":4.63073,"lon":-74.09292,"countryCode":"CO"},{"name":"Hotel Imperial House","asciiName":"Hotel Imperial House","alternatenames":[],"lat":4.63802,"lon":-74.09354,"countryCode":"CO"},{"name":"Hotel Innova Calle 68","asciiName":"Hotel Innova Calle 68","alternatenames":[],"lat":4.66768,"lon":-74.079,"countryCode":"CO"},{"name":"Hotel Lemus Plaza","asciiName":"Hotel Lemus Plaza","alternatenames":[],"lat":4.62994,"lon":-74.08737,"countryCode":"CO"},{"name":"Hotel Madeleine Suite Er","asciiName":"Hotel Madeleine Suite Er","alternatenames":[],"lat":4.63313,"lon":-74.09309,"countryCode":"CO"},{"name":"Hotel Maria Isabel Bogota","asciiName":"Hotel Maria Isabel Bogota","alternatenames":[],"lat":4.62136,"lon":-74.07068,"countryCode":"CO"},{"name":"Hotel Monserrate","asciiName":"Hotel Monserrate","alternatenames":[],"lat":4.61313,"lon":-74.08439,"countryCode":"CO"},{"name":"Hotel Niza Norte","asciiName":"Hotel Niza Norte","alternatenames":[],"lat":4.71343,"lon":-74.07665,"countryCode":"CO"},{"name":"Hotel Platinum Suite","asciiName":"Hotel Platinum Suite","alternatenames":[],"lat":4.63125,"lon":-74.09295,"countryCode":"CO"},{"name":"Hotel Portal De Oxum","asciiName":"Hotel Portal De Oxum","alternatenames":[],"lat":4.65434,"lon":-74.06257,"countryCode":"CO"},{"name":"Hotel Porton Bogota","asciiName":"Hotel Porton Bogota","alternatenames":[],"lat":4.66462,"lon":-74.04831,"countryCode":"CO"},{"name":"Hotel Quality Comfort House","asciiName":"Hotel Quality Comfort House","alternatenames":[],"lat":4.56768,"lon":-74.16524,"countryCode":"CO"},{"name":"Hotel Ramada Bogota Parque 93","asciiName":"Hotel Ramada Bogota Parque 93","alternatenames":[],"lat":4.68014,"lon":-74.04814,"countryCode":"CO"},{"name":"Hotel Regency Boutique","asciiName":"Hotel Regency Boutique","alternatenames":[],"lat":4.62639,"lon":-74.09944,"countryCode":"CO"},{"name":"Hotel Salitre Rugal","asciiName":"Hotel Salitre Rugal","alternatenames":[],"lat":4.63117,"lon":-74.09335,"countryCode":"CO"},{"name":"Hotel Santa Barbara Real","asciiName":"Hotel Santa Barbara Real","alternatenames":[],"lat":4.70192,"lon":-74.02966,"countryCode":"CO"},{"name":"Hotel Sebastian Inn","asciiName":"Hotel Sebastian Inn","alternatenames":[],"lat":4.6293,"lon":-74.08615,"countryCode":"CO"},{"name":"Hotel Splendor","asciiName":"Hotel Splendor","alternatenames":[],"lat":4.63137,"lon":-74.09305,"countryCode":"CO"},{"name":"Hotel Suites Chico","asciiName":"Hotel Suites Chico","alternatenames":[],"lat":4.69001,"lon":-74.0706,"countryCode":"CO"},{"name":"Hotel Terra 100 Royal","asciiName":"Hotel Terra 100 Royal","alternatenames":[],"lat":4.68646,"lon":-74.05174,"countryCode":"CO"},{"name":"Hotel Urban Royal Calle 26","asciiName":"Hotel Urban Royal Calle 26","alternatenames":[],"lat":4.62949,"lon":-74.08313,"countryCode":"CO"},{"name":"Hotel Virrey Park","asciiName":"Hotel Virrey Park","alternatenames":[],"lat":4.62693,"lon":-74.0863,"countryCode":"CO"},{"name":"Hotel Y Centro De Convenciones Casa De Los Fundado","asciiName":"Hotel Y Centro De Convenciones Casa De Los Fundado","alternatenames":[],"lat":5.639,"lon":-73.53815,"countryCode":"CO"},{"name":"India Chez Moi Casa Hotel","asciiName":"India Chez Moi Casa Hotel","alternatenames":[],"lat":4.69574,"lon":-74.05906,"countryCode":"CO"},{"name":"Le Boheme Royal","asciiName":"Le Boheme Royal","alternatenames":[],"lat":4.66669,"lon":-74.05437,"countryCode":"CO"},{"name":"Lloyds Apartasuites","asciiName":"Lloyds Apartasuites","alternatenames":[],"lat":4.67779,"lon":-74.04602,"countryCode":"CO"},{"name":"Matisse","asciiName":"Matisse","alternatenames":[],"lat":4.65172,"lon":-74.05972,"countryCode":"CO"},{"name":"Minotel Augusta","asciiName":"Minotel Augusta","alternatenames":[],"lat":4.60025,"lon":-74.07137,"countryCode":"CO"},{"name":"Morrison 114","asciiName":"Morrison 114","alternatenames":[],"lat":4.69685,"lon":-74.05001,"countryCode":"CO"},{"name":"Ms Oceania Bogota","asciiName":"Ms Oceania Bogota","alternatenames":[],"lat":4.62693,"lon":-74.0863,"countryCode":"CO"},{"name":"Muisca","asciiName":"Muisca","alternatenames":[],"lat":4.59377,"lon":-74.0704,"countryCode":"CO"},{"name":"Nh Bogota 93","asciiName":"Nh Bogota 93","alternatenames":[],"lat":4.67547,"lon":-74.04944,"countryCode":"CO"},{"name":"Nh Bogota 93","asciiName":"Nh Bogota 93","alternatenames":[],"lat":4.6753,"lon":-74.04941,"countryCode":"CO"},{"name":"Nh Parque De La 93","asciiName":"Nh Parque De La 93","alternatenames":[],"lat":4.67543,"lon":-74.04941,"countryCode":"CO"},{"name":"Nico Apartasuites","asciiName":"Nico Apartasuites","alternatenames":[],"lat":4.65054,"lon":-74.05518,"countryCode":"CO"},{"name":"On Vacation Beach","asciiName":"On Vacation Beach","alternatenames":[],"lat":4.66598,"lon":-74.07411,"countryCode":"CO"},{"name":"Pestana Bogota 100","asciiName":"Pestana Bogota 100","alternatenames":[],"lat":4.68456,"lon":-74.04687,"countryCode":"CO"},{"name":"Americas Luxor Bogota","asciiName":"Americas Luxor Bogota","alternatenames":[],"lat":4.5966,"lon":-74.10677,"countryCode":"CO"},{"name":"Apartahotel 122 Plaza","asciiName":"Apartahotel 122 Plaza","alternatenames":[],"lat":4.70107,"lon":-74.04314,"countryCode":"CO"},{"name":"Apartahotel Splendor","asciiName":"Apartahotel Splendor","alternatenames":[],"lat":4.63161,"lon":-74.09308,"countryCode":"CO"},{"name":"Apartamentos 80 10 Urban Living","asciiName":"Apartamentos 80 10 Urban Living","alternatenames":[],"lat":4.66423,"lon":-74.05299,"countryCode":"CO"},{"name":"Ghl Hotel Bioxury","asciiName":"Ghl Hotel Bioxury","alternatenames":[],"lat":4.66569,"lon":-74.05065,"countryCode":"CO"},{"name":"Ghl Hotel El Belvedere","asciiName":"Ghl Hotel El Belvedere","alternatenames":[],"lat":4.68619,"lon":-74.0503,"countryCode":"CO"},{"name":"Ghl Hotel Hamilton","asciiName":"Ghl Hotel Hamilton","alternatenames":[],"lat":4.6671,"lon":-74.05575,"countryCode":"CO"},{"name":"Hill House Suites","asciiName":"Hill House Suites","alternatenames":[],"lat":4.69687,"lon":-74.02995,"countryCode":"CO"},{"name":"Hotel Dorado Gold","asciiName":"Hotel Dorado Gold","alternatenames":[],"lat":4.67278,"lon":-74.10808,"countryCode":"CO"},{"name":"Jazz Apartments","asciiName":"Jazz Apartments","alternatenames":[],"lat":4.67297,"lon":-74.05452,"countryCode":"CO"},{"name":"Jw Marriott Bogota","asciiName":"Jw Marriott Bogota","alternatenames":[],"lat":4.65701,"lon":-74.05595,"countryCode":"CO"},{"name":"L Auberge Bed & Breakfast","asciiName":"L Auberge Bed & Breakfast","alternatenames":[],"lat":4.69449,"lon":-74.05211,"countryCode":"CO"},{"name":"La Colina Hotel Cottage","asciiName":"La Colina Hotel Cottage","alternatenames":[],"lat":4.74185,"lon":-74.07426,"countryCode":"CO"},{"name":"Macao Colombia","asciiName":"Macao Colombia","alternatenames":[],"lat":4.63355,"lon":-74.09507,"countryCode":"CO"},{"name":"Movich City Business","asciiName":"Movich City Business","alternatenames":[],"lat":4.57902,"lon":-74.12576,"countryCode":"CO"},{"name":"Retiro 84","asciiName":"Retiro 84","alternatenames":[],"lat":4.66694,"lon":-74.04961,"countryCode":"CO"},{"name":"Richmond Suites","asciiName":"Richmond Suites","alternatenames":[],"lat":4.67788,"lon":-74.05409,"countryCode":"CO"},{"name":"Rincon De Santa Barbara","asciiName":"Rincon De Santa Barbara","alternatenames":[],"lat":4.7015,"lon":-74.03069,"countryCode":"CO"},{"name":"Saint Simon Bogota","asciiName":"Saint Simon Bogota","alternatenames":[],"lat":4.66694,"lon":-74.05583,"countryCode":"CO"},{"name":"San Pablo","asciiName":"San Pablo","alternatenames":[],"lat":4.63279,"lon":-74.08708,"countryCode":"CO"},{"name":"Santa Lucia Hotel Spa Boutique","asciiName":"Santa Lucia Hotel Spa Boutique","alternatenames":[],"lat":4.60415,"lon":-74.07168,"countryCode":"CO"},{"name":"Sheridan Bogota","asciiName":"Sheridan Bogota","alternatenames":[],"lat":4.63047,"lon":-74.08855,"countryCode":"CO"},{"name":"Siar Hotel","asciiName":"Siar Hotel","alternatenames":[],"lat":4.64088,"lon":-74.07463,"countryCode":"CO"},{"name":"Sofitel Bogota Victoria Regia","asciiName":"Sofitel Bogota Victoria Regia","alternatenames":[],"lat":4.67018,"lon":-74.05311,"countryCode":"CO"},{"name":"Sonesta Bogota","asciiName":"Sonesta Bogota","alternatenames":[],"lat":4.70352,"lon":-74.04361,"countryCode":"CO"},{"name":"Suite Jones Estelar Hotel","asciiName":"Suite Jones Estelar Hotel","alternatenames":[],"lat":4.64688,"lon":-74.06021,"countryCode":"CO"},{"name":"Suite Real 85","asciiName":"Suite Real 85","alternatenames":[],"lat":4.66902,"lon":-74.0579,"countryCode":"CO"},{"name":"Suites Cabrera Imperial","asciiName":"Suites Cabrera Imperial","alternatenames":[],"lat":4.66585,"lon":-74.05078,"countryCode":"CO"},{"name":"Suites Real 97","asciiName":"Suites Real 97","alternatenames":[],"lat":4.68046,"lon":-74.04373,"countryCode":"CO"},{"name":"Tequendama Intercontinental","asciiName":"Tequendama Intercontinental","alternatenames":[],"lat":4.6177,"lon":-74.0731,"countryCode":"CO"},{"name":"The Book Hotel","asciiName":"The Book Hotel","alternatenames":[],"lat":4.64285,"lon":-74.06125,"countryCode":"CO"},{"name":"The Click Clack Hotel Bogotá","asciiName":"The Click Clack Hotel Bogota","alternatenames":[],"lat":4.67529,"lon":-74.0474,"countryCode":"CO"},{"name":"The Orchids Hotel","asciiName":"The Orchids Hotel","alternatenames":[],"lat":4.59679,"lon":-74.07395,"countryCode":"CO"},{"name":"Tivoli Suites","asciiName":"Tivoli Suites","alternatenames":[],"lat":4.63032,"lon":-74.08236,"countryCode":"CO"},{"name":"Travelers Apartamentos Y Suites Condominioplenitud","asciiName":"Travelers Apartamentos Y Suites Condominioplenitud","alternatenames":[],"lat":4.70436,"lon":-74.0431,"countryCode":"CO"},{"name":"Travelers Apartamentos Y Suites Fontana Plaza","asciiName":"Travelers Apartamentos Y Suites Fontana Plaza","alternatenames":[],"lat":4.70507,"lon":-74.04256,"countryCode":"CO"},{"name":"Travelers Apartamentos Y Suites Gold","asciiName":"Travelers Apartamentos Y Suites Gold","alternatenames":[],"lat":4.57697,"lon":-74.11473,"countryCode":"CO"},{"name":"Travelers Apartamentos Y Suites Obelisco","asciiName":"Travelers Apartamentos Y Suites Obelisco","alternatenames":[],"lat":4.69442,"lon":-74.03867,"countryCode":"CO"},{"name":"Tryp Bogota","asciiName":"Tryp Bogota","alternatenames":[],"lat":4.63922,"lon":-74.09794,"countryCode":"CO"},{"name":"Tryp Bogota Embajada","asciiName":"Tryp Bogota Embajada","alternatenames":[],"lat":4.63907,"lon":-74.09802,"countryCode":"CO"},{"name":"Tryp Bogota Usaquen","asciiName":"Tryp Bogota Usaquen","alternatenames":[],"lat":4.69725,"lon":-74.03058,"countryCode":"CO"},{"name":"Usaquen Art Suites","asciiName":"Usaquen Art Suites","alternatenames":[],"lat":4.69376,"lon":-74.03011,"countryCode":"CO"},{"name":"Viaggio 617","asciiName":"Viaggio 617","alternatenames":[],"lat":4.64637,"lon":-74.06091,"countryCode":"CO"},{"name":"Viaggio Nueve Trez","asciiName":"Viaggio Nueve Trez","alternatenames":[],"lat":4.57062,"lon":-74.12624,"countryCode":"CO"},{"name":"Viaggio Nueve Trez","asciiName":"Viaggio Nueve Trez","alternatenames":[],"lat":4.67931,"lon":-74.05319,"countryCode":"CO"},{"name":"Viaggio Urbano","asciiName":"Viaggio Urbano","alternatenames":[],"lat":4.63129,"lon":-74.06219,"countryCode":"CO"},{"name":"Wyndham Bogota Art","asciiName":"Wyndham Bogota Art","alternatenames":[],"lat":4.63885,"lon":-74.09821,"countryCode":"CO"},{"name":"Rosales Plaza","asciiName":"Rosales Plaza","alternatenames":[],"lat":4.65328,"lon":-74.05459,"countryCode":"CO"},{"name":"Hotel 93 Luxury & Residences","asciiName":"Hotel 93 Luxury & Residences","alternatenames":[],"lat":4.67666,"lon":-74.05042,"countryCode":"CO"},{"name":"Hotel Airport Travel","asciiName":"Hotel Airport Travel","alternatenames":[],"lat":4.67224,"lon":-74.10899,"countryCode":"CO"},{"name":"Hotel Casa Mahanaim","asciiName":"Hotel Casa Mahanaim","alternatenames":[],"lat":4.63219,"lon":-74.09114,"countryCode":"CO"},{"name":"Biohotel Organic Suites","asciiName":"Biohotel Organic Suites","alternatenames":[],"lat":4.7002,"lon":-74.0295,"countryCode":"CO"},{"name":"Hotel Ghl 93","asciiName":"Hotel Ghl 93","alternatenames":[],"lat":4.67464,"lon":-74.0485,"countryCode":"CO"},{"name":"Hotel Urban Royal Calle 93B","asciiName":"Hotel Urban Royal Calle 93B","alternatenames":[],"lat":4.68014,"lon":-74.05368,"countryCode":"CO"},{"name":"Movich Buro 26 Hotel","asciiName":"Movich Buro 26 Hotel","alternatenames":[],"lat":4.68965,"lon":-74.13055,"countryCode":"CO"},{"name":"Best Western Atlantic Suites","asciiName":"Best Western Atlantic Suites","alternatenames":[],"lat":10.99594,"lon":-74.80061,"countryCode":"CO"},{"name":"On Vacation Tower","asciiName":"On Vacation Tower","alternatenames":[],"lat":12.58368,"lon":-81.69923,"countryCode":"CO"},{"name":"122 Plaza Aparta Hotel","asciiName":"122 Plaza Aparta Hotel","alternatenames":[],"lat":4.70117,"lon":-74.04385,"countryCode":"CO"},{"name":"Agua Bed And Breakfast","asciiName":"Agua Bed And Breakfast","alternatenames":[],"lat":10.42429,"lon":-75.55073,"countryCode":"CO"},{"name":"Allure Bonbon Hotel By Karisma","asciiName":"Allure Bonbon Hotel By Karisma","alternatenames":[],"lat":10.41875,"lon":-75.54679,"countryCode":"CO"},{"name":"American Golf Hotel","asciiName":"American Golf Hotel","alternatenames":[],"lat":11.00954,"lon":-74.81137,"countryCode":"CO"},{"name":"Andino Hotel (Bucaramanga)","asciiName":"Andino Hotel (Bucaramanga)","alternatenames":[],"lat":7.12029,"lon":-73.12425,"countryCode":"CO"},{"name":"Apartaestudios 5 Elementos","asciiName":"Apartaestudios 5 Elementos","alternatenames":[],"lat":4.63352,"lon":-74.09084,"countryCode":"CO"},{"name":"Arthur House","asciiName":"Arthur House","alternatenames":[],"lat":10.41684,"lon":-75.5435,"countryCode":"CO"},{"name":"Blue Tone Hotel","asciiName":"Blue Tone Hotel","alternatenames":[],"lat":12.58594,"lon":-81.69717,"countryCode":"CO"},{"name":"Casa Baluarte","asciiName":"Casa Baluarte","alternatenames":[],"lat":10.42262,"lon":-75.54454,"countryCode":"CO"},{"name":"Casa De La Botica Hotel","asciiName":"Casa De La Botica Hotel","alternatenames":[],"lat":4.59721,"lon":-74.07766,"countryCode":"CO"},{"name":"Casa Eden Cartagena","asciiName":"Casa Eden Cartagena","alternatenames":[],"lat":10.4224,"lon":-75.54916,"countryCode":"CO"},{"name":"Casa Harb Hotel","asciiName":"Casa Harb Hotel","alternatenames":[],"lat":12.57633,"lon":-81.7018,"countryCode":"CO"},{"name":"Casa Jardín Hotel Boutique","asciiName":"Casa Jardin Hotel Boutique","alternatenames":[],"lat":12.58808,"lon":-81.70294,"countryCode":"CO"},{"name":"Casa Polty","asciiName":"Casa Polty","alternatenames":[],"lat":5.0693,"lon":-75.51749,"countryCode":"CO"},{"name":"Chezmoi Zuetana Casa","asciiName":"Chezmoi Zuetana Casa","alternatenames":[],"lat":4.69572,"lon":-74.05898,"countryCode":"CO"},{"name":"Cocoliso Isla Resort","asciiName":"Cocoliso Isla Resort","alternatenames":[],"lat":10.39908,"lon":-75.56102,"countryCode":"CO"},{"name":"Cosmos Pacifico Hotel","asciiName":"Cosmos Pacifico Hotel","alternatenames":[],"lat":3.88357,"lon":-77.04768,"countryCode":"CO"},{"name":"Decameron Las Heliconias","asciiName":"Decameron Las Heliconias","alternatenames":[],"lat":4.62478,"lon":-75.78812,"countryCode":"CO"},{"name":"El Arupo Hostel","asciiName":"El Arupo Hostel","alternatenames":[],"lat":6.20119,"lon":-75.56544,"countryCode":"CO"},{"name":"Emblema Playa Manzanillo","asciiName":"Emblema Playa Manzanillo","alternatenames":[],"lat":10.52256,"lon":-75.49022,"countryCode":"CO"},{"name":"Estelar Isla Tierrabomba","asciiName":"Estelar Isla Tierrabomba","alternatenames":[],"lat":10.36593,"lon":-75.55034,"countryCode":"CO"},{"name":"Hacienda El Roble","asciiName":"Hacienda El Roble","alternatenames":[],"lat":6.8627,"lon":-73.04502,"countryCode":"CO"},{"name":"Hotel Casa Americana","asciiName":"Hotel Casa Americana","alternatenames":[],"lat":4.63646,"lon":-74.09376,"countryCode":"CO"},{"name":"Hotel Casa De La Embajada","asciiName":"Hotel Casa De La Embajada","alternatenames":[],"lat":4.67113,"lon":-74.12144,"countryCode":"CO"},{"name":"Hotel Casona Usaquen","asciiName":"Hotel Casona Usaquen","alternatenames":[],"lat":4.69405,"lon":-74.03133,"countryCode":"CO"},{"name":"Tryp By Wyndham Bucaramanga Cabecera","asciiName":"Tryp By Wyndham Bucaramanga Cabecera","alternatenames":[],"lat":7.12229,"lon":-73.10861,"countryCode":"CO"},{"name":"Teusaquillo Boutique Hotel","asciiName":"Teusaquillo Boutique Hotel","alternatenames":[],"lat":4.62669,"lon":-74.07266,"countryCode":"CO"},{"name":"Termales El Otoño Hotel Y Centro De Convenciones","asciiName":"Termales El Otono Hotel Y Centro De Convenciones","alternatenames":[],"lat":5.04168,"lon":-75.42367,"countryCode":"CO"},{"name":"Sansiraka Hotel","asciiName":"Sansiraka Hotel","alternatenames":[],"lat":11.25244,"lon":-74.20994,"countryCode":"CO"},{"name":"Plaza Santa Maria","asciiName":"Plaza Santa Maria","alternatenames":[],"lat":4.6132,"lon":-74.06874,"countryCode":"CO"},{"name":"Hotel Fj Boutique","asciiName":"Hotel Fj Boutique","alternatenames":[],"lat":4.63295,"lon":-74.09333,"countryCode":"CO"},{"name":"Hotel Mariscal Robledo","asciiName":"Hotel Mariscal Robledo","alternatenames":[],"lat":6.55687,"lon":-75.82759,"countryCode":"CO"},{"name":"Hotel Miranda House","asciiName":"Hotel Miranda House","alternatenames":[],"lat":4.63629,"lon":-74.09416,"countryCode":"CO"},{"name":"Hotel Yuldama Rodadero Inn","asciiName":"Hotel Yuldama Rodadero Inn","alternatenames":[],"lat":11.20208,"lon":-74.22588,"countryCode":"CO"},{"name":"La Floresta Campestre (Ex.Finca La Floresta)","asciiName":"La Floresta Campestre (Ex.Finca La Floresta)","alternatenames":[],"lat":4.53138,"lon":-75.6985,"countryCode":"CO"},{"name":"Madaura Hotel De Aventura Y Centro De Convenciones","asciiName":"Madaura Hotel De Aventura Y Centro De Convenciones","alternatenames":[],"lat":4.30154,"lon":-74.47446,"countryCode":"CO"},{"name":"Master Chipichape Hotel","asciiName":"Master Chipichape Hotel","alternatenames":[],"lat":3.481,"lon":-76.52513,"countryCode":"CO"},{"name":"Molicie","asciiName":"Molicie","alternatenames":[],"lat":6.26713,"lon":-75.59236,"countryCode":"CO"},{"name":"Monticelo Hotel","asciiName":"Monticelo Hotel","alternatenames":[],"lat":6.30886,"lon":-75.57897,"countryCode":"CO"},{"name":"Ms Castellana Cali","asciiName":"Ms Castellana Cali","alternatenames":[],"lat":3.42567,"lon":-76.52808,"countryCode":"CO"},{"name":"On Vacation Blue Cove","asciiName":"On Vacation Blue Cove","alternatenames":[],"lat":12.52795,"lon":-81.73265,"countryCode":"CO"},{"name":"On Vacation Blue Tone","asciiName":"On Vacation Blue Tone","alternatenames":[],"lat":12.58571,"lon":-81.69706,"countryCode":"CO"},{"name":"Patio De La Cruz","asciiName":"Patio De La Cruz","alternatenames":[],"lat":10.42582,"lon":-75.54645,"countryCode":"CO"},{"name":"Patio De San Diego Hotel","asciiName":"Patio De San Diego Hotel","alternatenames":[],"lat":10.42671,"lon":-75.54556,"countryCode":"CO"},{"name":"Now Hotel","asciiName":"Now Hotel","alternatenames":[],"lat":3.45706,"lon":-76.53666,"countryCode":"CO"},{"name":"Casa Boutique Reconquista","asciiName":"Casa Boutique Reconquista","alternatenames":[],"lat":10.42827,"lon":-75.5473,"countryCode":"CO"},{"name":"Kikuxtah","asciiName":"Kikuxtah","alternatenames":[],"lat":11.26708,"lon":-74.18898,"countryCode":"CO"},{"name":"Hotel Boutique Zona G","asciiName":"Hotel Boutique Zona G","alternatenames":[],"lat":4.65145,"lon":-74.05557,"countryCode":"CO"},{"name":"Hotel Casa Lozada","asciiName":"Hotel Casa Lozada","alternatenames":[],"lat":4.67755,"lon":-74.05237,"countryCode":"CO"},{"name":"Kartaxa","asciiName":"Kartaxa","alternatenames":[],"lat":10.42859,"lon":-75.54734,"countryCode":"CO"},{"name":"Hotel Casa Piedrahita","asciiName":"Hotel Casa Piedrahita","alternatenames":[],"lat":10.42305,"lon":-75.54938,"countryCode":"CO"},{"name":"Palmetto Apartamentos","asciiName":"Palmetto Apartamentos","alternatenames":[],"lat":10.40122,"lon":-75.55862,"countryCode":"CO"},{"name":"Black Tower Premium","asciiName":"Black Tower Premium","alternatenames":[],"lat":4.63223,"lon":-74.09396,"countryCode":"CO"},{"name":"Bogotá Expocomfort","asciiName":"Bogota Expocomfort","alternatenames":[],"lat":4.63286,"lon":-74.09048,"countryCode":"CO"},{"name":"La Niña Hostel","asciiName":"La Nina Hostel","alternatenames":[],"lat":4.64871,"lon":-74.05666,"countryCode":"CO"},{"name":"Casa Los Puntales","asciiName":"Casa Los Puntales","alternatenames":[],"lat":10.42666,"lon":-75.54726,"countryCode":"CO"},{"name":"Bastión Luxury Hotel","asciiName":"Bastion Luxury Hotel","alternatenames":[],"lat":10.42595,"lon":-75.54848,"countryCode":"CO"},{"name":"Portobelo","asciiName":"Portobelo","alternatenames":[],"lat":4.64591,"lon":-74.0685,"countryCode":"CO"},{"name":"Portofino","asciiName":"Portofino","alternatenames":[],"lat":4.64124,"lon":-74.07558,"countryCode":"CO"},{"name":"6 Suites Hotel","asciiName":"6 Suites Hotel","alternatenames":[],"lat":4.64711,"lon":-74.05665,"countryCode":"CO"},{"name":"Hotel Ferrovial","asciiName":"Hotel Ferrovial","alternatenames":[],"lat":4.62987,"lon":-74.09462,"countryCode":"CO"},{"name":"Hotel Stanford Plaza","asciiName":"Hotel Stanford Plaza","alternatenames":[],"lat":11.00205,"lon":-74.81969,"countryCode":"CO"},{"name":"Miami Inn","asciiName":"Miami Inn","alternatenames":[],"lat":3.45052,"lon":-76.53035,"countryCode":"CO"},{"name":"Hotel Estadio Real","asciiName":"Hotel Estadio Real","alternatenames":[],"lat":6.25895,"lon":-75.59537,"countryCode":"CO"},{"name":"Hotel Casa Mayor","asciiName":"Hotel Casa Mayor","alternatenames":[],"lat":6.25916,"lon":-75.59522,"countryCode":"CO"},{"name":"Casona Del Patio","asciiName":"Casona Del Patio","alternatenames":[],"lat":4.65258,"lon":-74.05843,"countryCode":"CO"},{"name":"Casa De La Trinidad","asciiName":"Casa De La Trinidad","alternatenames":[],"lat":10.42287,"lon":-75.54587,"countryCode":"CO"},{"name":"Quinta Avenida","asciiName":"Quinta Avenida","alternatenames":[],"lat":6.24702,"lon":-75.58855,"countryCode":"CO"},{"name":"Valladolid","asciiName":"Valladolid","alternatenames":[],"lat":11.26941,"lon":-74.19009,"countryCode":"CO"},{"name":"Hotel Sauces Del Estadio","asciiName":"Hotel Sauces Del Estadio","alternatenames":[],"lat":6.25735,"lon":-75.58558,"countryCode":"CO"},{"name":"51 Plaza","asciiName":"51 Plaza","alternatenames":[],"lat":4.63792,"lon":-74.06313,"countryCode":"CO"},{"name":"Be La Sierra","asciiName":"Be La Sierra","alternatenames":[],"lat":11.25088,"lon":-74.21263,"countryCode":"CO"},{"name":"La Mansion","asciiName":"La Mansion","alternatenames":[],"lat":4.68766,"lon":-74.04945,"countryCode":"CO"},{"name":"Hotel Recinto Del Pensamiento","asciiName":"Hotel Recinto Del Pensamiento","alternatenames":[],"lat":5.03864,"lon":-75.44638,"countryCode":"CO"},{"name":"Los Recuerdos","asciiName":"Los Recuerdos","alternatenames":[],"lat":6.19113,"lon":-75.16651,"countryCode":"CO"},{"name":"Galeria Real","asciiName":"Galeria Real","alternatenames":[],"lat":4.64128,"lon":-74.07874,"countryCode":"CO"},{"name":"Business Center Hotel","asciiName":"Business Center Hotel","alternatenames":[],"lat":4.6327,"lon":-74.09025,"countryCode":"CO"},{"name":"Real Estacion","asciiName":"Real Estacion","alternatenames":[],"lat":4.63282,"lon":-74.08937,"countryCode":"CO"},{"name":"Fontibon","asciiName":"Fontibon","alternatenames":[],"lat":4.67075,"lon":-74.14419,"countryCode":"CO"},{"name":"Hotel Calasanz Real","asciiName":"Hotel Calasanz Real","alternatenames":[],"lat":6.26368,"lon":-75.59777,"countryCode":"CO"},{"name":"Boutique City","asciiName":"Boutique City","alternatenames":[],"lat":4.63207,"lon":-74.08977,"countryCode":"CO"},{"name":"Hotel Bogotá Colonial","asciiName":"Hotel Bogota Colonial","alternatenames":[],"lat":4.6307,"lon":-74.09573,"countryCode":"CO"},{"name":"Hotel La Estacion Corferias","asciiName":"Hotel La Estacion Corferias","alternatenames":[],"lat":4.62957,"lon":-74.09462,"countryCode":"CO"},{"name":"Mangle","asciiName":"Mangle","alternatenames":[],"lat":10.51442,"lon":-75.49829,"countryCode":"CO"},{"name":"Fairfield Inn & Suites New York Queens Queensboro Bridge","asciiName":"Fairfield Inn & Suites New York Queens Queensboro Bridge","alternatenames":[],"lat":0,"lon":-73.93566,"countryCode":"CO"},{"name":"El Dorado Torre Andes","asciiName":"El Dorado Torre Andes","alternatenames":[],"lat":10.39635,"lon":-75.49487,"countryCode":"CO"},{"name":"Playa Club","asciiName":"Playa Club","alternatenames":[],"lat":10.39635,"lon":-75.49487,"countryCode":"CO"},{"name":"Torre de Cali Plaza","asciiName":"Torre de Cali Plaza","alternatenames":[],"lat":3.4585,"lon":-76.52906,"countryCode":"CO"},{"name":"Hotel Movich Casa del Alferez","asciiName":"Hotel Movich Casa del Alferez","alternatenames":[],"lat":3.45578,"lon":-76.53704,"countryCode":"CO"},{"name":"Casa Lola Luxury Collection","asciiName":"Casa Lola Luxury Collection","alternatenames":[],"lat":10.41373,"lon":-75.53358,"countryCode":"CO"},{"name":"Sercotel The Charlee LifeStyle","asciiName":"Sercotel The Charlee LifeStyle","alternatenames":[],"lat":6.20872,"lon":-75.56699,"countryCode":"CO"},{"name":"Hoteles America","asciiName":"Hoteles America","alternatenames":[],"lat":4.62972,"lon":-74.10004,"countryCode":"CO"},{"name":"Isla Arena Plaza","asciiName":"Isla Arena Plaza","alternatenames":[],"lat":10.36531,"lon":-75.55478,"countryCode":"CO"},{"name":"Las Americas Casa de Playa","asciiName":"Las Americas Casa de Playa","alternatenames":[],"lat":10.46009,"lon":-75.50613,"countryCode":"CO"},{"name":"Suites Jones Estelar","asciiName":"Suites Jones Estelar","alternatenames":[],"lat":4.64592,"lon":-74.06026,"countryCode":"CO"},{"name":"Sofitel Cartagena Santa Clara","asciiName":"Sofitel Cartagena Santa Clara","alternatenames":[],"lat":10.42877,"lon":-75.54799,"countryCode":"CO"},{"name":"Apart Suites Tequendama","asciiName":"Apart Suites Tequendama","alternatenames":[],"lat":4.61283,"lon":-74.0704,"countryCode":"CO"},{"name":"Las Americas Torre Del Mar","asciiName":"Las Americas Torre Del Mar","alternatenames":[],"lat":10.46038,"lon":-75.50543,"countryCode":"CO"},