[{"name":"Hotel Fuentebravía","asciiName":"Hotel Fuentebravia","alternatenames":[],"lat":36.61222,"lon":-6.28806,"countryCode":"ES"},{"name":"Hotel Atlántico","asciiName":"Hotel Atlantico","alternatenames":[],"lat":36.53444,"lon":-6.30556,"countryCode":"ES"},{"name":"Meliá Alicante","asciiName":"Melia Alicante","alternatenames":[],"lat":38.34269,"lon":-0.47866,"countryCode":"ES"},{"name":"Husa Alicante Golf & Spa","asciiName":"Husa Alicante Golf & Spa","alternatenames":[],"lat":38.37511,"lon":-0.42154,"countryCode":"ES"},{"name":"Hotel Amérigo *****","asciiName":"Hotel Amerigo *****","alternatenames":[],"lat":38.34449,"lon":-0.4828,"countryCode":"ES"},{"name":"Tryp Gran Sol","asciiName":"Tryp Gran Sol","alternatenames":[],"lat":38.34387,"lon":-0.48338,"countryCode":"ES"},{"name":"Gran Fiesta","asciiName":"Gran Fiesta","alternatenames":["Gran Fiesta Playa de Palma"],"lat":39.52522,"lon":2.7358,"countryCode":"ES"},{"name":"Iberostar Selection Playa de Palma","asciiName":"Iberostar Selection Playa de Palma","alternatenames":[],"lat":39.52311,"lon":2.73815,"countryCode":"ES"},{"name":"Cal Martri","asciiName":"Cal Martri","alternatenames":[],"lat":42.41184,"lon":1.84239,"countryCode":"ES"},{"name":"Parador de Málaga Golf","asciiName":"Parador de Malaga Golf","alternatenames":[],"lat":36.65133,"lon":-4.47488,"countryCode":"ES"},{"name":"Novo Sancti Petri","asciiName":"Novo Sancti Petri","alternatenames":[],"lat":36.35182,"lon":-6.15934,"countryCode":"ES"},{"name":"SALOU SUITE Hotel","asciiName":"SALOU SUITE Hotel","alternatenames":[],"lat":41.07,"lon":1.1508,"countryCode":"ES"},{"name":"Boix Mar Hotel","asciiName":"Boix Mar Hotel","alternatenames":[],"lat":41.6624,"lon":2.7796,"countryCode":"ES"},{"name":"MARINA PORTALS Hotel","asciiName":"MARINA PORTALS Hotel","alternatenames":[],"lat":39.5362,"lon":2.5705,"countryCode":"ES"},{"name":"EL DORADO Apartamentos","asciiName":"EL DORADO Apartamentos","alternatenames":[],"lat":28.9218,"lon":-13.6679,"countryCode":"ES"},{"name":"Hotel Subur","asciiName":"Hotel Subur","alternatenames":[],"lat":41.23471,"lon":1.80659,"countryCode":"ES"},{"name":"Atenea","asciiName":"Atenea","alternatenames":[],"lat":38.5427,"lon":-0.1347,"countryCode":"ES"},{"name":"BRISAMAR Aparthotel","asciiName":"BRISAMAR Aparthotel","alternatenames":[],"lat":28.73261,"lon":-13.87071,"countryCode":"ES"},{"name":"Hostal de la Gloria","asciiName":"Hostal de la Gloria","alternatenames":[],"lat":41.8474,"lon":2.3911,"countryCode":"ES"},{"name":"Sirena I","asciiName":"Sirena I","alternatenames":[],"lat":38.9673,"lon":1.2986,"countryCode":"ES"},{"name":"Blaumar Hotel","asciiName":"Blaumar Hotel","alternatenames":[],"lat":41.65997,"lon":2.78061,"countryCode":"ES"},{"name":"Hotel Cram","asciiName":"Hotel Cram","alternatenames":[],"lat":41.38801,"lon":2.1601,"countryCode":"ES"},{"name":"tent Lloret de Mar","asciiName":"tent Lloret de Mar","alternatenames":[],"lat":41.70095,"lon":2.84547,"countryCode":"ES"},{"name":"hostal sant bernat","asciiName":"hostal sant bernat","alternatenames":[],"lat":42.19379,"lon":2.48952,"countryCode":"ES"},{"name":"Club Puerta del Sol","asciiName":"Club Puerta del Sol","alternatenames":[],"lat":36.5974,"lon":-4.6325,"countryCode":"ES"},{"name":"Oasis Park Calella Hotel","asciiName":"Oasis Park Calella Hotel","alternatenames":[],"lat":41.6125,"lon":2.6499,"countryCode":"ES"},{"name":"Les Oliveres","asciiName":"Les Oliveres","alternatenames":[],"lat":40.8284,"lon":0.7432,"countryCode":"ES"},{"name":"PRESTIGE GOYA PARK Hotel","asciiName":"PRESTIGE GOYA PARK Hotel","alternatenames":[],"lat":42.26575,"lon":3.15599,"countryCode":"ES"},{"name":"MALAGA CENTRO Hotel","asciiName":"MALAGA CENTRO Hotel","alternatenames":[],"lat":36.7216,"lon":-4.4264,"countryCode":"ES"},{"name":"AC Hotel Zaragoza Los Enlaces","asciiName":"AC Hotel Zaragoza Los Enlaces","alternatenames":[],"lat":41.64923,"lon":-0.92054,"countryCode":"ES"},{"name":"Hotel ILUNION Pío XII","asciiName":"Hotel ILUNION Pio XII","alternatenames":[],"lat":40.46898,"lon":-3.67353,"countryCode":"ES"},{"name":"Hotel HCC Sant Moritz","asciiName":"Hotel HCC Sant Moritz","alternatenames":[],"lat":41.3908,"lon":2.1676,"countryCode":"ES"},{"name":"Sercotel AB ARGANDA","asciiName":"Sercotel AB ARGANDA","alternatenames":[],"lat":40.30656,"lon":-3.46806,"countryCode":"ES"},{"name":"Melia Benidorm","asciiName":"Melia Benidorm","alternatenames":[],"lat":38.5409,"lon":-0.104,"countryCode":"ES"},{"name":"OLIVA NOVA GOLF Hotel","asciiName":"OLIVA NOVA GOLF Hotel","alternatenames":[],"lat":38.8948,"lon":-0.0624,"countryCode":"ES"},{"name":"Gran Hotel Elba Motril","asciiName":"Gran Hotel Elba Motril","alternatenames":[],"lat":36.7233,"lon":-3.5388,"countryCode":"ES"},{"name":"Gran Melia Volcan Lanzarote","asciiName":"Gran Melia Volcan Lanzarote","alternatenames":[],"lat":28.8561,"lon":-13.8108,"countryCode":"ES"},{"name":"Hotel H10 Andalucia Plaza","asciiName":"Hotel H10 Andalucia Plaza","alternatenames":[],"lat":36.48844,"lon":-4.96129,"countryCode":"ES"},{"name":"Hotel Alcazar","asciiName":"Hotel Alcazar","alternatenames":[],"lat":37.3833,"lon":-5.9871,"countryCode":"ES"},{"name":"Petit Palace Arturo Soria","asciiName":"Petit Palace Arturo Soria","alternatenames":[],"lat":40.43947,"lon":-3.63881,"countryCode":"ES"},{"name":"FG De Los Reyes","asciiName":"FG De Los Reyes","alternatenames":[],"lat":40.5609,"lon":-3.6312,"countryCode":"ES"},{"name":"Hotel Partner Ciudadela","asciiName":"Hotel Partner Ciudadela","alternatenames":[],"lat":42.8165,"lon":-1.6421,"countryCode":"ES"},{"name":"Amaltea Hotel Spa Center","asciiName":"Amaltea Hotel Spa Center","alternatenames":[],"lat":37.65507,"lon":-1.71118,"countryCode":"ES"},{"name":"Sercotel BOSTON","asciiName":"Sercotel BOSTON","alternatenames":[],"lat":41.64544,"lon":-0.87673,"countryCode":"ES"},{"name":"Hesperia Del Mar","asciiName":"Hesperia Del Mar","alternatenames":[],"lat":41.4014,"lon":2.2099,"countryCode":"ES"},{"name":"VIK SAN ANTONIO Hotel","asciiName":"VIK SAN ANTONIO Hotel","alternatenames":[],"lat":28.92139,"lon":-13.64115,"countryCode":"ES"},{"name":"MACIA CONDOR Hotel","asciiName":"MACIA CONDOR Hotel","alternatenames":[],"lat":37.1839,"lon":-3.6035,"countryCode":"ES"},{"name":"AC Hotel Palencia","asciiName":"AC Hotel Palencia","alternatenames":[],"lat":42.01359,"lon":-4.52173,"countryCode":"ES"},{"name":"MACIA ALFAROS Hotel","asciiName":"MACIA ALFAROS Hotel","alternatenames":[],"lat":37.88604,"lon":-4.77619,"countryCode":"ES"},{"name":"Hotel Amic Colon","asciiName":"Hotel Amic Colon","alternatenames":[],"lat":39.5806,"lon":2.6523,"countryCode":"ES"},{"name":"ZENIT LOGROÑO Hotel","asciiName":"ZENIT LOGRONO Hotel","alternatenames":[],"lat":42.47268,"lon":-2.4171,"countryCode":"ES"},{"name":"Hotel M.A. Luna Arabial","asciiName":"Hotel M.A. Luna Arabial","alternatenames":[],"lat":37.17668,"lon":-3.6115,"countryCode":"ES"},{"name":"Nh Palacio Del Duero","asciiName":"Nh Palacio Del Duero","alternatenames":[],"lat":41.501,"lon":-5.744,"countryCode":"ES"},{"name":"Sercotel SELU","asciiName":"Sercotel SELU","alternatenames":[],"lat":37.8843,"lon":-4.7839,"countryCode":"ES"},{"name":"Husa Barcelona","asciiName":"Husa Barcelona","alternatenames":[],"lat":41.3886,"lon":2.1697,"countryCode":"ES"},{"name":"Mardavall Hotel & Spa","asciiName":"Mardavall Hotel & Spa","alternatenames":[],"lat":39.527,"lon":2.538,"countryCode":"ES"},{"name":"H10 Villa De La Reina","asciiName":"H10 Villa De La Reina","alternatenames":[],"lat":40.4199,"lon":-3.701,"countryCode":"ES"},{"name":"AC Hotel Alcalá de Henares","asciiName":"AC Hotel Alcala de Henares","alternatenames":[],"lat":40.50293,"lon":-3.36614,"countryCode":"ES"},{"name":"BARCELO PUNTA UMBRIA","asciiName":"BARCELO PUNTA UMBRIA","alternatenames":[],"lat":37.18516,"lon":-6.98125,"countryCode":"ES"},{"name":"Silken Monumental Naranco","asciiName":"Silken Monumental Naranco","alternatenames":[],"lat":43.3633,"lon":-5.8471,"countryCode":"ES"},{"name":"NH Leganes","asciiName":"NH Leganes","alternatenames":[],"lat":40.3272,"lon":-3.7453,"countryCode":"ES"},{"name":"Eurostars Grand Marina","asciiName":"Eurostars Grand Marina","alternatenames":[],"lat":41.3723,"lon":2.1795,"countryCode":"ES"},{"name":"Silken Villa De Aviles","asciiName":"Silken Villa De Aviles","alternatenames":[],"lat":43.5621,"lon":-5.9067,"countryCode":"ES"},{"name":"Nuevo Triunfo","asciiName":"Nuevo Triunfo","alternatenames":[],"lat":41.3731,"lon":2.17,"countryCode":"ES"},{"name":"AC Hotel Ciudad de Tudela","asciiName":"AC Hotel Ciudad de Tudela","alternatenames":[],"lat":42.06065,"lon":-1.60816,"countryCode":"ES"},{"name":"AC ELCHE Hotel","asciiName":"AC ELCHE Hotel","alternatenames":[],"lat":38.27886,"lon":-0.71974,"countryCode":"ES"},{"name":"ALMIRANTE","asciiName":"ALMIRANTE","alternatenames":[],"lat":43.4862,"lon":-8.2295,"countryCode":"ES"},{"name":"Hotel Sant Agustin","asciiName":"Hotel Sant Agustin","alternatenames":[],"lat":41.3577,"lon":2.1573,"countryCode":"ES"},{"name":"AMERICA BARCELONA Hotel","asciiName":"AMERICA BARCELONA Hotel","alternatenames":[],"lat":41.39185,"lon":2.15736,"countryCode":"ES"},{"name":"Macia Monasterio de los Basilios","asciiName":"Macia Monasterio de los Basilios","alternatenames":[],"lat":37.16833,"lon":-3.59513,"countryCode":"ES"},{"name":"Ciutat Mollet Hotel","asciiName":"Ciutat Mollet Hotel","alternatenames":[],"lat":41.5478,"lon":2.2078,"countryCode":"ES"},{"name":"PARTNER IMORA Hotel","asciiName":"PARTNER IMORA Hotel","alternatenames":[],"lat":37.784,"lon":-3.8263,"countryCode":"ES"},{"name":"VULCANO Hotel","asciiName":"VULCANO Hotel","alternatenames":[],"lat":28.05679,"lon":-16.73044,"countryCode":"ES"},{"name":"Silken Park Hotel San Jorge","asciiName":"Silken Park Hotel San Jorge","alternatenames":[],"lat":41.8246,"lon":3.0763,"countryCode":"ES"},{"name":"Hotel ILUNION Suites Madrid","asciiName":"Hotel ILUNION Suites Madrid","alternatenames":[],"lat":40.4478,"lon":-3.66897,"countryCode":"ES"},{"name":"PRESTIGE SANT MARC Hotel","asciiName":"PRESTIGE SANT MARC Hotel","alternatenames":[],"lat":42.2636,"lon":3.15061,"countryCode":"ES"},{"name":"Senator Parque Central","asciiName":"Senator Parque Central","alternatenames":[],"lat":39.45769,"lon":-0.37551,"countryCode":"ES"},{"name":"AC Hotel Ciudad de Pamplona","asciiName":"AC Hotel Ciudad de Pamplona","alternatenames":[],"lat":42.80464,"lon":-1.65259,"countryCode":"ES"},{"name":"Aquaria Negresco","asciiName":"Aquaria Negresco","alternatenames":[],"lat":40.4195,"lon":-3.7042,"countryCode":"ES"},{"name":"AC Hotel Som","asciiName":"AC Hotel Som","alternatenames":[],"lat":41.362,"lon":2.1353,"countryCode":"ES"},{"name":"AUGUSTA VALLES","asciiName":"AUGUSTA VALLES","alternatenames":[],"lat":41.5661,"lon":2.2821,"countryCode":"ES"},{"name":"REGENTE Hotel","asciiName":"REGENTE Hotel","alternatenames":[],"lat":40.41976,"lon":-3.70426,"countryCode":"ES"},{"name":"Adler","asciiName":"Adler","alternatenames":[],"lat":40.4253,"lon":-3.684,"countryCode":"ES"},{"name":"CLEOPATRA PALACE - Mare Nostrum Resort","asciiName":"CLEOPATRA PALACE - Mare Nostrum Resort","alternatenames":[],"lat":28.05353,"lon":-16.73147,"countryCode":"ES"},{"name":"ROGER DE LLURIA Hotel","asciiName":"ROGER DE LLURIA Hotel","alternatenames":[],"lat":41.391,"lon":2.17176,"countryCode":"ES"},{"name":"MIRADOR Hotel","asciiName":"MIRADOR Hotel","alternatenames":[],"lat":39.5684,"lon":2.6317,"countryCode":"ES"},{"name":"Hotel Bel Art","asciiName":"Hotel Bel Art","alternatenames":[],"lat":41.4102,"lon":2.169,"countryCode":"ES"},{"name":"Cedran","asciiName":"Cedran","alternatenames":[],"lat":37.1807,"lon":-3.5995,"countryCode":"ES"},{"name":"Hotel Mirablau","asciiName":"Hotel Mirablau","alternatenames":[],"lat":39.5522,"lon":2.6114,"countryCode":"ES"},{"name":"Hotel Front Maritim","asciiName":"Hotel Front Maritim","alternatenames":[],"lat":41.4036,"lon":2.214,"countryCode":"ES"},{"name":"Hotel And Spa Ciutat Granoller","asciiName":"Hotel And Spa Ciutat Granoller","alternatenames":[],"lat":41.6006,"lon":2.2965,"countryCode":"ES"},{"name":"SPRING PLAYA LA ARENA Hotel","asciiName":"SPRING PLAYA LA ARENA Hotel","alternatenames":[],"lat":28.23203,"lon":-16.84076,"countryCode":"ES"},{"name":"STIL PULA Suites","asciiName":"STIL PULA Suites","alternatenames":[],"lat":39.6447,"lon":3.3753,"countryCode":"ES"},{"name":"Husa Tres Torres","asciiName":"Husa Tres Torres","alternatenames":[],"lat":41.3997,"lon":2.13,"countryCode":"ES"},{"name":"Hesperia Playas de Mallorca","asciiName":"Hesperia Playas de Mallorca","alternatenames":[],"lat":39.5174,"lon":2.4817,"countryCode":"ES"},{"name":"Hotel Inglaterra Barcelona","asciiName":"Hotel Inglaterra Barcelona","alternatenames":[],"lat":41.3858,"lon":2.1658,"countryCode":"ES"},{"name":"Hotel HCC MontBlanc","asciiName":"Hotel HCC MontBlanc","alternatenames":[],"lat":41.3878,"lon":2.1735,"countryCode":"ES"},{"name":"Royal Costa","asciiName":"Royal Costa","alternatenames":[],"lat":36.6454,"lon":-4.4866,"countryCode":"ES"},{"name":"Hotel Catalonia Roma","asciiName":"Hotel Catalonia Roma","alternatenames":[],"lat":41.3818,"lon":2.1458,"countryCode":"ES"},{"name":"REGENTE ARAGON Hotel","asciiName":"REGENTE ARAGON Hotel","alternatenames":[],"lat":41.07685,"lon":1.13247,"countryCode":"ES"},{"name":"Hotel ILUNION Golf Badajoz","asciiName":"Hotel ILUNION Golf Badajoz","alternatenames":[],"lat":38.88258,"lon":-6.88184,"countryCode":"ES"},{"name":"Rafaelhoteles Diagonal Port","asciiName":"Rafaelhoteles Diagonal Port","alternatenames":[],"lat":41.4024,"lon":2.2062,"countryCode":"ES"},{"name":"Sercotel MONASTERIO SAN MIGUEL","asciiName":"Sercotel MONASTERIO SAN MIGUEL","alternatenames":[],"lat":36.6009,"lon":-6.22362,"countryCode":"ES"},{"name":"PARAL-LEL Hotel","asciiName":"PARAL-LEL Hotel","alternatenames":[],"lat":41.3748,"lon":2.166,"countryCode":"ES"},{"name":"Catalonia Corcega","asciiName":"Catalonia Corcega","alternatenames":[],"lat":41.3988,"lon":2.1624,"countryCode":"ES"},{"name":"Silken Al Andalus Palace Hotel","asciiName":"Silken Al Andalus Palace Hotel","alternatenames":[],"lat":37.3574,"lon":-5.9805,"countryCode":"ES"},{"name":"Gran Hotel Guitart Monterrey","asciiName":"Gran Hotel Guitart Monterrey","alternatenames":[],"lat":41.7041,"lon":2.8639,"countryCode":"ES"},{"name":"AC CASTELLON Hotel","asciiName":"AC CASTELLON Hotel","alternatenames":[],"lat":39.9817,"lon":-0.0352,"countryCode":"ES"},{"name":"Castellblanc Hotel","asciiName":"Castellblanc Hotel","alternatenames":[],"lat":42.2598,"lon":3.113,"countryCode":"ES"},{"name":"CAMPUS Aparthotel","asciiName":"CAMPUS Aparthotel","alternatenames":[],"lat":43.36656,"lon":-5.84112,"countryCode":"ES"},{"name":"Barcelo Hotel Gasteiz","asciiName":"Barcelo Hotel Gasteiz","alternatenames":[],"lat":42.84751,"lon":-2.68202,"countryCode":"ES"},{"name":"Husa Alcantara","asciiName":"Husa Alcantara","alternatenames":[],"lat":39.47,"lon":-6.38,"countryCode":"ES"},{"name":"LIABENY Hotel","asciiName":"LIABENY Hotel","alternatenames":[],"lat":40.4185,"lon":-3.7039,"countryCode":"ES"},{"name":"Silken Alfonso X","asciiName":"Silken Alfonso X","alternatenames":[],"lat":38.9844,"lon":-3.9301,"countryCode":"ES"},{"name":"Royal Al Andalus","asciiName":"Royal Al Andalus","alternatenames":[],"lat":36.6158,"lon":-4.5034,"countryCode":"ES"},{"name":"PRESTIGE CORAL PLATJA Hotel","asciiName":"PRESTIGE CORAL PLATJA Hotel","alternatenames":[],"lat":42.26556,"lon":3.16745,"countryCode":"ES"},{"name":"Hotel Ciutat Del Prat","asciiName":"Hotel Ciutat Del Prat","alternatenames":[],"lat":41.3221,"lon":2.089,"countryCode":"ES"},{"name":"AluaSoul Costa Málaga","asciiName":"AluaSoul Costa Malaga","alternatenames":[],"lat":36.6231,"lon":-4.50129,"countryCode":"ES"},{"name":"Hotel CASTELLON CENTER","asciiName":"Hotel CASTELLON CENTER","alternatenames":[],"lat":39.9839,"lon":-0.0434,"countryCode":"ES"},{"name":"Sercotel Barcelona Universal","asciiName":"Sercotel Barcelona Universal","alternatenames":[],"lat":41.375,"lon":2.1681,"countryCode":"ES"},{"name":"AC Hotel Aravaca","asciiName":"AC Hotel Aravaca","alternatenames":[],"lat":40.4645,"lon":-3.78478,"countryCode":"ES"},{"name":"Hotel Eurostars Laietana Palace","asciiName":"Hotel Eurostars Laietana Palace","alternatenames":[],"lat":41.3835,"lon":2.1793,"countryCode":"ES"},{"name":"TOP ROYAL SUN Hotel & Suites","asciiName":"TOP ROYAL SUN Hotel & Suites","alternatenames":[],"lat":41.63444,"lon":2.72422,"countryCode":"ES"},{"name":"Attica 21 Barcelona Mar","asciiName":"Attica 21 Barcelona Mar","alternatenames":["Husa Barcelona Mar"],"lat":41.4059,"lon":2.2106,"countryCode":"ES"},{"name":"Hesperia Sant Just","asciiName":"Hesperia Sant Just","alternatenames":[],"lat":41.3746,"lon":2.0735,"countryCode":"ES"},{"name":"TERMES MONTBRIO Hotel","asciiName":"TERMES MONTBRIO Hotel","alternatenames":[],"lat":41.1179,"lon":1.0047,"countryCode":"ES"},{"name":"PRESTIGE VICTORIA Hotel","asciiName":"PRESTIGE VICTORIA Hotel","alternatenames":[],"lat":42.2611,"lon":3.15059,"countryCode":"ES"},{"name":"Nh Duc De La Victoria","asciiName":"Nh Duc De La Victoria","alternatenames":[],"lat":41.3848,"lon":2.1728,"countryCode":"ES"},{"name":"Hotel Eurostars Parc Del Valles","asciiName":"Hotel Eurostars Parc Del Valles","alternatenames":[],"lat":41.4872,"lon":2.1248,"countryCode":"ES"},{"name":"Vincci Tenerife Golf Hotel","asciiName":"Vincci Tenerife Golf Hotel","alternatenames":[],"lat":28.02752,"lon":-16.60017,"countryCode":"ES"},{"name":"Melia Gorriones","asciiName":"Melia Gorriones","alternatenames":[],"lat":28.1374,"lon":-14.2456,"countryCode":"ES"},{"name":"Hesperia Compostela","asciiName":"Hesperia Compostela","alternatenames":[],"lat":42.8691,"lon":-8.5482,"countryCode":"ES"},{"name":"Hesperia Gelmirez","asciiName":"Hesperia Gelmirez","alternatenames":[],"lat":42.87084,"lon":-8.54609,"countryCode":"ES"},{"name":"Ab Viladomat Hotel","asciiName":"Ab Viladomat Hotel","alternatenames":[],"lat":41.3839,"lon":2.1516,"countryCode":"ES"},{"name":"Express Alcala De Henares","asciiName":"Express Alcala De Henares","alternatenames":[],"lat":40.4765,"lon":-3.3926,"countryCode":"ES"},{"name":"Dunas Puerto","asciiName":"Dunas Puerto","alternatenames":[],"lat":36.5887,"lon":-6.2421,"countryCode":"ES"},{"name":"RH BAYREN","asciiName":"RH BAYREN","alternatenames":[],"lat":39.00445,"lon":-0.16305,"countryCode":"ES"},{"name":"AMREY SANT PAU","asciiName":"AMREY SANT PAU","alternatenames":[],"lat":41.41401,"lon":2.17769,"countryCode":"ES"},{"name":"Husa Bonanova Park","asciiName":"Husa Bonanova Park","alternatenames":[],"lat":41.3932,"lon":2.1249,"countryCode":"ES"},{"name":"Almenara Golf, Hotel & Spa","asciiName":"Almenara Golf, Hotel & Spa","alternatenames":[],"lat":36.2758,"lon":-5.3519,"countryCode":"ES"},{"name":"NH Barajas","asciiName":"NH Barajas","alternatenames":[],"lat":40.45097,"lon":-3.59487,"countryCode":"ES"},{"name":"Dauro Hotel","asciiName":"Dauro Hotel","alternatenames":[],"lat":37.1695,"lon":-3.5971,"countryCode":"ES"},{"name":"Carlemany","asciiName":"Carlemany","alternatenames":[],"lat":41.9787,"lon":2.8209,"countryCode":"ES"},{"name":"AYALA BERGANZA","asciiName":"AYALA BERGANZA","alternatenames":[],"lat":40.9464,"lon":-4.1207,"countryCode":"ES"},{"name":"Nh Madrid Alberto Aguilera","asciiName":"Nh Madrid Alberto Aguilera","alternatenames":[],"lat":40.4298,"lon":-3.7082,"countryCode":"ES"},{"name":"Hotel Eurostars Las Adelfas","asciiName":"Hotel Eurostars Las Adelfas","alternatenames":[],"lat":37.9067,"lon":-4.7981,"countryCode":"ES"},{"name":"Husa Serrano","asciiName":"Husa Serrano","alternatenames":[],"lat":39.4565,"lon":-0.363,"countryCode":"ES"},{"name":"Husa Gran Via","asciiName":"Husa Gran Via","alternatenames":[],"lat":42.465,"lon":-2.454,"countryCode":"ES"},{"name":"LOPE DE VEGA Hotel","asciiName":"LOPE DE VEGA Hotel","alternatenames":[],"lat":40.4138,"lon":-3.6943,"countryCode":"ES"},{"name":"Antemare Hotel","asciiName":"Antemare Hotel","alternatenames":[],"lat":41.2313,"lon":1.7963,"countryCode":"ES"},{"name":"Nh Abascal","asciiName":"Nh Abascal","alternatenames":[],"lat":40.4382,"lon":-3.6949,"countryCode":"ES"},{"name":"NH Malaga","asciiName":"NH Malaga","alternatenames":[],"lat":36.7452,"lon":-4.424,"countryCode":"ES"},{"name":"Hotel Ciutat de Tarragona","asciiName":"Hotel Ciutat de Tarragona","alternatenames":[],"lat":41.1187,"lon":1.245,"countryCode":"ES"},{"name":"Las Piramides","asciiName":"Las Piramides","alternatenames":[],"lat":36.5337,"lon":-4.6247,"countryCode":"ES"},{"name":"BARCELO ALBATROS","asciiName":"BARCELO ALBATROS","alternatenames":[],"lat":39.5421,"lon":2.59496,"countryCode":"ES"},{"name":"LAS NIEVES Hotel","asciiName":"LAS NIEVES Hotel","alternatenames":[],"lat":37.1739,"lon":-3.6007,"countryCode":"ES"},{"name":"ORFILA Hotel","asciiName":"ORFILA Hotel","alternatenames":[],"lat":40.4273,"lon":-3.693,"countryCode":"ES"},{"name":"Estela","asciiName":"Estela","alternatenames":[],"lat":41.2363,"lon":1.8257,"countryCode":"ES"},{"name":"Alhama","asciiName":"ALHAMA","alternatenames":[],"lat":42.0833,"lon":-1.8167,"countryCode":"ES"},{"name":"Holiday Inn Madrid Piramides","asciiName":"Holiday Inn Madrid Piramides","alternatenames":[],"lat":40.4023,"lon":-3.7112,"countryCode":"ES"},{"name":"MARIA ELENA PALACE Hotel","asciiName":"MARIA ELENA PALACE Hotel","alternatenames":[],"lat":40.4183,"lon":-3.7007,"countryCode":"ES"},{"name":"Hotel Casa de los Mercaderes","asciiName":"Hotel Casa de los Mercaderes","alternatenames":[],"lat":37.3893,"lon":-5.9932,"countryCode":"ES"},{"name":"T3 TIROL Hotel","asciiName":"T3 TIROL Hotel","alternatenames":[],"lat":40.43052,"lon":-3.71684,"countryCode":"ES"},{"name":"CAPRI LE PETIT SPA - RTM Hotels","asciiName":"CAPRI LE PETIT SPA - RTM Hotels","alternatenames":[],"lat":39.88872,"lon":4.25657,"countryCode":"ES"},{"name":"MEDITERRANEO Hotel","asciiName":"MEDITERRANEO Hotel","alternatenames":[],"lat":36.1666,"lon":-5.33813,"countryCode":"ES"},{"name":"Nouvel Hotel","asciiName":"Nouvel Hotel","alternatenames":[],"lat":41.3853,"lon":2.1715,"countryCode":"ES"},{"name":"PEDRO I DE ARAGON Hotel","asciiName":"PEDRO I DE ARAGON Hotel","alternatenames":[],"lat":42.139,"lon":-0.413,"countryCode":"ES"},{"name":"CITYMAR SAN ANTON Hotel","asciiName":"CITYMAR SAN ANTON Hotel","alternatenames":[],"lat":37.16753,"lon":-3.59878,"countryCode":"ES"},{"name":"Xaine Park","asciiName":"Xaine Park","alternatenames":[],"lat":41.7003,"lon":2.8428,"countryCode":"ES"},{"name":"VillaTuristica de Priego","asciiName":"VillaTuristica de Priego","alternatenames":[],"lat":37.486,"lon":-4.2433,"countryCode":"ES"},{"name":"Silken St. Gervasi Hotel","asciiName":"Silken St. Gervasi Hotel","alternatenames":[],"lat":41.4045,"lon":2.1388,"countryCode":"ES"},{"name":"Hotel Abbot","asciiName":"Hotel Abbot","alternatenames":[],"lat":41.3813,"lon":2.145,"countryCode":"ES"},{"name":"SERCOTEL MENDEBALDEA Suites","asciiName":"SERCOTEL MENDEBALDEA Suites","alternatenames":[],"lat":42.80823,"lon":-1.67104,"countryCode":"ES"},{"name":"QUO ERASO Aparthotel","asciiName":"QUO ERASO Aparthotel","alternatenames":[],"lat":40.4339,"lon":-3.67171,"countryCode":"ES"},{"name":"SOL ALCUDIA CENTER Hotel","asciiName":"SOL ALCUDIA CENTER Hotel","alternatenames":[],"lat":39.83074,"lon":3.11129,"countryCode":"ES"},{"name":"Sercotel Gran Hotel Luna","asciiName":"Sercotel Gran Hotel Luna","alternatenames":["MA LUNA DE GRANADA Hotel"],"lat":37.17713,"lon":-3.61336,"countryCode":"ES"},{"name":"Hotel Vila del Mar","asciiName":"Hotel Vila del Mar","alternatenames":[],"lat":41.7001,"lon":2.8502,"countryCode":"ES"},{"name":"Melia Atlanterra","asciiName":"Melia Atlanterra","alternatenames":[],"lat":36.11026,"lon":-5.82371,"countryCode":"ES"},{"name":"Nh La Perdiz","asciiName":"Nh La Perdiz","alternatenames":[],"lat":38.2705,"lon":-3.6098,"countryCode":"ES"},{"name":"Sevilla Congresos Hotel","asciiName":"Sevilla Congresos Hotel","alternatenames":[],"lat":37.4055,"lon":-5.93003,"countryCode":"ES"},{"name":"VINCCI SOMA Hotel (Antiguo Hotel Bauza)","asciiName":"VINCCI SOMA Hotel (Antiguo Hotel Bauza)","alternatenames":[],"lat":40.4249,"lon":-3.6782,"countryCode":"ES"},{"name":"Ciudad De Logrono Hotel","asciiName":"CIUDAD DE LOGRONO HOTEL","alternatenames":[],"lat":42.4674,"lon":-2.4443,"countryCode":"ES"},{"name":"SOROLLA CENTRO Hotel","asciiName":"SOROLLA CENTRO Hotel","alternatenames":[],"lat":39.46835,"lon":-0.37591,"countryCode":"ES"},{"name":"GARGALLO DEL MAR Hotel","asciiName":"GARGALLO DEL MAR Hotel","alternatenames":[],"lat":41.3822,"lon":2.184,"countryCode":"ES"},{"name":"Husa Imperial Tarraco","asciiName":"Husa Imperial Tarraco","alternatenames":[],"lat":41.115,"lon":1.2574,"countryCode":"ES"},{"name":"Hotel Conde Luna","asciiName":"Hotel Conde Luna","alternatenames":[],"lat":42.595,"lon":-5.5705,"countryCode":"ES"},{"name":"BARCELO HOTEL FORMENTOR","asciiName":"BARCELO HOTEL FORMENTOR","alternatenames":[],"lat":39.92686,"lon":3.1439,"countryCode":"ES"},{"name":"MACIA GRAN VIA Hotel","asciiName":"MACIA GRAN VIA Hotel","alternatenames":[],"lat":37.1788,"lon":-3.599,"countryCode":"ES"},{"name":"ISLA MALLORCA Hotel","asciiName":"ISLA MALLORCA Hotel","alternatenames":[],"lat":39.56913,"lon":2.62808,"countryCode":"ES"},{"name":"HM JAIME III Hotel","asciiName":"HM JAIME III Hotel","alternatenames":[],"lat":39.5726,"lon":2.6423,"countryCode":"ES"},{"name":"TERRAMAR Hotel SITGES","asciiName":"TERRAMAR Hotel SITGES","alternatenames":[],"lat":41.22505,"lon":1.78716,"countryCode":"ES"},{"name":"Sol Antillas Barbados","asciiName":"Sol Antillas Barbados","alternatenames":[],"lat":39.5027,"lon":2.5332,"countryCode":"ES"},{"name":"NIXE PALACE Hotel","asciiName":"NIXE PALACE Hotel","alternatenames":[],"lat":39.55285,"lon":2.60753,"countryCode":"ES"},{"name":"LOS ANGELES Hotel","asciiName":"LOS ANGELES Hotel","alternatenames":[],"lat":37.169,"lon":-3.5889,"countryCode":"ES"},{"name":"TERRAMAR Hotel CALELLA","asciiName":"TERRAMAR Hotel CALELLA","alternatenames":[],"lat":41.61141,"lon":2.65209,"countryCode":"ES"},{"name":"Hotel Hespería Illa da Toxa","asciiName":"Hotel Hesperia Illa da Toxa","alternatenames":[],"lat":42.48333,"lon":-8.84726,"countryCode":"ES"},{"name":"GARGALLO GRAN HOTEL BARCINO","asciiName":"GARGALLO GRAN HOTEL BARCINO","alternatenames":[],"lat":41.38309,"lon":2.17786,"countryCode":"ES"},{"name":"Jardin De La Reina","asciiName":"Jardin De La Reina","alternatenames":[],"lat":37.5094,"lon":-6.0265,"countryCode":"ES"},{"name":"CELIMAR CENTRE Hotel","asciiName":"CELIMAR CENTRE Hotel","alternatenames":[],"lat":41.237,"lon":1.8065,"countryCode":"ES"},{"name":"Hotel Santa Marta","asciiName":"Hotel Santa Marta","alternatenames":[],"lat":41.38373,"lon":2.18505,"countryCode":"ES"},{"name":"Sercotel Talaso Louxo La Toja","asciiName":"Sercotel Talaso Louxo La Toja","alternatenames":[],"lat":42.48234,"lon":-8.84687,"countryCode":"ES"},{"name":"CAN FISA Hotel","asciiName":"CAN FISA Hotel","alternatenames":[],"lat":41.41657,"lon":1.91861,"countryCode":"ES"},{"name":"Hotel Eurostars Regina","asciiName":"Hotel Eurostars Regina","alternatenames":[],"lat":37.39852,"lon":-5.99865,"countryCode":"ES"},{"name":"Nh Imperial Playa","asciiName":"Nh Imperial Playa","alternatenames":[],"lat":28.1483,"lon":-15.4307,"countryCode":"ES"},{"name":"NH Ciutat de Mataro","asciiName":"NH Ciutat de Mataro","alternatenames":[],"lat":41.5315,"lon":2.4371,"countryCode":"ES"},{"name":"Juan Miguel Hotel","asciiName":"Juan Miguel Hotel","alternatenames":[],"lat":37.1718,"lon":-3.5988,"countryCode":"ES"},{"name":"Sol Cala D'Or Hotel & Apartaments","asciiName":"Sol Cala D'Or Hotel & Apartaments","alternatenames":[],"lat":39.3765,"lon":3.2321,"countryCode":"ES"},{"name":"Apartosuite Principe Pio","asciiName":"Apartosuite Principe Pio","alternatenames":[],"lat":40.42091,"lon":-3.71504,"countryCode":"ES"},{"name":"Husa Anacapri","asciiName":"Husa Anacapri","alternatenames":[],"lat":37.1765,"lon":-3.5972,"countryCode":"ES"},{"name":"ZENIT IMPERIAL Hotel","asciiName":"ZENIT IMPERIAL Hotel","alternatenames":[],"lat":41.65247,"lon":-4.72909,"countryCode":"ES"},{"name":"Husa El Bedel","asciiName":"Husa El Bedel","alternatenames":[],"lat":40.4828,"lon":-3.3632,"countryCode":"ES"},{"name":"Eurostars Mitre","asciiName":"Eurostars Mitre","alternatenames":[],"lat":41.4049,"lon":2.141,"countryCode":"ES"},{"name":"Hesperia Park Troya","asciiName":"Hesperia Park Troya","alternatenames":[],"lat":28.0671,"lon":-16.7321,"countryCode":"ES"},{"name":"Hesperia Centurion","asciiName":"Hesperia Centurion","alternatenames":[],"lat":41.0685,"lon":1.093,"countryCode":"ES"},{"name":"Hesperia Barri Gotic","asciiName":"Hesperia Barri Gotic","alternatenames":[],"lat":41.3803,"lon":2.1799,"countryCode":"ES"},{"name":"Sol Falco","asciiName":"Sol Falco","alternatenames":[],"lat":39.9281,"lon":3.8365,"countryCode":"ES"},{"name":"SUITE PRADO Hotel","asciiName":"SUITE PRADO Hotel","alternatenames":[],"lat":40.41486,"lon":-3.69897,"countryCode":"ES"},{"name":"El Montiboli","asciiName":"El Montiboli","alternatenames":[],"lat":38.4951,"lon":-0.269,"countryCode":"ES"},{"name":"Barcelo Gran Hotel Renacimiento","asciiName":"Barcelo Gran Hotel Renacimiento","alternatenames":[],"lat":37.4102,"lon":-5.9946,"countryCode":"ES"},{"name":"Hotel Palace","asciiName":"Hotel Palace","alternatenames":[],"lat":41.3914,"lon":2.1712,"countryCode":"ES"},{"name":"Hotel Gotico","asciiName":"Hotel Gotico","alternatenames":[],"lat":41.3828,"lon":2.1773,"countryCode":"ES"},{"name":"Meliá La Quinta Golf & SPA","asciiName":"Melia La Quinta Golf & SPA","alternatenames":[],"lat":36.5131,"lon":-4.9952,"countryCode":"ES"},{"name":"Hesperia Sabinal","asciiName":"Hesperia Sabinal","alternatenames":[],"lat":36.7311,"lon":-2.6187,"countryCode":"ES"},{"name":"Nh Ciudad De Cuenca","asciiName":"Nh Ciudad De Cuenca","alternatenames":[],"lat":40.06,"lon":-2.134,"countryCode":"ES"},{"name":"Hotel Hespería Vigo","asciiName":"Hotel Hesperia Vigo","alternatenames":[],"lat":42.21567,"lon":-8.74057,"countryCode":"ES"},{"name":"MONTE PUERTATIERRA Hotel","asciiName":"MONTE PUERTATIERRA Hotel","alternatenames":[],"lat":36.5204,"lon":-6.2847,"countryCode":"ES"},{"name":"RITZ DE MADRID Hotel","asciiName":"RITZ DE MADRID Hotel","alternatenames":[],"lat":40.41572,"lon":-3.69258,"countryCode":"ES"},{"name":"Monte Conquero Hotel","asciiName":"Monte Conquero Hotel","alternatenames":[],"lat":37.26009,"lon":-6.94878,"countryCode":"ES"},{"name":"Hesperia Sant Joan Suites","asciiName":"Hesperia Sant Joan Suites","alternatenames":[],"lat":41.3736,"lon":2.0709,"countryCode":"ES"},{"name":"AC Hotel Aitana","asciiName":"AC Hotel Aitana","alternatenames":[],"lat":40.45588,"lon":-3.68969,"countryCode":"ES"},{"name":"Melia de Mar","asciiName":"Melia de Mar","alternatenames":[],"lat":39.5446,"lon":2.5951,"countryCode":"ES"},{"name":"Gran Melia Salinas-the Garden","asciiName":"Gran Melia Salinas-the Garden","alternatenames":[],"lat":29.002,"lon":-13.4842,"countryCode":"ES"},{"name":"Sol Jamaica","asciiName":"Sol Jamaica","alternatenames":[],"lat":39.5061,"lon":2.5328,"countryCode":"ES"},{"name":"ME Ibiza","asciiName":"ME Ibiza","alternatenames":["Sol S'Argamassa"],"lat":38.99152,"lon":1.57001,"countryCode":"ES"},{"name":"Sol Pelicanos Ocas","asciiName":"Sol Pelicanos Ocas","alternatenames":[],"lat":38.5364,"lon":-0.1087,"countryCode":"ES"},{"name":"Reinassance Barcelona","asciiName":"Reinassance Barcelona","alternatenames":[],"lat":41.3928,"lon":2.167,"countryCode":"ES"},{"name":"Sol Principe","asciiName":"Sol Principe","alternatenames":[],"lat":36.6324,"lon":-4.4918,"countryCode":"ES"},{"name":"Sol Menorca","asciiName":"Sol Menorca","alternatenames":[],"lat":39.9028,"lon":4.0685,"countryCode":"ES"},{"name":"Sol Trinidad","asciiName":"Sol Trinidad","alternatenames":[],"lat":39.5125,"lon":2.5374,"countryCode":"ES"},{"name":"MEDITERRANEAN PALACE Hotel","asciiName":"MEDITERRANEAN PALACE Hotel","alternatenames":[],"lat":28.0541,"lon":-16.72974,"countryCode":"ES"},{"name":"Gran Melia Don Pepe","asciiName":"Gran Melia Don Pepe","alternatenames":[],"lat":36.5101,"lon":-4.9018,"countryCode":"ES"},{"name":"Sol Jandía Mar Apartamentos","asciiName":"Sol Jandia Mar Apartamentos","alternatenames":[],"lat":28.05004,"lon":-14.34464,"countryCode":"ES"},{"name":"Sol Gavilanes","asciiName":"Sol Gavilanes","alternatenames":[],"lat":39.9337,"lon":3.9623,"countryCode":"ES"},{"name":"Sol Parque San Antonio","asciiName":"Sol Parque San Antonio","alternatenames":[],"lat":28.4027,"lon":-16.5494,"countryCode":"ES"},{"name":"SOL MAGALLUF PARK Hotel","asciiName":"SOL MAGALLUF PARK Hotel","alternatenames":[],"lat":39.51024,"lon":2.53426,"countryCode":"ES"},{"name":"Sol Galua","asciiName":"Sol Galua","alternatenames":[],"lat":37.66358,"lon":-0.72135,"countryCode":"ES"},{"name":"SH ALTEA HILLS Resort","asciiName":"SH ALTEA HILLS Resort","alternatenames":[],"lat":38.64033,"lon":-0.01277,"countryCode":"ES"},{"name":"Hotel Los Monteros","asciiName":"Hotel Los Monteros","alternatenames":[],"lat":36.509,"lon":-4.866,"countryCode":"ES"},{"name":"Sol Pinet Playa","asciiName":"Sol Pinet Playa","alternatenames":[],"lat":38.9705,"lon":1.2919,"countryCode":"ES"},{"name":"Melia Torremolinos","asciiName":"Melia Torremolinos","alternatenames":[],"lat":36.6047,"lon":-4.5119,"countryCode":"ES"},{"name":"AC Hotel Málaga Palacio","asciiName":"AC Hotel Malaga Palacio","alternatenames":[],"lat":36.7188,"lon":-4.4194,"countryCode":"ES"},{"name":"Hotel Jerez & Spa","asciiName":"Hotel Jerez & Spa","alternatenames":[],"lat":36.6984,"lon":-6.1257,"countryCode":"ES"},{"name":"Silken Puerta Castilla Hotel","asciiName":"Silken Puerta Castilla Hotel","alternatenames":[],"lat":40.4682,"lon":-3.689,"countryCode":"ES"},{"name":"Hotel Incosol Marbella - Medical Spa","asciiName":"Hotel Incosol Marbella - Medical Spa","alternatenames":[],"lat":36.51438,"lon":-4.84938,"countryCode":"ES"},{"name":"Silken Rona Dalba Hotel","asciiName":"Silken Rona Dalba Hotel","alternatenames":[],"lat":40.9676,"lon":-5.661,"countryCode":"ES"},{"name":"PUENTE ROMANO Hotel","asciiName":"PUENTE ROMANO Hotel","alternatenames":[],"lat":36.50359,"lon":-4.92709,"countryCode":"ES"},{"name":"Castillo Hotel Son Vida","asciiName":"Castillo Hotel Son Vida","alternatenames":[],"lat":39.5903,"lon":2.596,"countryCode":"ES"},{"name":"Catalonia Portal de l'Angel","asciiName":"Catalonia Portal de l'Angel","alternatenames":[],"lat":41.3856,"lon":2.173,"countryCode":"ES"},{"name":"BARCELO LA BOBADILLA","asciiName":"BARCELO LA BOBADILLA","alternatenames":[],"lat":37.16474,"lon":-4.29175,"countryCode":"ES"},{"name":"BEST WESTERN AROSA Hotel","asciiName":"BEST WESTERN AROSA Hotel","alternatenames":[],"lat":40.4199,"lon":-3.7031,"countryCode":"ES"},{"name":"THE WESTIN PALACE MADRID Hotel","asciiName":"THE WESTIN PALACE MADRID Hotel","alternatenames":[],"lat":40.41548,"lon":-3.69575,"countryCode":"ES"},{"name":"HCC Hotel Covadonga","asciiName":"HCC Hotel Covadonga","alternatenames":[],"lat":41.3932,"lon":2.1457,"countryCode":"ES"},{"name":"Rafaelhoteles Atocha","asciiName":"Rafaelhoteles Atocha","alternatenames":[],"lat":40.4015,"lon":-3.6869,"countryCode":"ES"},{"name":"Hotel Botanico","asciiName":"Hotel Botanico","alternatenames":[],"lat":28.4116,"lon":-16.5378,"countryCode":"ES"},{"name":"Hotel Alfonso XIII","asciiName":"Hotel Alfonso XIII","alternatenames":[],"lat":37.38185,"lon":-5.99259,"countryCode":"ES"},{"name":"Hesperia Peregrino","asciiName":"Hesperia Peregrino","alternatenames":[],"lat":42.87165,"lon":-8.55543,"countryCode":"ES"},{"name":"Silken Reino De Aragon Hotel","asciiName":"Silken Reino De Aragon Hotel","alternatenames":[],"lat":41.6537,"lon":-0.8718,"countryCode":"ES"},{"name":"Sheraton Mallorca Arabella Golf Hotel","asciiName":"Sheraton Mallorca Arabella Golf Hotel","alternatenames":[],"lat":39.5867,"lon":2.5997,"countryCode":"ES"},{"name":"IBEROSTAR MENCEY Hotel","asciiName":"IBEROSTAR MENCEY Hotel","alternatenames":[],"lat":28.47447,"lon":-16.25348,"countryCode":"ES"},{"name":"Hotel La Vega","asciiName":"Hotel La Vega","alternatenames":[],"lat":41.64,"lon":-4.745,"countryCode":"ES"},{"name":"María Cristina","asciiName":"Maria Cristina","alternatenames":[],"lat":43.32175,"lon":-1.98049,"countryCode":"ES"},{"name":"Hotel HCC Taber","asciiName":"Hotel HCC Taber","alternatenames":[],"lat":41.3908,"lon":2.1629,"countryCode":"ES"},{"name":"H10 Catalunya Plaza","asciiName":"H10 Catalunya Plaza","alternatenames":[],"lat":41.3873,"lon":2.1687,"countryCode":"ES"},{"name":"SERCOTEL ORIENTE Hotel","asciiName":"SERCOTEL ORIENTE Hotel","alternatenames":[],"lat":41.6534,"lon":-0.8828,"countryCode":"ES"},{"name":"MEXICO Aparthotel","asciiName":"MEXICO Aparthotel","alternatenames":[],"lat":37.2094,"lon":-1.81517,"countryCode":"ES"},{"name":"NH Villacarlos","asciiName":"NH Villacarlos","alternatenames":[],"lat":39.4665,"lon":-0.355,"countryCode":"ES"},{"name":"VINAROS PLAYA Hotel","asciiName":"VINAROS PLAYA Hotel","alternatenames":[],"lat":40.46523,"lon":0.46767,"countryCode":"ES"},{"name":"VERA Hotel Restaurante","asciiName":"VERA Hotel Restaurante","alternatenames":[],"lat":37.198,"lon":-1.8197,"countryCode":"ES"},{"name":"RAMIRO I Hotel","asciiName":"RAMIRO I Hotel","alternatenames":[],"lat":41.65138,"lon":-0.8747,"countryCode":"ES"},{"name":"VALLE DEL ESTE GOLF SPA & BEACH Resort","asciiName":"VALLE DEL ESTE GOLF SPA & BEACH Resort","alternatenames":[],"lat":37.20231,"lon":-1.89311,"countryCode":"ES"},{"name":"Reina","asciiName":"Reina","alternatenames":[],"lat":37.24778,"lon":-1.87245,"countryCode":"ES"},{"name":"NH Ciudad de Zaragoza","asciiName":"NH Ciudad de Zaragoza","alternatenames":[],"lat":41.6577,"lon":-0.882,"countryCode":"ES"},{"name":"Hotel Acta Atarazanas","asciiName":"Hotel Acta Atarazanas","alternatenames":[],"lat":39.46113,"lon":-0.33397,"countryCode":"ES"},{"name":"Conquistador","asciiName":"Conquistador","alternatenames":[],"lat":41.6496,"lon":-0.8879,"countryCode":"ES"},{"name":"TIBUR Hotel","asciiName":"TIBUR Hotel","alternatenames":[],"lat":41.6551,"lon":-0.8759,"countryCode":"ES"},{"name":"Torrelaguna","asciiName":"Torrelaguna","alternatenames":[],"lat":37.1987,"lon":-1.8185,"countryCode":"ES"},{"name":"Cala Gonzalez","asciiName":"Cala Gonzalez","alternatenames":[],"lat":40.4805,"lon":0.4821,"countryCode":"ES"},{"name":"Conde Blanco","asciiName":"Conde Blanco","alternatenames":[],"lat":41.6575,"lon":-0.8857,"countryCode":"ES"},{"name":"SPA ZIMBALI PLAYA Hotel","asciiName":"SPA ZIMBALI PLAYA Hotel","alternatenames":[],"lat":37.19448,"lon":-1.81849,"countryCode":"ES"},{"name":"Partner Center Zaragoza","asciiName":"Partner Center Zaragoza","alternatenames":[],"lat":41.6504,"lon":-0.879,"countryCode":"ES"},{"name":"PALAFOX Hotel","asciiName":"PALAFOX Hotel","alternatenames":[],"lat":41.65053,"lon":-0.88555,"countryCode":"ES"},{"name":"NH Sport","asciiName":"NH Sport","alternatenames":[],"lat":41.64973,"lon":-0.89489,"countryCode":"ES"},{"name":"Nh Nacional","asciiName":"Nh Nacional","alternatenames":[],"lat":40.4092,"lon":-3.6923,"countryCode":"ES"},{"name":"Mediterraneo","asciiName":"Mediterraneo","alternatenames":[],"lat":39.47093,"lon":-0.37973,"countryCode":"ES"},{"name":"Holiday Inn Express Zaragoza","asciiName":"Holiday Inn Express Zaragoza","alternatenames":[],"lat":41.67708,"lon":-0.86834,"countryCode":"ES"},{"name":"Sant Jordi","asciiName":"Sant Jordi","alternatenames":[],"lat":39.5312,"lon":2.732,"countryCode":"ES"},{"name":"Cala Montero","asciiName":"Cala Montero","alternatenames":[],"lat":40.4823,"lon":0.4834,"countryCode":"ES"},{"name":"Palmeras","asciiName":"Palmeras","alternatenames":[],"lat":40.4823,"lon":0.4834,"countryCode":"ES"},{"name":"Frontera Blanca","asciiName":"Frontera Blanca","alternatenames":["Frontera Blanca"],"lat":27.75481,"lon":-18.00199,"countryCode":"ES"},{"name":"Hesperia Sarriá","asciiName":"Hesperia Sarria","alternatenames":[],"lat":41.3989,"lon":2.1299,"countryCode":"ES"},{"name":"NH Ciudad de Valladolid","asciiName":"NH Ciudad de Valladolid","alternatenames":[],"lat":41.65682,"lon":-4.7368,"countryCode":"ES"},{"name":"Pueblo Laguna","asciiName":"Pueblo Laguna","alternatenames":[],"lat":37.1972,"lon":-1.8196,"countryCode":"ES"},{"name":"Cala Montero II","asciiName":"Cala Montero II","alternatenames":[],"lat":40.4956,"lon":0.4961,"countryCode":"ES"},{"name":"Melia Zaragoza","asciiName":"Melia Zaragoza","alternatenames":[],"lat":41.65099,"lon":-0.88702,"countryCode":"ES"},{"name":"SH Abashiri","asciiName":"SH Abashiri","alternatenames":[],"lat":39.451,"lon":-0.371,"countryCode":"ES"},{"name":"NOVOTEL VALENCIA PALACIO DE CONGRESOS Hotel","asciiName":"NOVOTEL VALENCIA PALACIO DE CONGRESOS Hotel","alternatenames":[],"lat":39.49181,"lon":-0.39845,"countryCode":"ES"},{"name":"VERA CLUB PLAYA Apartamentos","asciiName":"VERA CLUB PLAYA Apartamentos","alternatenames":[],"lat":37.2274,"lon":-1.8012,"countryCode":"ES"},{"name":"Azor Playa","asciiName":"Azor Playa","alternatenames":[],"lat":40.4782,"lon":0.4789,"countryCode":"ES"},{"name":"Sercotel SOROLLA PALACE","asciiName":"Sercotel SOROLLA PALACE","alternatenames":[],"lat":39.49,"lon":-0.4,"countryCode":"ES"},{"name":"Hospes Palau de la Mar","asciiName":"Hospes Palau de la Mar","alternatenames":[],"lat":39.47129,"lon":-0.36667,"countryCode":"ES"},{"name":"REINA ISABEL Hotel","asciiName":"REINA ISABEL Hotel","alternatenames":[],"lat":28.14208,"lon":-15.43344,"countryCode":"ES"},{"name":"Inca","asciiName":"Inca","alternatenames":[],"lat":41.65602,"lon":-0.8809,"countryCode":"ES"},{"name":"NH Gran Hotel Zaragoza","asciiName":"NH Gran Hotel Zaragoza","alternatenames":[],"lat":41.649,"lon":-0.881,"countryCode":"ES"},{"name":"VENECIA Hostal","asciiName":"VENECIA Hostal","alternatenames":[],"lat":39.4709,"lon":-0.37691,"countryCode":"ES"},{"name":"Los Pinos","asciiName":"Los Pinos","alternatenames":[],"lat":40.37,"lon":0.396,"countryCode":"ES"},{"name":"Montero Golf","asciiName":"Montero Golf","alternatenames":[],"lat":40.51054,"lon":0.33452,"countryCode":"ES"},{"name":"Horizonte","asciiName":"Horizonte","alternatenames":[],"lat":39.55311,"lon":2.62035,"countryCode":"ES"},{"name":"Golden Pineda","asciiName":"Golden Pineda","alternatenames":[],"lat":41.4018,"lon":1.0505,"countryCode":"ES"},{"name":"FIESTA LIDO Apartamentos","asciiName":"FIESTA LIDO Apartamentos","alternatenames":[],"lat":38.8977,"lon":1.4154,"countryCode":"ES"},{"name":"Tinache","asciiName":"Tinache","alternatenames":[],"lat":27.7555,"lon":-15.5755,"countryCode":"ES"},{"name":"BRISTOL PARK Hotel","asciiName":"BRISTOL PARK Hotel","alternatenames":[],"lat":38.53794,"lon":-0.12859,"countryCode":"ES"},{"name":"REINA CRISTINA Hotel","asciiName":"REINA CRISTINA Hotel","alternatenames":[],"lat":37.1759,"lon":-3.6029,"countryCode":"ES"},{"name":"SIRENIS Hotel GOLETA & SPA","asciiName":"SIRENIS Hotel GOLETA & SPA","alternatenames":[],"lat":38.898,"lon":1.416,"countryCode":"ES"},{"name":"Hotel Triunfo Granada","asciiName":"Hotel Triunfo Granada","alternatenames":[],"lat":37.1821,"lon":-3.60017,"countryCode":"ES"},{"name":"Torre Levante","asciiName":"Torre Levante","alternatenames":[],"lat":38.53487,"lon":-0.11345,"countryCode":"ES"},{"name":"VILLA ROMANA Hotel","asciiName":"VILLA ROMANA Hotel","alternatenames":[],"lat":41.0824,"lon":1.14418,"countryCode":"ES"},{"name":"Benidorm Centre","asciiName":"Benidorm Centre","alternatenames":[],"lat":38.5378,"lon":-0.1231,"countryCode":"ES"},{"name":"Medina Playa","asciiName":"Medina Playa","alternatenames":[],"lat":36.743,"lon":-3.8836,"countryCode":"ES"},{"name":"Rhin","asciiName":"Rhin","alternatenames":[],"lat":43.4715,"lon":-3.7814,"countryCode":"ES"},{"name":"Aguamarina","asciiName":"Aguamarina","alternatenames":[],"lat":39.5349,"lon":2.5744,"countryCode":"ES"},{"name":"Cenit","asciiName":"Cenit","alternatenames":[],"lat":38.907,"lon":1.428,"countryCode":"ES"},{"name":"Bungalows Nayra","asciiName":"Bungalows Nayra","alternatenames":[],"lat":27.7563,"lon":-15.5763,"countryCode":"ES"},{"name":"Casablanca","asciiName":"Casablanca","alternatenames":[],"lat":37.17236,"lon":-3.60069,"countryCode":"ES"},{"name":"Montecarlo","asciiName":"Montecarlo","alternatenames":[],"lat":37.1707,"lon":-3.5983,"countryCode":"ES"},{"name":"AluaSun Far Menorca","asciiName":"AluaSun Far Menorca","alternatenames":[],"lat":39.83306,"lon":4.30235,"countryCode":"ES"},{"name":"Aparthotel Acuazul","asciiName":"Aparthotel Acuazul","alternatenames":[],"lat":40.37582,"lon":0.40636,"countryCode":"ES"},{"name":"PANORAMA GOLDEN BEACH Hotel","asciiName":"PANORAMA GOLDEN BEACH Hotel","alternatenames":[],"lat":39.89759,"lon":3.07546,"countryCode":"ES"},{"name":"Catalonia Mikado Hotel","asciiName":"Catalonia Mikado Hotel","alternatenames":[],"lat":41.4031,"lon":2.1272,"countryCode":"ES"},{"name":"SERCOTEL PRINCIPE PAZ Hotel","asciiName":"SERCOTEL PRINCIPE PAZ Hotel","alternatenames":[],"lat":28.4686,"lon":-16.25096,"countryCode":"ES"},{"name":"DERBY BARCELONA Hotel","asciiName":"DERBY BARCELONA Hotel","alternatenames":[],"lat":41.3897,"lon":2.142,"countryCode":"ES"},{"name":"Rebecca","asciiName":"Rebecca","alternatenames":[],"lat":28.06202,"lon":-16.72797,"countryCode":"ES"},{"name":"Florida","asciiName":"Florida","alternatenames":[],"lat":28.41284,"lon":-16.55674,"countryCode":"ES"},{"name":"NOELIA PLAYA Apartamentos","asciiName":"NOELIA PLAYA Apartamentos","alternatenames":[],"lat":28.41198,"lon":-16.55581,"countryCode":"ES"},{"name":"ZURBARAN Hotel","asciiName":"ZURBARAN Hotel","alternatenames":[],"lat":37.38314,"lon":-5.99247,"countryCode":"ES"},{"name":"Arquus","asciiName":"Arquus","alternatenames":[],"lat":41.0717,"lon":1.1499,"countryCode":"ES"},{"name":"Gran Hotel La Hacienda","asciiName":"Gran Hotel La Hacienda","alternatenames":[],"lat":41.0786,"lon":1.1829,"countryCode":"ES"},{"name":"AC PALACIO DE SAN ESTEBAN Hotel","asciiName":"AC PALACIO DE SAN ESTEBAN Hotel","alternatenames":[],"lat":40.96,"lon":-5.66385,"countryCode":"ES"},{"name":"Carihuela Park","asciiName":"Carihuela Park","alternatenames":[],"lat":36.6107,"lon":-4.5042,"countryCode":"ES"},{"name":"Cerro de Hijar","asciiName":"Cerro de Hijar","alternatenames":[],"lat":36.6865,"lon":-4.9029,"countryCode":"ES"},{"name":"Royal","asciiName":"Royal","alternatenames":[],"lat":39.8887,"lon":4.2662,"countryCode":"ES"},{"name":"Melia de Mar","asciiName":"Melia de Mar","alternatenames":[],"lat":39.54379,"lon":2.59597,"countryCode":"ES"},{"name":"PLAYAS PAGUERA Hotel","asciiName":"PLAYAS PAGUERA Hotel","alternatenames":[],"lat":39.53679,"lon":2.45478,"countryCode":"ES"},{"name":"SANDOS PAPAGAYO ARENA Hotel","asciiName":"SANDOS PAPAGAYO ARENA Hotel","alternatenames":[],"lat":28.85887,"lon":-13.79803,"countryCode":"ES"},{"name":"Hipotels La Geria","asciiName":"Hipotels La Geria","alternatenames":[],"lat":28.93051,"lon":-13.63175,"countryCode":"ES"},{"name":"Playamar","asciiName":"Playamar","alternatenames":[],"lat":28.92125,"lon":-13.65943,"countryCode":"ES"},{"name":"Globales Gardenia","asciiName":"Globales Gardenia","alternatenames":[],"lat":36.56481,"lon":-4.60109,"countryCode":"ES"},{"name":"TOP ROYAL STAR Hotel","asciiName":"TOP ROYAL STAR Hotel","alternatenames":[],"lat":41.70097,"lon":2.83573,"countryCode":"ES"},{"name":"VORAMAR Hotel","asciiName":"VORAMAR Hotel","alternatenames":[],"lat":38.53706,"lon":-0.13238,"countryCode":"ES"},{"name":"Rosaire","asciiName":"Rosaire","alternatenames":[],"lat":38.53713,"lon":-0.10973,"countryCode":"ES"},{"name":"Los Alamos","asciiName":"Los Alamos","alternatenames":[],"lat":38.5381,"lon":-0.12267,"countryCode":"ES"},{"name":"RIALTO Hotel","asciiName":"RIALTO Hotel","alternatenames":[],"lat":41.3821,"lon":2.1764,"countryCode":"ES"},{"name":"CALAS MARINA Hotel","asciiName":"CALAS MARINA Hotel","alternatenames":[],"lat":38.5299,"lon":-0.16291,"countryCode":"ES"},{"name":"Barcelona Center Inn","asciiName":"Barcelona Center Inn","alternatenames":[],"lat":41.39315,"lon":2.17391,"countryCode":"ES"},{"name":"MARINA INTERNACIONAL Apartamentos","asciiName":"MARINA INTERNACIONAL Apartamentos","alternatenames":[],"lat":37.99796,"lon":-0.65658,"countryCode":"ES"},{"name":"SOL Y SOMBRA Hotel","asciiName":"SOL Y SOMBRA Hotel","alternatenames":[],"lat":38.54255,"lon":-0.13537,"countryCode":"ES"},{"name":"Catalonia Barcelona Plaza","asciiName":"Catalonia Barcelona Plaza","alternatenames":[],"lat":41.3754,"lon":2.1488,"countryCode":"ES"},{"name":"MARE NOSTRUM Resort","asciiName":"MARE NOSTRUM Resort","alternatenames":[],"lat":28.05449,"lon":-16.73118,"countryCode":"ES"},{"name":"Vistasur","asciiName":"Vistasur","alternatenames":[],"lat":28.0552,"lon":-16.7318,"countryCode":"ES"},{"name":"NH Central de Convenciones","asciiName":"NH Central de Convenciones","alternatenames":[],"lat":37.374,"lon":-5.976,"countryCode":"ES"},{"name":"Balcon de Amadores","asciiName":"Balcon de Amadores","alternatenames":[],"lat":27.792,"lon":-15.716,"countryCode":"ES"},{"name":"BEST WESTERN CERVANTES Hotel","asciiName":"BEST WESTERN CERVANTES Hotel","alternatenames":[],"lat":37.3952,"lon":-5.9934,"countryCode":"ES"},{"name":"Estela Barcelona","asciiName":"Estela Barcelona","alternatenames":[],"lat":41.2362,"lon":1.8262,"countryCode":"ES"},{"name":"Jaime I","asciiName":"Jaime I","alternatenames":[],"lat":41.075,"lon":1.1485,"countryCode":"ES"},{"name":"TRH TIRANT PLAYA Apartamentos","asciiName":"TRH TIRANT PLAYA Apartamentos","alternatenames":[],"lat":40.05058,"lon":4.10987,"countryCode":"ES"},{"name":"SAN LUIS Hotel","asciiName":"SAN LUIS Hotel","alternatenames":[],"lat":39.83518,"lon":4.29735,"countryCode":"ES"},{"name":"Bon Sol","asciiName":"Bon Sol","alternatenames":[],"lat":39.54071,"lon":2.59252,"countryCode":"ES"},{"name":"Iberostar Waves Playa de Muro","asciiName":"Iberostar Waves Playa de Muro","alternatenames":[],"lat":39.80748,"lon":3.11754,"countryCode":"ES"},{"name":"Protur Safari Park","asciiName":"Protur Safari Park","alternatenames":[],"lat":39.5808,"lon":3.377,"countryCode":"ES"},{"name":"Niza","asciiName":"Niza","alternatenames":[],"lat":39.537,"lon":2.4484,"countryCode":"ES"},{"name":"Atalaya Bosque","asciiName":"Atalaya Bosque","alternatenames":[],"lat":39.5397,"lon":2.4407,"countryCode":"ES"},{"name":"Mar i Pins","asciiName":"Mar i Pins","alternatenames":[],"lat":39.537,"lon":2.4484,"countryCode":"ES"},{"name":"Barcelo Palmanova","asciiName":"Barcelo Palmanova","alternatenames":[],"lat":39.5258,"lon":2.5401,"countryCode":"ES"},{"name":"Maribel","asciiName":"Maribel","alternatenames":[],"lat":28.92085,"lon":-13.64642,"countryCode":"ES"},{"name":"Bungalows Sal y Mar","asciiName":"Bungalows Sal y Mar","alternatenames":[],"lat":28.9321,"lon":-13.6216,"countryCode":"ES"},{"name":"LANZAROTE VILLAGE Hotel","asciiName":"LANZAROTE VILLAGE Hotel","alternatenames":[],"lat":28.92275,"lon":-13.65414,"countryCode":"ES"},{"name":"Catedral Suites","asciiName":"Catedral Suites","alternatenames":[],"lat":37.176,"lon":-3.5999,"countryCode":"ES"},{"name":"Villas Santa Ana","asciiName":"Villas Santa Ana","alternatenames":[],"lat":27.75716,"lon":-15.56744,"countryCode":"ES"},{"name":"Poblado Watu Selwo","asciiName":"Poblado Watu Selwo","alternatenames":[],"lat":36.4277,"lon":-5.14548,"countryCode":"ES"},{"name":"Albayalde","asciiName":"Albayalde","alternatenames":[],"lat":36.4277,"lon":-5.14548,"countryCode":"ES"},{"name":"Villa Flamenca","asciiName":"Villa Flamenca","alternatenames":[],"lat":36.7535,"lon":-3.8731,"countryCode":"ES"},{"name":"MARBELLA PLAYA Hotel","asciiName":"MARBELLA PLAYA Hotel","alternatenames":[],"lat":36.49647,"lon":-4.80135,"countryCode":"ES"},{"name":"PINOMAR PLAYA Hotel","asciiName":"PINOMAR PLAYA Hotel","alternatenames":[],"lat":36.49829,"lon":-4.81158,"countryCode":"ES"},{"name":"La Costa Hotel Golf and Beach Resort","asciiName":"La Costa Hotel Golf and Beach Resort","alternatenames":[],"lat":41.99521,"lon":3.19694,"countryCode":"ES"},{"name":"Nautilus","asciiName":"Nautilus","alternatenames":[],"lat":42.2652,"lon":3.1552,"countryCode":"ES"},{"name":"Tahiti Playa","asciiName":"Tahiti Playa","alternatenames":[],"lat":41.6293,"lon":2.7131,"countryCode":"ES"},{"name":"Husa Real","asciiName":"Husa Real","alternatenames":[],"lat":43.4663,"lon":-3.7833,"countryCode":"ES"},{"name":"SARDINERO Hotel","asciiName":"SARDINERO Hotel","alternatenames":[],"lat":43.47256,"lon":-3.78297,"countryCode":"ES"},{"name":"Agua Azul","asciiName":"Agua Azul","alternatenames":[],"lat":38.5392,"lon":-0.1261,"countryCode":"ES"},{"name":"Centro Playa","asciiName":"Centro Playa","alternatenames":[],"lat":38.53476,"lon":-0.13115,"countryCode":"ES"},{"name":"Perla","asciiName":"Perla","alternatenames":[],"lat":38.5386,"lon":-0.1172,"countryCode":"ES"},{"name":"Golf Trinidad","asciiName":"Golf Trinidad","alternatenames":[],"lat":36.72354,"lon":-2.62591,"countryCode":"ES"},{"name":"Tropicana Park","asciiName":"Tropicana Park","alternatenames":[],"lat":38.83273,"lon":-0.11953,"countryCode":"ES"},{"name":"D'or ALEXANDRA","asciiName":"D'or ALEXANDRA","alternatenames":[],"lat":39.53541,"lon":2.71245,"countryCode":"ES"},{"name":"Goya","asciiName":"Goya","alternatenames":[],"lat":41.70512,"lon":2.8456,"countryCode":"ES"},{"name":"Abelux","asciiName":"Abelux","alternatenames":[],"lat":39.582,"lon":2.65,"countryCode":"ES"},{"name":"TRES ANCLAS Hotel","asciiName":"TRES ANCLAS Hotel","alternatenames":["Hotel Tres Anclas","Tres Anclas Hotel","Tres Anclas Hôtel"],"lat":39.01789,"lon":-0.17681,"countryCode":"ES"},{"name":"Londres","asciiName":"Londres","alternatenames":[],"lat":37.3914,"lon":-5.9994,"countryCode":"ES"},{"name":"CALIPOLIS Hotel","asciiName":"CALIPOLIS Hotel","alternatenames":[],"lat":41.23414,"lon":1.80428,"countryCode":"ES"},{"name":"Maraton","asciiName":"Maraton","alternatenames":[],"lat":41.0751,"lon":1.1518,"countryCode":"ES"},{"name":"Cenachero","asciiName":"Cenachero","alternatenames":[],"lat":36.7215,"lon":-4.3578,"countryCode":"ES"},{"name":"VALLE ARIDANE Hotel","asciiName":"VALLE ARIDANE Hotel","alternatenames":[],"lat":28.65937,"lon":-17.916,"countryCode":"ES"},{"name":"Club Portinatx","asciiName":"Club Portinatx","alternatenames":[],"lat":39.0801,"lon":1.5164,"countryCode":"ES"},{"name":"Garajonay","asciiName":"Garajonay","alternatenames":[],"lat":28.0931,"lon":-17.1125,"countryCode":"ES"},{"name":"LONDRES Hotel","asciiName":"LONDRES Hotel","alternatenames":[],"lat":37.68191,"lon":-0.7343,"countryCode":"ES"},{"name":"Bellamar Hotel Beach & Spa","asciiName":"Bellamar Hotel Beach & Spa","alternatenames":[],"lat":38.97033,"lon":1.30495,"countryCode":"ES"},{"name":"Iberostar Selection Fuerteventura Palace","asciiName":"Iberostar Selection Fuerteventura Palace","alternatenames":[],"lat":28.05672,"lon":-14.32034,"countryCode":"ES"},{"name":"El Paraiso","asciiName":"El Paraiso","alternatenames":[],"lat":36.4746,"lon":-5.034,"countryCode":"ES"},{"name":"Lago Playa I","asciiName":"Lago Playa I","alternatenames":[],"lat":38.7,"lon":1.427,"countryCode":"ES"},{"name":"Playamaro","asciiName":"Playamaro","alternatenames":[],"lat":36.75922,"lon":-3.8422,"countryCode":"ES"},{"name":"Buensol","asciiName":"Buensol","alternatenames":[],"lat":36.6037,"lon":-4.5092,"countryCode":"ES"},{"name":"Flamingo / Frigola","asciiName":"Flamingo / Frigola","alternatenames":[],"lat":41.724,"lon":2.9326,"countryCode":"ES"},{"name":"Jaime I","asciiName":"Jaime I","alternatenames":[],"lat":40.36335,"lon":0.39955,"countryCode":"ES"},{"name":"Mercedes","asciiName":"Mercedes","alternatenames":[],"lat":41.7068,"lon":2.8588,"countryCode":"ES"},{"name":"Bedoya","asciiName":"Bedoya","alternatenames":[],"lat":43.4563,"lon":-3.8133,"countryCode":"ES"},{"name":"PALM BEACH Hotel","asciiName":"PALM BEACH Hotel","alternatenames":[],"lat":38.5351,"lon":-0.10088,"countryCode":"ES"},{"name":"Palm Court","asciiName":"Palm Court","alternatenames":[],"lat":38.5391,"lon":-0.1156,"countryCode":"ES"},{"name":"Ingles","asciiName":"Ingles","alternatenames":[],"lat":41.3814,"lon":2.1738,"countryCode":"ES"},{"name":"Citadines","asciiName":"Citadines","alternatenames":[],"lat":41.384,"lon":2.1703,"countryCode":"ES"},{"name":"TRANSIT Hotel","asciiName":"TRANSIT Hotel","alternatenames":[],"lat":41.37818,"lon":2.14315,"countryCode":"ES"},{"name":"Ayre Hotel Caspe","asciiName":"Ayre Hotel Caspe","alternatenames":[],"lat":41.39629,"lon":2.18012,"countryCode":"ES"},{"name":"MEDIUM ABALON Hotel","asciiName":"MEDIUM ABALON Hotel","alternatenames":[],"lat":41.411,"lon":2.17333,"countryCode":"ES"},{"name":"ZORAIDA GARDEN Hotel","asciiName":"ZORAIDA GARDEN Hotel","alternatenames":[],"lat":36.74085,"lon":-2.61344,"countryCode":"ES"},{"name":"MEDITERRANEO PARK Hotel","asciiName":"MEDITERRANEO PARK Hotel","alternatenames":[],"lat":36.73871,"lon":-2.61347,"countryCode":"ES"},{"name":"NH San Pedro","asciiName":"NH San Pedro","alternatenames":[],"lat":36.4837,"lon":-4.9892,"countryCode":"ES"},{"name":"Arenal Bungalows","asciiName":"Arenal Bungalows","alternatenames":[],"lat":38.7745,"lon":0.1864,"countryCode":"ES"},{"name":"Fontana","asciiName":"Fontana","alternatenames":[],"lat":37.977,"lon":-0.68,"countryCode":"ES"},{"name":"Arizona","asciiName":"Arizona","alternatenames":[],"lat":27.79,"lon":-15.7,"countryCode":"ES"},{"name":"SOL BAY Apartamentos","asciiName":"SOL BAY Apartamentos","alternatenames":[],"lat":38.97002,"lon":1.28596,"countryCode":"ES"},{"name":"Best Western Hotel Victoria","asciiName":"Best Western Hotel Victoria","alternatenames":[],"lat":38.53904,"lon":-0.1262,"countryCode":"ES"},{"name":"Caledonia Udalla Park","asciiName":"Caledonia Udalla Park","alternatenames":[],"lat":28.0562,"lon":-16.72468,"countryCode":"ES"},{"name":"Sheraton La Caleta Resort & Spa","asciiName":"Sheraton La Caleta Resort & Spa","alternatenames":[],"lat":28.09573,"lon":-16.74842,"countryCode":"ES"},{"name":"Green Park","asciiName":"Green Park","alternatenames":[],"lat":28.0985,"lon":-16.6192,"countryCode":"ES"},{"name":"Bambi","asciiName":"Bambi","alternatenames":[],"lat":28.41628,"lon":-16.5453,"countryCode":"ES"},{"name":"Don Manolito","asciiName":"Don Manolito","alternatenames":[],"lat":28.41585,"lon":-16.55554,"countryCode":"ES"},{"name":"OASIS MANGO Apartamentos","asciiName":"OASIS MANGO Apartamentos","alternatenames":[],"lat":28.05587,"lon":-16.70437,"countryCode":"ES"},{"name":"Bahia Parque","asciiName":"Bahia Parque","alternatenames":[],"lat":28.39789,"lon":-16.57922,"countryCode":"ES"},{"name":"Panoramica Garden","asciiName":"Panoramica Garden","alternatenames":[],"lat":28.39789,"lon":-16.57922,"countryCode":"ES"},{"name":"Melia la Paz","asciiName":"Melia la Paz","alternatenames":[],"lat":28.4135,"lon":-16.5418,"countryCode":"ES"},{"name":"LAS AGUILAS Hotel","asciiName":"LAS AGUILAS Hotel","alternatenames":[],"lat":28.40135,"lon":-16.54625,"countryCode":"ES"},{"name":"PLAZA SANTA LUCIA Hotel","asciiName":"PLAZA SANTA LUCIA Hotel","alternatenames":[],"lat":37.3975,"lon":-5.9835,"countryCode":"ES"},{"name":"Balansat II","asciiName":"Balansat Prestige","alternatenames":[],"lat":28.11091,"lon":-16.61246,"countryCode":"ES"},{"name":"Don Paco","asciiName":"Don Paco","alternatenames":[],"lat":37.39286,"lon":-5.98733,"countryCode":"ES"},{"name":"Apartamentos Dorada Palace","asciiName":"Apartamentos Dorada Palace","alternatenames":[],"lat":41.0776,"lon":1.1484,"countryCode":"ES"},{"name":"MOLINOS PARK Hotel","asciiName":"MOLINOS PARK Hotel","alternatenames":[],"lat":41.06159,"lon":1.16371,"countryCode":"ES"},{"name":"Dorada Palace","asciiName":"Dorada Palace","alternatenames":[],"lat":41.0777,"lon":1.1488,"countryCode":"ES"},{"name":"Zahara / Azahar","asciiName":"Zahara / Azahar","alternatenames":[],"lat":41.0758,"lon":1.1458,"countryCode":"ES"},{"name":"Castillo del Buen Amor","asciiName":"Castillo del Buen Amor","alternatenames":[],"lat":41.239,"lon":-5.7061,"countryCode":"ES"},{"name":"PROTUR VISTA BADIA Hotel","asciiName":"PROTUR VISTA BADIA Hotel","alternatenames":[],"lat":39.5808,"lon":3.3764,"countryCode":"ES"},{"name":"BELSANA Hotel","asciiName":"BELSANA Hotel","alternatenames":[],"lat":39.4133,"lon":3.26353,"countryCode":"ES"},{"name":"Ponent Mar","asciiName":"Ponent Mar","alternatenames":[],"lat":39.5261,"lon":2.5424,"countryCode":"ES"},{"name":"Sol Jamaica","asciiName":"Sol Jamaica","alternatenames":[],"lat":39.5059,"lon":2.5324,"countryCode":"ES"},{"name":"Apartamentos Deya","asciiName":"Apartamentos Deya","alternatenames":[],"lat":39.52005,"lon":2.48255,"countryCode":"ES"},{"name":"Crowne Plaza Madrid","asciiName":"Crowne Plaza Madrid","alternatenames":[],"lat":40.4235,"lon":-3.7132,"countryCode":"ES"},{"name":"Iberostar Selection Lanzarote Park","asciiName":"Iberostar Selection Lanzarote Park","alternatenames":[],"lat":28.85668,"lon":-13.83929,"countryCode":"ES"},{"name":"Costa Papagayo II","asciiName":"Costa Papagayo II","alternatenames":[],"lat":28.9514,"lon":-13.7621,"countryCode":"ES"},{"name":"Los Pueblos","asciiName":"Los Pueblos","alternatenames":[],"lat":28.924,"lon":-13.676,"countryCode":"ES"},{"name":"Miami","asciiName":"Miami","alternatenames":[],"lat":38.9061,"lon":1.4188,"countryCode":"ES"},{"name":"TORRE DEL CONDE Hotel","asciiName":"TORRE DEL CONDE Hotel","alternatenames":[],"lat":28.0931,"lon":-17.1125,"countryCode":"ES"},{"name":"Club Martinique","asciiName":"Club Martinique","alternatenames":[],"lat":37.71723,"lon":-0.74225,"countryCode":"ES"},{"name":"Hyatt Regency las Lomas","asciiName":"Hyatt Regency las Lomas","alternatenames":[],"lat":37.59984,"lon":-0.81248,"countryCode":"ES"},{"name":"Don Quijote","asciiName":"Don Quijote","alternatenames":[],"lat":38.9061,"lon":1.4188,"countryCode":"ES"},{"name":"Bon Sol","asciiName":"Bon Sol","alternatenames":[],"lat":38.894,"lon":1.409,"countryCode":"ES"},{"name":"Apartments Catalina & Cafe del Mar","asciiName":"Apartments Catalina & Cafe del Mar","alternatenames":[],"lat":38.996,"lon":1.2903,"countryCode":"ES"},{"name":"Es Retiro","asciiName":"Es Retiro","alternatenames":[],"lat":38.98419,"lon":1.30104,"countryCode":"ES"},{"name":"AC Granada","asciiName":"AC Granada","alternatenames":[],"lat":37.20018,"lon":-3.61403,"countryCode":"ES"},{"name":"Carlota","asciiName":"Carlota","alternatenames":[],"lat":27.7904,"lon":-15.7073,"countryCode":"ES"},{"name":"Las Fresas","asciiName":"Las Fresas","alternatenames":[],"lat":27.7904,"lon":-15.7073,"countryCode":"ES"},{"name":"H10 Playa Meloneras Palace","asciiName":"H10 Playa Meloneras Palace","alternatenames":[],"lat":27.74705,"lon":-15.61072,"countryCode":"ES"},{"name":"Costa del Sol Princess","asciiName":"Costa del Sol Princess","alternatenames":[],"lat":36.4533,"lon":-5.0625,"countryCode":"ES"},{"name":"Castavi","asciiName":"Castavi","alternatenames":[],"lat":38.72191,"lon":1.45612,"countryCode":"ES"},{"name":"Senorio de Aloha","asciiName":"Senorio de Aloha","alternatenames":[],"lat":36.51027,"lon":-4.8853,"countryCode":"ES"},{"name":"NH Marbella","asciiName":"NH Marbella","alternatenames":[],"lat":36.5079,"lon":-4.8727,"countryCode":"ES"},{"name":"Camino Real","asciiName":"Camino Real","alternatenames":[],"lat":36.62441,"lon":-4.49985,"countryCode":"ES"},{"name":"Sol Timor Apartamentos","asciiName":"Sol Timor Apartamentos","alternatenames":[],"lat":36.60118,"lon":-4.51087,"countryCode":"ES"},{"name":"Helios","asciiName":"Helios","alternatenames":[],"lat":41.69929,"lon":2.84249,"countryCode":"ES"},{"name":"Florida Park","asciiName":"Florida Park","alternatenames":[],"lat":41.6338,"lon":2.7217,"countryCode":"ES"},{"name":"Amalia","asciiName":"Amalia","alternatenames":[],"lat":38.5409,"lon":-0.1215,"countryCode":"ES"},{"name":"LIDO Hotel","asciiName":"LIDO Hotel","alternatenames":[],"lat":38.53067,"lon":-0.10714,"countryCode":"ES"},{"name":"Benibeach","asciiName":"Benibeach","alternatenames":[],"lat":38.537,"lon":-0.141,"countryCode":"ES"},{"name":"El Faro","asciiName":"El Faro","alternatenames":[],"lat":38.5338,"lon":-0.1571,"countryCode":"ES"},{"name":"Balmoral","asciiName":"Balmoral","alternatenames":[],"lat":41.396,"lon":2.155,"countryCode":"ES"},{"name":"San Agustin","asciiName":"San Agustin","alternatenames":[],"lat":41.38055,"lon":2.17149,"countryCode":"ES"},{"name":"NH Forum","asciiName":"NH Forum","alternatenames":[],"lat":41.38566,"lon":2.14058,"countryCode":"ES"},{"name":"Diverhotel Aguadulce","asciiName":"Diverhotel Aguadulce","alternatenames":["PLAYATROPICAL Hotel"],"lat":36.82181,"lon":-2.53173,"countryCode":"ES"},{"name":"Golf Center","asciiName":"Golf Center","alternatenames":[],"lat":36.766,"lon":-2.6143,"countryCode":"ES"},{"name":"Hotel Linda","asciiName":"Hotel Linda","alternatenames":[],"lat":39.53786,"lon":2.71613,"countryCode":"ES"},{"name":"Plaza Cavana","asciiName":"Plaza Cavana","alternatenames":[],"lat":36.7452,"lon":-3.8761,"countryCode":"ES"},{"name":"Terralta","asciiName":"Terralta","alternatenames":[],"lat":38.5417,"lon":-0.1414,"countryCode":"ES"},{"name":"Marina","asciiName":"Marina","alternatenames":[],"lat":28.4163,"lon":-16.5539,"countryCode":"ES"},{"name":"PERLA TENERIFE Hotel","asciiName":"PERLA TENERIFE Hotel","alternatenames":[],"lat":28.4076,"lon":-16.5411,"countryCode":"ES"},{"name":"Casablanca","asciiName":"Casablanca","alternatenames":[],"lat":28.4135,"lon":-16.5418,"countryCode":"ES"},{"name":"Tropical","asciiName":"Tropical","alternatenames":[],"lat":28.41598,"lon":-16.55136,"countryCode":"ES"},{"name":"NH Plaza de Armas","asciiName":"NH Plaza de Armas","alternatenames":[],"lat":37.3928,"lon":-6.0023,"countryCode":"ES"},{"name":"San Pablo","asciiName":"San Pablo","alternatenames":[],"lat":37.40533,"lon":-5.92749,"countryCode":"ES"},{"name":"LAS CASAS DE LA JUDERIA Hotel","asciiName":"LAS CASAS DE LA JUDERIA Hotel","alternatenames":[],"lat":37.38636,"lon":-5.98739,"countryCode":"ES"},{"name":"Picasso","asciiName":"Picasso","alternatenames":[],"lat":38.535,"lon":-0.105,"countryCode":"ES"},{"name":"Central Normandie","asciiName":"Central Normandie","alternatenames":[],"lat":41.2369,"lon":1.8094,"countryCode":"ES"},{"name":"Mare Internum","asciiName":"Mare Internum","alternatenames":[],"lat":41.1352,"lon":1.3054,"countryCode":"ES"},{"name":"H10 SALAURIS PALACE Hotel","asciiName":"H10 SALAURIS PALACE Hotel","alternatenames":[],"lat":41.07934,"lon":1.14581,"countryCode":"ES"},{"name":"SAN POLO Hotel","asciiName":"SAN POLO Hotel","alternatenames":[],"lat":40.9593,"lon":-5.6637,"countryCode":"ES"},{"name":"Eolo Affiliated by FERGUS","asciiName":"Eolo Affiliated by FERGUS","alternatenames":[],"lat":39.9063,"lon":3.0829,"countryCode":"ES"},{"name":"Don Antonio","asciiName":"Don Antonio","alternatenames":[],"lat":39.5415,"lon":2.4354,"countryCode":"ES"},{"name":"Tora","asciiName":"Tora","alternatenames":[],"lat":39.53851,"lon":2.44621,"countryCode":"ES"},{"name":"SAMOS Hotel","asciiName":"SAMOS Hotel","alternatenames":[],"lat":39.50876,"lon":2.53278,"countryCode":"ES"},{"name":"Sotavento","asciiName":"Sotavento","alternatenames":[],"lat":39.5113,"lon":2.5351,"countryCode":"ES"},{"name":"Patricia","asciiName":"Patricia","alternatenames":[],"lat":28.8568,"lon":-13.811,"countryCode":"ES"},{"name":"Bocaina","asciiName":"Bocaina","alternatenames":[],"lat":28.92428,"lon":-13.65259,"countryCode":"ES"},{"name":"SOLVASA LAURISILVA Complejo","asciiName":"SOLVASA LAURISILVA Complejo","alternatenames":[],"lat":28.08811,"lon":-17.33591,"countryCode":"ES"},{"name":"Villas S'Argamassa","asciiName":"Villas S'Argamassa","alternatenames":[],"lat":38.994,"lon":1.564,"countryCode":"ES"},{"name":"Las Tartanas","asciiName":"Las Tartanas","alternatenames":[],"lat":27.761,"lon":-15.569,"countryCode":"ES"},{"name":"El Cardonal","asciiName":"El Cardonal","alternatenames":[],"lat":27.7628,"lon":-15.5771,"countryCode":"ES"},{"name":"Palm Garden Bungalows","asciiName":"Palm Garden Bungalows","alternatenames":[],"lat":27.75568,"lon":-15.59464,"countryCode":"ES"},{"name":"Apolo","asciiName":"Apolo","alternatenames":[],"lat":27.7558,"lon":-15.5697,"countryCode":"ES"},{"name":"Caledonia Aparthotel Golf Hotel and Spa","asciiName":"Caledonia Aparthotel Golf Hotel and Spa","alternatenames":[],"lat":36.51027,"lon":-4.8853,"countryCode":"ES"},{"name":"Certuner","asciiName":"Certuner","alternatenames":[],"lat":36.74305,"lon":-3.88427,"countryCode":"ES"},{"name":"NH Alanda-Marbella","asciiName":"NH Alanda-Marbella","alternatenames":[],"lat":36.5184,"lon":-4.8789,"countryCode":"ES"},{"name":"Alanda Club Marbella","asciiName":"Alanda Club Marbella","alternatenames":[],"lat":36.49316,"lon":-4.77483,"countryCode":"ES"},{"name":"Las Palomas","asciiName":"Las Palomas","alternatenames":[],"lat":36.616,"lon":-4.502,"countryCode":"ES"},{"name":"Bitacoras","asciiName":"Bitacoras","alternatenames":[],"lat":39.00395,"lon":-0.16235,"countryCode":"ES"},{"name":"Bravapark","asciiName":"Bravapark","alternatenames":[],"lat":41.69652,"lon":2.83067,"countryCode":"ES"},{"name":"Costa Encantada","asciiName":"Costa Encantada","alternatenames":[],"lat":41.69851,"lon":2.84534,"countryCode":"ES"},{"name":"Rosanna","asciiName":"Rosanna","alternatenames":[],"lat":41.6982,"lon":2.8459,"countryCode":"ES"},{"name":"PARK Hotel","asciiName":"PARK Hotel","alternatenames":[],"lat":41.72107,"lon":2.92975,"countryCode":"ES"},{"name":"NOVOPARK Hotel","asciiName":"NOVOPARK Hotel","alternatenames":[],"lat":41.72145,"lon":2.9302,"countryCode":"ES"},{"name":"Canfali","asciiName":"Canfali","alternatenames":[],"lat":38.5344,"lon":-0.1307,"countryCode":"ES"},{"name":"Evamar Apartamentos","asciiName":"Evamar Apartamentos","alternatenames":[],"lat":38.54038,"lon":-0.11106,"countryCode":"ES"},{"name":"VEDRA IBIZA Hotel","asciiName":"VEDRA IBIZA Hotel","alternatenames":[],"lat":38.98043,"lon":1.30171,"countryCode":"ES"},{"name":"Torre Joven","asciiName":"Torre Joven","alternatenames":[],"lat":37.95185,"lon":-0.71228,"countryCode":"ES"},{"name":"Turissa","asciiName":"Turissa","alternatenames":[],"lat":41.7201,"lon":2.9291,"countryCode":"ES"},{"name":"Jardin Caleta","asciiName":"Jardin Caleta","alternatenames":[],"lat":28.09907,"lon":-16.75409,"countryCode":"ES"},{"name":"Bahia Flamingo","asciiName":"Bahia Flamingo","alternatenames":[],"lat":28.2251,"lon":-16.8379,"countryCode":"ES"},{"name":"Semiramis","asciiName":"Semiramis","alternatenames":[],"lat":28.41631,"lon":-16.53514,"countryCode":"ES"},{"name":"Comodoro","asciiName":"Comodoro","alternatenames":[],"lat":28.04863,"lon":-16.71225,"countryCode":"ES"},{"name":"Bahia Playa","asciiName":"Bahia Playa","alternatenames":[],"lat":28.4103,"lon":-16.5623,"countryCode":"ES"},{"name":"Priorat","asciiName":"Priorat","alternatenames":[],"lat":41.07174,"lon":1.15254,"countryCode":"ES"},{"name":"Fiesta Club Playa d'en Bossa","asciiName":"Fiesta Club Playa d'en Bossa","alternatenames":[],"lat":38.8977,"lon":1.4154,"countryCode":"ES"},{"name":"Romantic de Sitges","asciiName":"Romantic de Sitges","alternatenames":[],"lat":41.2382,"lon":1.8106,"countryCode":"ES"},{"name":"Renaixenca","asciiName":"Renaixenca","alternatenames":[],"lat":41.2382,"lon":1.8106,"countryCode":"ES"},{"name":"Valentin Son Bou","asciiName":"Valentin Son Bou","alternatenames":[],"lat":39.90777,"lon":4.07636,"countryCode":"ES"},{"name":"Villas Finesse","asciiName":"Villas Finesse","alternatenames":[],"lat":39.9115,"lon":4.0997,"countryCode":"ES"},{"name":"Barcelo Pueblo Menorca","asciiName":"Barcelo Pueblo Menorca","alternatenames":[],"lat":39.81518,"lon":4.27613,"countryCode":"ES"},{"name":"ALMUDAINA Hotel","asciiName":"ALMUDAINA Hotel","alternatenames":[],"lat":39.5721,"lon":2.6448,"countryCode":"ES"},{"name":"Hostal Galicia","asciiName":"Hostal Galicia","alternatenames":[],"lat":40.42028,"lon":-3.7024,"countryCode":"ES"},{"name":"Los Zafiros","asciiName":"Los Zafiros","alternatenames":[],"lat":28.92491,"lon":-13.65928,"countryCode":"ES"},{"name":"Guinate","asciiName":"Guinate","alternatenames":[],"lat":28.92491,"lon":-13.65928,"countryCode":"ES"},{"name":"MARINA PALACE Apartamentos","asciiName":"MARINA PALACE Apartamentos","alternatenames":[],"lat":38.96967,"lon":1.2772,"countryCode":"ES"},{"name":"Sirenis Hotel Club Aura","asciiName":"Sirenis Hotel Club Aura","alternatenames":[],"lat":38.9651,"lon":1.2591,"countryCode":"ES"},{"name":"Excelsior","asciiName":"Excelsior","alternatenames":[],"lat":38.9828,"lon":1.3045,"countryCode":"ES"},{"name":"Poniente","asciiName":"Poniente","alternatenames":[],"lat":38.983,"lon":1.298,"countryCode":"ES"},{"name":"Puerto Plata","asciiName":"Puerto Plata","alternatenames":[],"lat":27.79,"lon":-15.714,"countryCode":"ES"},{"name":"Los Porches Ramon","asciiName":"Los Porches Ramon","alternatenames":[],"lat":27.7555,"lon":-15.5755,"countryCode":"ES"},{"name":"Igramar Morro Jable","asciiName":"Igramar Morro Jable","alternatenames":[],"lat":28.0497,"lon":-14.3515,"countryCode":"ES"},{"name":"Dona Catalina","asciiName":"Dona Catalina","alternatenames":[],"lat":36.4866,"lon":-4.9883,"countryCode":"ES"},{"name":"Hotel Riu Monica","asciiName":"Hotel Riu Monica","alternatenames":[],"lat":36.7431,"lon":-3.883,"countryCode":"ES"},{"name":"AluaSun Marbella Park","asciiName":"AluaSun Marbella Park","alternatenames":[],"lat":36.49514,"lon":-4.77297,"countryCode":"ES"},{"name":"Xaine Sun","asciiName":"Xaine Sun","alternatenames":[],"lat":41.6992,"lon":2.8409,"countryCode":"ES"},{"name":"Moderno","asciiName":"Moderno","alternatenames":[],"lat":41.3811,"lon":2.1727,"countryCode":"ES"},{"name":"PLAYA REAL Hotel","asciiName":"PLAYA REAL Hotel","alternatenames":[],"lat":38.91858,"lon":1.45675,"countryCode":"ES"},{"name":"Aparthotel Pinosol","asciiName":"Aparthotel Pinosol","alternatenames":[],"lat":38.75596,"lon":0.18209,"countryCode":"ES"},{"name":"El Rodat Hotel Village Spa","asciiName":"El Rodat Hotel Village Spa","alternatenames":[],"lat":38.75912,"lon":0.19794,"countryCode":"ES"},{"name":"SUPERATICOS Apartamentos","asciiName":"SUPERATICOS Apartamentos","alternatenames":[],"lat":37.64048,"lon":-0.71023,"countryCode":"ES"},{"name":"Hipotels Sherry Park","asciiName":"Hipotels Sherry Park","alternatenames":[],"lat":36.69304,"lon":-6.1343,"countryCode":"ES"},{"name":"Cabana","asciiName":"Cabana","alternatenames":[],"lat":38.5417,"lon":-0.1393,"countryCode":"ES"},{"name":"Dunas Paraiso","asciiName":"Dunas Paraiso","alternatenames":[],"lat":28.12131,"lon":-16.76768,"countryCode":"ES"},{"name":"PARQUE ALBATROS","asciiName":"PARQUE ALBATROS","alternatenames":[],"lat":28.02601,"lon":-16.61096,"countryCode":"ES"},{"name":"Alta","asciiName":"Alta","alternatenames":[],"lat":28.1323,"lon":-15.4408,"countryCode":"ES"},{"name":"AluaSoul Orotava Valley","asciiName":"AluaSoul Orotava Valley","alternatenames":[],"lat":28.40843,"lon":-16.55665,"countryCode":"ES"},{"name":"LOS DRAGOS DEL NORTE Apartamentos","asciiName":"LOS DRAGOS DEL NORTE Apartamentos","alternatenames":[],"lat":28.40695,"lon":-16.55213,"countryCode":"ES"},{"name":"Capri","asciiName":"Capri","alternatenames":[],"lat":39.90849,"lon":3.08427,"countryCode":"ES"},{"name":"Isla Cartuja","asciiName":"Isla Cartuja","alternatenames":[],"lat":37.417,"lon":-6.003,"countryCode":"ES"},{"name":"GRAN GARBI MAR Hotel","asciiName":"GRAN GARBI MAR Hotel","alternatenames":[],"lat":41.69755,"lon":2.84267,"countryCode":"ES"},{"name":"Sol Elite Menorca","asciiName":"Sol Elite Menorca","alternatenames":[],"lat":39.918,"lon":4.035,"countryCode":"ES"},{"name":"LAS VEGAS Hotel","asciiName":"LAS VEGAS Hotel","alternatenames":[],"lat":36.7215,"lon":-4.4026,"countryCode":"ES"},{"name":"Club Santa Ponsa","asciiName":"Club Santa Ponsa","alternatenames":[],"lat":39.5207,"lon":2.4818,"countryCode":"ES"},{"name":"Vista Club","asciiName":"Vista Club","alternatenames":[],"lat":39.5207,"lon":2.4818,"countryCode":"ES"},{"name":"Beverly Playa","asciiName":"Beverly Playa","alternatenames":[],"lat":39.5345,"lon":2.4591,"countryCode":"ES"},{"name":"Sol Trinidad","asciiName":"Sol Trinidad","alternatenames":[],"lat":39.5121,"lon":2.5385,"countryCode":"ES"},{"name":"AYA Seahotel - Adults Only","asciiName":"AYA Seahotel - Adults Only","alternatenames":[],"lat":39.51093,"lon":2.74929,"countryCode":"ES"},{"name":"Hostal Nuria","asciiName":"Hostal Nuria","alternatenames":[],"lat":40.42352,"lon":-3.70062,"countryCode":"ES"},{"name":"La Laguneta","asciiName":"La Laguneta","alternatenames":[],"lat":28.92345,"lon":-13.64688,"countryCode":"ES"},{"name":"Roca Park","asciiName":"Roca Park","alternatenames":[],"lat":38.9626,"lon":1.2674,"countryCode":"ES"},{"name":"Costa Taurito","asciiName":"Costa Taurito","alternatenames":[],"lat":27.8831,"lon":-15.7225,"countryCode":"ES"},{"name":"Gloria Palace San Agustin","asciiName":"Gloria Palace San Agustin","alternatenames":[],"lat":27.7695,"lon":-15.5488,"countryCode":"ES"},{"name":"Mozart","asciiName":"Mozart","alternatenames":[],"lat":27.79,"lon":-15.714,"countryCode":"ES"},{"name":"Els Llorers","asciiName":"Els Llorers","alternatenames":[],"lat":41.7073,"lon":2.8634,"countryCode":"ES"},{"name":"Finca Simo","asciiName":"Finca Simo","alternatenames":[],"lat":40.34,"lon":0.377,"countryCode":"ES"},{"name":"Gemelos XV","asciiName":"Gemelos XV","alternatenames":[],"lat":38.5415,"lon":-0.0996,"countryCode":"ES"},{"name":"MIAMI IBIZA Hotel & Apartamentos","asciiName":"MIAMI IBIZA Hotel & Apartamentos","alternatenames":[],"lat":39.00309,"lon":1.58009,"countryCode":"ES"},{"name":"Roma Reial","asciiName":"Roma Reial","alternatenames":[],"lat":41.38001,"lon":2.17488,"countryCode":"ES"},{"name":"Nunez Urgell","asciiName":"Nunez Urgell","alternatenames":[],"lat":41.3896,"lon":2.1487,"countryCode":"ES"},{"name":"PLAYAZUL Hotel","asciiName":"PLAYAZUL Hotel","alternatenames":[],"lat":36.72818,"lon":-2.62454,"countryCode":"ES"},{"name":"SANTA ANA Hotel","asciiName":"SANTA ANA Hotel","alternatenames":[],"lat":39.55254,"lon":2.60529,"countryCode":"ES"},{"name":"Port","asciiName":"Port","alternatenames":[],"lat":41.2348,"lon":1.8215,"countryCode":"ES"},{"name":"HM GRAN COSTA DEL SOL Hotel","asciiName":"HM GRAN COSTA DEL SOL Hotel","alternatenames":[],"lat":36.5007,"lon":-4.68261,"countryCode":"ES"},{"name":"CADOSA Hotel","asciiName":"CADOSA Hotel","alternatenames":[],"lat":41.76286,"lon":-2.40463,"countryCode":"ES"},{"name":"Marina 2 Torrevieja Internacional","asciiName":"Marina 2 Torrevieja Internacional","alternatenames":[],"lat":37.998,"lon":-0.656,"countryCode":"ES"},{"name":"Village Park","asciiName":"Village Park","alternatenames":[],"lat":41.0766,"lon":1.144,"countryCode":"ES"},{"name":"Carabela","asciiName":"Carabela","alternatenames":[],"lat":41.63314,"lon":2.68904,"countryCode":"ES"},{"name":"Larimar","asciiName":"Larimar","alternatenames":[],"lat":41.0738,"lon":1.1524,"countryCode":"ES"},{"name":"Plaza Santa Ponsa","asciiName":"Plaza Santa Ponsa","alternatenames":[],"lat":39.5149,"lon":2.4832,"countryCode":"ES"},{"name":"Villa Canaima","asciiName":"Villa Canaima","alternatenames":[],"lat":28.9347,"lon":-13.6217,"countryCode":"ES"},{"name":"Kontiki Club","asciiName":"Kontiki Club","alternatenames":[],"lat":28.92256,"lon":-13.6625,"countryCode":"ES"},{"name":"Sol Bahia","asciiName":"Sol Bahia","alternatenames":[],"lat":38.988,"lon":1.294,"countryCode":"ES"},{"name":"Dolores","asciiName":"Dolores","alternatenames":[],"lat":27.75552,"lon":-15.57551,"countryCode":"ES"},{"name":"MUR Apartamentos Buenos Aires","asciiName":"MUR Apartamentos Buenos Aires","alternatenames":[],"lat":27.75925,"lon":-15.57543,"countryCode":"ES"},{"name":"Albamar Golf Services","asciiName":"Albamar Golf Services","alternatenames":[],"lat":36.5957,"lon":-4.63762,"countryCode":"ES"},{"name":"Torre de Andalucia","asciiName":"Torre de Andalucia","alternatenames":[],"lat":36.5002,"lon":-4.9734,"countryCode":"ES"},{"name":"Pez Espada","asciiName":"Pez Espada","alternatenames":[],"lat":36.6061,"lon":-4.5078,"countryCode":"ES"},{"name":"Lloyd","asciiName":"Lloyd","alternatenames":[],"lat":36.6139,"lon":-4.5039,"countryCode":"ES"},{"name":"Aqua Hotel Onabrava","asciiName":"Aqua Hotel Onabrava","alternatenames":[],"lat":41.631,"lon":2.718,"countryCode":"ES"},{"name":"VILLA JEREZ Hotel","asciiName":"VILLA JEREZ Hotel","alternatenames":[],"lat":36.6947,"lon":-6.1319,"countryCode":"ES"},{"name":"Brasil","asciiName":"Brasil","alternatenames":[],"lat":38.53968,"lon":-0.13432,"countryCode":"ES"},{"name":"Presidente","asciiName":"Presidente","alternatenames":[],"lat":38.5382,"lon":-0.114,"countryCode":"ES"},{"name":"Torre Gerona","asciiName":"Torre Gerona","alternatenames":[],"lat":38.5373,"lon":-0.1153,"countryCode":"ES"},{"name":"Mur-Mar","asciiName":"Mur-Mar","alternatenames":[],"lat":41.3772,"lon":2.1766,"countryCode":"ES"},{"name":"El Faro","asciiName":"El Faro","alternatenames":[],"lat":36.74548,"lon":-2.6139,"countryCode":"ES"},{"name":"Hiblanc","asciiName":"Hiblanc","alternatenames":[],"lat":43.4223,"lon":-3.83624,"countryCode":"ES"},{"name":"Aparthotel Albufera","asciiName":"Aparthotel Albufera","alternatenames":[],"lat":39.41607,"lon":-0.37886,"countryCode":"ES"},{"name":"Tisalaya Park","asciiName":"Tisalaya Park","alternatenames":[],"lat":28.15016,"lon":-15.4269,"countryCode":"ES"},{"name":"Hotel NH Madrid Sur","asciiName":"Hotel NH Madrid Sur","alternatenames":[],"lat":40.39893,"lon":-3.67002,"countryCode":"ES"},{"name":"LA QUINTA PARK SUITES Hotel","asciiName":"LA QUINTA PARK SUITES Hotel","alternatenames":[],"lat":28.42888,"lon":-16.49553,"countryCode":"ES"},{"name":"El Trebol","asciiName":"El Trebol","alternatenames":[],"lat":38.53753,"lon":-0.11418,"countryCode":"ES"},{"name":"Clipper","asciiName":"Clipper","alternatenames":[],"lat":41.73217,"lon":2.86748,"countryCode":"ES"},{"name":"Silken Ciudad de Vitoria","asciiName":"Silken Ciudad de Vitoria","alternatenames":[],"lat":42.8408,"lon":-2.6873,"countryCode":"ES"},{"name":"BARCELO VARADERO","asciiName":"BARCELO VARADERO","alternatenames":[],"lat":28.22548,"lon":-16.83748,"countryCode":"ES"},{"name":"POLLENSA MAR Apartamentos","asciiName":"POLLENSA MAR Apartamentos","alternatenames":[],"lat":39.91104,"lon":3.09346,"countryCode":"ES"},{"name":"Les Dalies - Blaumar Apartaments","asciiName":"Les Dalies - Blaumar Apartaments","alternatenames":[],"lat":41.07764,"lon":1.14188,"countryCode":"ES"},{"name":"Flora","asciiName":"Flora","alternatenames":[],"lat":39.909,"lon":3.0848,"countryCode":"ES"},{"name":"Habitat","asciiName":"Habitat","alternatenames":[],"lat":39.908,"lon":3.0841,"countryCode":"ES"},{"name":"Alcudia Pins","asciiName":"Alcudia Pins","alternatenames":[],"lat":39.796,"lon":3.1213,"countryCode":"ES"},{"name":"RIO MAR Hotel","asciiName":"RIO MAR Hotel","alternatenames":[],"lat":39.803,"lon":3.1167,"countryCode":"ES"},{"name":"Lagotel Apartments","asciiName":"Lagotel Apartments","alternatenames":[],"lat":39.81028,"lon":3.10535,"countryCode":"ES"},{"name":"Bahia de Paguera","asciiName":"Bahia de Paguera","alternatenames":[],"lat":39.53622,"lon":2.45817,"countryCode":"ES"},{"name":"Eucalipto","asciiName":"Eucalipto","alternatenames":[],"lat":39.5392,"lon":2.4473,"countryCode":"ES"},{"name":"El Cupido","asciiName":"El Cupido","alternatenames":[],"lat":39.5392,"lon":2.4473,"countryCode":"ES"},{"name":"Tryp Bosque","asciiName":"Tryp Bosque","alternatenames":[],"lat":39.567,"lon":2.626,"countryCode":"ES"},{"name":"Invisa Hotel Club Cala Blanca","asciiName":"Invisa Hotel Club Cala Blanca","alternatenames":[],"lat":39.048,"lon":1.5915,"countryCode":"ES"},{"name":"Los Pinares I","asciiName":"Los Pinares I","alternatenames":[],"lat":38.995,"lon":1.5613,"countryCode":"ES"},{"name":"Pacific","asciiName":"Pacific","alternatenames":[],"lat":38.983,"lon":1.307,"countryCode":"ES"},{"name":"Villas Mirador del Mar","asciiName":"Villas Mirador del Mar","alternatenames":[],"lat":27.7907,"lon":-15.7156,"countryCode":"ES"},{"name":"Dorotea","asciiName":"Dorotea","alternatenames":[],"lat":27.7595,"lon":-15.5715,"countryCode":"ES"},{"name":"Santa Clara","asciiName":"Santa Clara","alternatenames":[],"lat":27.7617,"lon":-15.5724,"countryCode":"ES"},{"name":"Lopesan Buenaventura","asciiName":"Lopesan Buenaventura","alternatenames":[],"lat":27.762,"lon":-15.567,"countryCode":"ES"},{"name":"Los Girasoles Bungalows","asciiName":"Los Girasoles Bungalows","alternatenames":[],"lat":27.7617,"lon":-15.5724,"countryCode":"ES"},{"name":"Dunas Paradise","asciiName":"Dunas Paradise","alternatenames":[],"lat":28.0483,"lon":-14.339,"countryCode":"ES"},{"name":"Nerja Club","asciiName":"Nerja Club","alternatenames":[],"lat":36.7528,"lon":-3.8135,"countryCode":"ES"},{"name":"El Rodeo","asciiName":"El Rodeo","alternatenames":[],"lat":36.5092,"lon":-4.8878,"countryCode":"ES"},{"name":"Club Marbella / Regency Palms Crown Resort","asciiName":"Club Marbella / Regency Palms Crown Resort","alternatenames":[],"lat":36.49594,"lon":-4.72049,"countryCode":"ES"},{"name":"Santa Rosa","asciiName":"Santa Rosa","alternatenames":[],"lat":36.7312,"lon":-3.9643,"countryCode":"ES"},{"name":"PRESTIGE MAR Y SOL Hotel","asciiName":"PRESTIGE MAR Y SOL Hotel","alternatenames":[],"lat":42.26232,"lon":3.17564,"countryCode":"ES"},{"name":"Santa Susanna Affiliated by FERGUS","asciiName":"Santa Susanna Affiliated by FERGUS","alternatenames":[],"lat":41.63689,"lon":2.71534,"countryCode":"ES"},{"name":"SERVIGROUP PUEBLO BENIDORM Hotel","asciiName":"SERVIGROUP PUEBLO BENIDORM Hotel","alternatenames":[],"lat":38.53971,"lon":-0.11384,"countryCode":"ES"},{"name":"Melina","asciiName":"Melina","alternatenames":[],"lat":38.53899,"lon":-0.13385,"countryCode":"ES"},{"name":"Buenavista","asciiName":"Buenavista","alternatenames":[],"lat":38.5424,"lon":-0.1054,"countryCode":"ES"},{"name":"BEATRIZ Playa & SPA","asciiName":"BEATRIZ Playa & SPA","alternatenames":[],"lat":28.93282,"lon":-13.61783,"countryCode":"ES"},{"name":"Husa Rey Juan Carlos I","asciiName":"Husa Rey Juan Carlos I","alternatenames":[],"lat":41.38338,"lon":2.10973,"countryCode":"ES"},{"name":"Colon","asciiName":"Colon","alternatenames":[],"lat":41.38507,"lon":2.17576,"countryCode":"ES"},{"name":"Silken Concordia","asciiName":"Silken Concordia","alternatenames":[],"lat":41.37474,"lon":2.16109,"countryCode":"ES"},{"name":"Sercotel Amister Art Hotel","asciiName":"Sercotel Amister Art Hotel","alternatenames":[],"lat":41.38441,"lon":2.15144,"countryCode":"ES"},{"name":"Evenia Rocafort","asciiName":"Evenia Rocafort","alternatenames":[],"lat":41.3761,"lon":2.15719,"countryCode":"ES"},{"name":"La Siesta","asciiName":"La Siesta","alternatenames":[],"lat":27.766,"lon":-15.539,"countryCode":"ES"},{"name":"HG Cala Llonga","asciiName":"HG Cala Llonga","alternatenames":[],"lat":39.89488,"lon":4.29657,"countryCode":"ES"},{"name":"Parador de Mojácar","asciiName":"Parador de Mojacar","alternatenames":[],"lat":37.13232,"lon":-1.83039,"countryCode":"ES"},{"name":"BEZANA LAGO Hotel","asciiName":"BEZANA LAGO Hotel","alternatenames":[],"lat":43.4403,"lon":-3.90006,"countryCode":"ES"},{"name":"RH RIVIERA Hotel","asciiName":"RH RIVIERA Hotel","alternatenames":[],"lat":39.00011,"lon":-0.15924,"countryCode":"ES"},{"name":"Las Piramides","asciiName":"Las Piramides","alternatenames":[],"lat":28.06316,"lon":-16.72858,"countryCode":"ES"},{"name":"Hacienda del Sol","asciiName":"Hacienda del Sol","alternatenames":[],"lat":28.0667,"lon":-16.73061,"countryCode":"ES"},{"name":"Bahia Principe Sunlight San Felipe","asciiName":"Bahia Principe Sunlight San Felipe","alternatenames":[],"lat":28.41642,"lon":-16.54166,"countryCode":"ES"},{"name":"Gema Puerto","asciiName":"Gema Puerto","alternatenames":[],"lat":28.4748,"lon":-16.2655,"countryCode":"ES"},{"name":"Hosteria del Laurel","asciiName":"Hosteria del Laurel","alternatenames":[],"lat":37.385,"lon":-5.9896,"countryCode":"ES"},{"name":"Michelangelo","asciiName":"Michelangelo","alternatenames":[],"lat":41.0758,"lon":1.1414,"countryCode":"ES"},{"name":"Via Aurelia","asciiName":"Via Aurelia","alternatenames":[],"lat":41.0787,"lon":1.1261,"countryCode":"ES"},{"name":"Da Vinci Royal","asciiName":"Da Vinci Royal","alternatenames":[],"lat":41.07601,"lon":1.14111,"countryCode":"ES"},{"name":"Playamar","asciiName":"Playamar","alternatenames":[],"lat":39.568,"lon":3.3724,"countryCode":"ES"},{"name":"CAPE COLOM - JS Hotels","asciiName":"CAPE COLOM - JS Hotels","alternatenames":[],"lat":39.41182,"lon":3.26326,"countryCode":"ES"},{"name":"Club Oceano","asciiName":"Club Oceano","alternatenames":[],"lat":28.92395,"lon":-13.661,"countryCode":"ES"},{"name":"Princesa Yaiza Suite Hotel Resort","asciiName":"Princesa Yaiza Suite Hotel Resort","alternatenames":[],"lat":28.86384,"lon":-13.82323,"countryCode":"ES"},{"name":"LOS TULIPANES Hotel","asciiName":"LOS TULIPANES Hotel","alternatenames":[],"lat":28.92448,"lon":-13.64726,"countryCode":"ES"},{"name":"PLAYA CLUB Apartamentos","asciiName":"PLAYA CLUB Apartamentos","alternatenames":[],"lat":28.92065,"lon":-13.65067,"countryCode":"ES"},{"name":"Las Hurdes","asciiName":"Las Hurdes","alternatenames":[],"lat":38.985,"lon":1.3,"countryCode":"ES"},{"name":"Las Tirajanas","asciiName":"Las Tirajanas","alternatenames":[],"lat":27.9201,"lon":-15.5741,"countryCode":"ES"},{"name":"Montemar","asciiName":"Montemar","alternatenames":[],"lat":27.7615,"lon":-15.5653,"countryCode":"ES"},{"name":"Parquemar","asciiName":"Parquemar","alternatenames":[],"lat":27.754,"lon":-15.58,"countryCode":"ES"},{"name":"Andalucia Princess","asciiName":"Andalucia Princess","alternatenames":[],"lat":36.4535,"lon":-5.0618,"countryCode":"ES"},{"name":"Marbella Club","asciiName":"Marbella Club","alternatenames":[],"lat":36.50802,"lon":-4.88327,"countryCode":"ES"},{"name":"Senator Marbella","asciiName":"Senator Marbella","alternatenames":[],"lat":36.50802,"lon":-4.88327,"countryCode":"ES"},{"name":"Masplaya","asciiName":"Masplaya","alternatenames":[],"lat":36.5623,"lon":-4.6065,"countryCode":"ES"},{"name":"La Nogalera","asciiName":"La Nogalera","alternatenames":[],"lat":36.6224,"lon":-4.4984,"countryCode":"ES"},{"name":"Montanamar Lloret","asciiName":"Montanamar Lloret","alternatenames":[],"lat":41.73217,"lon":2.86748,"countryCode":"ES"},{"name":"Mariscal IV-V","asciiName":"Mariscal IV-V","alternatenames":[],"lat":38.54124,"lon":-0.11549,"countryCode":"ES"},{"name":"Acorn Santa Ponsa Park","asciiName":"Acorn Santa Ponsa Park","alternatenames":[],"lat":39.5174,"lon":2.4842,"countryCode":"ES"},{"name":"PLAZA DE ESPAÑA Hotel","asciiName":"PLAZA DE ESPANA Hotel","alternatenames":[],"lat":40.42258,"lon":-3.71194,"countryCode":"ES"},{"name":"Eco Sant Angelo","asciiName":"Eco Sant Angelo","alternatenames":["NH Sant Angelo"],"lat":41.379,"lon":2.15,"countryCode":"ES"},{"name":"SAN CARLOS Hotel","asciiName":"SAN CARLOS Hotel","alternatenames":[],"lat":42.87071,"lon":-8.54613,"countryCode":"ES"},{"name":"Las Torres","asciiName":"Las Torres","alternatenames":[],"lat":38.542,"lon":-0.1,"countryCode":"ES"},{"name":"PRESIDENTE Hotel","asciiName":"PRESIDENTE Hotel","alternatenames":[],"lat":39.10836,"lon":1.51683,"countryCode":"ES"},{"name":"Auto Hogar","asciiName":"Auto Hogar","alternatenames":[],"lat":41.375,"lon":2.1695,"countryCode":"ES"},{"name":"Sercotel Bahia Malaga","asciiName":"Sercotel Bahia Malaga","alternatenames":[],"lat":36.7151,"lon":-4.4232,"countryCode":"ES"},{"name":"Hotel Riu Garoe","asciiName":"Hotel Riu Garoe","alternatenames":[],"lat":28.41302,"lon":-16.53193,"countryCode":"ES"},{"name":"MASARU Apartamentos","asciiName":"MASARU Apartamentos","alternatenames":[],"lat":28.4147,"lon":-16.53782,"countryCode":"ES"},{"name":"LAS CASAS DEL REY DE BAEZA Hotel","asciiName":"LAS CASAS DEL REY DE BAEZA Hotel","alternatenames":[],"lat":37.39137,"lon":-5.98673,"countryCode":"ES"},{"name":"Alcoba del Rey de Sevilla","asciiName":"Alcoba del Rey de Sevilla","alternatenames":[],"lat":37.40283,"lon":-5.991,"countryCode":"ES"},{"name":"Pollentia","asciiName":"Pollentia","alternatenames":[],"lat":39.89634,"lon":3.07845,"countryCode":"ES"},{"name":"Bahia del Sol","asciiName":"Bahia del Sol","alternatenames":[],"lat":39.51272,"lon":2.47647,"countryCode":"ES"},{"name":"Novo Mar","asciiName":"Novo Mar","alternatenames":[],"lat":39.5372,"lon":2.4567,"countryCode":"ES"},{"name":"Promenade / Panama","asciiName":"Promenade / Panama","alternatenames":[],"lat":39.5396,"lon":2.4548,"countryCode":"ES"},{"name":"SUNNA PARK Hotel","asciiName":"SUNNA PARK Hotel","alternatenames":[],"lat":39.53725,"lon":2.45635,"countryCode":"ES"},{"name":"Sol Cala Blanca","asciiName":"Sol Cala Blanca","alternatenames":[],"lat":39.51805,"lon":2.53595,"countryCode":"ES"},{"name":"Plazamar","asciiName":"Plazamar","alternatenames":[],"lat":39.5127,"lon":2.48403,"countryCode":"ES"},{"name":"Vistanova","asciiName":"Vistanova","alternatenames":[],"lat":39.5001,"lon":2.4784,"countryCode":"ES"},{"name":"CATALONIA GAUDI Hotel","asciiName":"CATALONIA GAUDI Hotel","alternatenames":[],"lat":40.41946,"lon":-3.69901,"countryCode":"ES"},{"name":"Balcon de Taurito","asciiName":"Balcon de Taurito","alternatenames":[],"lat":27.8163,"lon":-15.74962,"countryCode":"ES"},{"name":"SEASIDE PALM BEACH Hotel","asciiName":"SEASIDE PALM BEACH Hotel","alternatenames":[],"lat":27.73834,"lon":-15.59603,"countryCode":"ES"},{"name":"San Cristobal","asciiName":"San Cristobal","alternatenames":[],"lat":36.5093,"lon":-4.8858,"countryCode":"ES"},{"name":"PUERTO BAHIA Hotel","asciiName":"PUERTO BAHIA Hotel","alternatenames":[],"lat":36.57882,"lon":-6.22495,"countryCode":"ES"},{"name":"Fenals Park","asciiName":"Fenals Park","alternatenames":[],"lat":41.6988,"lon":2.83395,"countryCode":"ES"},{"name":"Continental Tossa Hotel","asciiName":"Continental Tossa Hotel","alternatenames":[],"lat":41.72239,"lon":2.92792,"countryCode":"ES"},{"name":"La Pineda Euromar","asciiName":"La Pineda Euromar","alternatenames":[],"lat":42.05005,"lon":3.1972,"countryCode":"ES"},{"name":"Aqua Hotel Montagut suites","asciiName":"Aqua Hotel Montagut suites","alternatenames":[],"lat":41.3811,"lon":2.4323,"countryCode":"ES"},{"name":"Mayna","asciiName":"Mayna","alternatenames":[],"lat":38.5379,"lon":-0.1296,"countryCode":"ES"},{"name":"SERVIGROUP VENUS Hotel","asciiName":"SERVIGROUP VENUS Hotel","alternatenames":[],"lat":38.53883,"lon":-0.11418,"countryCode":"ES"},{"name":"Comercio","asciiName":"Comercio","alternatenames":[],"lat":41.37939,"lon":2.176,"countryCode":"ES"},{"name":"CATALONIA GRAN CATALONIA Hotel","asciiName":"CATALONIA GRAN CATALONIA Hotel","alternatenames":[],"lat":41.39391,"lon":2.15691,"countryCode":"ES"},{"name":"Rege","asciiName":"Rege","alternatenames":[],"lat":41.378,"lon":2.175,"countryCode":"ES"},{"name":"Sansi Diputacio","asciiName":"Sansi Diputacio","alternatenames":[],"lat":41.38792,"lon":2.1641,"countryCode":"ES"},{"name":"MOGUIMA Apartamentos","asciiName":"MOGUIMA Apartamentos","alternatenames":[],"lat":36.72707,"lon":-2.62584,"countryCode":"ES"},{"name":"LYON Hotel","asciiName":"LYON Hotel","alternatenames":[],"lat":41.38318,"lon":2.18477,"countryCode":"ES"},{"name":"Gran Melia Victoria","asciiName":"Gran Melia Victoria","alternatenames":[],"lat":39.56395,"lon":2.62596,"countryCode":"ES"},{"name":"Catalonia Excelsior Hotel","asciiName":"Catalonia Excelsior Hotel","alternatenames":[],"lat":39.4714,"lon":-0.3759,"countryCode":"ES"},{"name":"Adonis Plaza","asciiName":"Adonis Plaza","alternatenames":[],"lat":28.4669,"lon":-16.2488,"countryCode":"ES"},{"name":"NH Viapol","asciiName":"NH Viapol","alternatenames":[],"lat":37.379,"lon":-5.978,"countryCode":"ES"},{"name":"Dona Manuela","asciiName":"Dona Manuela","alternatenames":[],"lat":37.3835,"lon":-5.9879,"countryCode":"ES"},{"name":"Fresno","asciiName":"Fresno","alternatenames":[],"lat":37.97787,"lon":-0.66875,"countryCode":"ES"},{"name":"Bodega Real","asciiName":"Bodega Real","alternatenames":[],"lat":36.60254,"lon":-6.22093,"countryCode":"ES"},{"name":"Lago Park II","asciiName":"Lago Park II","alternatenames":[],"lat":39.8137,"lon":3.1133,"countryCode":"ES"},{"name":"Sun Beach","asciiName":"Sun Beach","alternatenames":[],"lat":39.51972,"lon":2.47999,"countryCode":"ES"},{"name":"Jutlandia","asciiName":"Jutlandia","alternatenames":[],"lat":39.5115,"lon":2.4857,"countryCode":"ES"},{"name":"Delfin Playa","asciiName":"Delfin Playa","alternatenames":[],"lat":39.52155,"lon":2.53301,"countryCode":"ES"},{"name":"Grupotel Playa de Palma Suites and Spa","asciiName":"Grupotel Playa de Palma Suites and Spa","alternatenames":[],"lat":39.5147,"lon":2.7523,"countryCode":"ES"},{"name":"Mediterraneo","asciiName":"Mediterraneo","alternatenames":[],"lat":38.9869,"lon":1.5351,"countryCode":"ES"},{"name":"FIESTA Club Hotel DON TONI","asciiName":"FIESTA Club Hotel DON TONI","alternatenames":[],"lat":38.88303,"lon":1.4049,"countryCode":"ES"},{"name":"Fiesta San Remo","asciiName":"Fiesta San Remo","alternatenames":[],"lat":38.9714,"lon":1.3061,"countryCode":"ES"},{"name":"Suietehotel S'Argamassa Palace","asciiName":"Suietehotel S'Argamassa Palace","alternatenames":[],"lat":38.99405,"lon":1.56348,"countryCode":"ES"},{"name":"Grupotel Oasis","asciiName":"Grupotel Oasis","alternatenames":[],"lat":39.10806,"lon":1.51426,"countryCode":"ES"},{"name":"Melia Tamarindos","asciiName":"Melia Tamarindos","alternatenames":[],"lat":27.7724,"lon":-15.5406,"countryCode":"ES"},{"name":"Bungalows Las Vegas Golf","asciiName":"Bungalows Las Vegas Golf","alternatenames":[],"lat":27.76287,"lon":-15.5771,"countryCode":"ES"},{"name":"Royal Romana Playa","asciiName":"Royal Romana Playa","alternatenames":[],"lat":36.4968,"lon":-4.7725,"countryCode":"ES"},{"name":"El Porton","asciiName":"El Porton","alternatenames":[],"lat":36.504,"lon":-4.6792,"countryCode":"ES"},{"name":"Las Terrazas de Santa Maria Golf","asciiName":"Las Terrazas de Santa Maria Golf","alternatenames":[],"lat":36.49723,"lon":-4.78396,"countryCode":"ES"},{"name":"Stella Maris","asciiName":"Stella Maris","alternatenames":[],"lat":36.5466,"lon":-4.6165,"countryCode":"ES"},{"name":"Sol Don Pedro","asciiName":"Sol Don Pedro","alternatenames":[],"lat":36.62712,"lon":-4.49384,"countryCode":"ES"},{"name":"Cibeles Playa","asciiName":"Cibeles Playa","alternatenames":[],"lat":38.9987,"lon":-0.1625,"countryCode":"ES"},{"name":"Bonaire","asciiName":"Bonaire","alternatenames":[],"lat":39.9191,"lon":-5.178,"countryCode":"ES"},{"name":"Santa Ana I-II","asciiName":"Santa Ana I-II","alternatenames":[],"lat":41.702,"lon":2.8471,"countryCode":"ES"},{"name":"Melrose Place LLoret","asciiName":"Melrose Place LLoret","alternatenames":[],"lat":41.70551,"lon":2.85452,"countryCode":"ES"},{"name":"La Huerta","asciiName":"La Huerta","alternatenames":[],"lat":41.7241,"lon":2.9283,"countryCode":"ES"},{"name":"PRINCE PARK Hotel","asciiName":"PRINCE PARK Hotel","alternatenames":[],"lat":38.54191,"lon":-0.12913,"countryCode":"ES"},{"name":"Mariscal III","asciiName":"Mariscal III","alternatenames":[],"lat":38.53744,"lon":-0.10845,"countryCode":"ES"},{"name":"Aparthotel La Era Park","asciiName":"Aparthotel La Era Park","alternatenames":[],"lat":38.54038,"lon":-0.12757,"countryCode":"ES"},{"name":"Deloix Aqua Center","asciiName":"Deloix Aqua Center","alternatenames":[],"lat":38.541,"lon":-0.1039,"countryCode":"ES"},{"name":"LUXMAR Apartamentos","asciiName":"LUXMAR Apartamentos","alternatenames":[],"lat":38.54076,"lon":-0.10882,"countryCode":"ES"},{"name":"Jaime I","asciiName":"Jaime I","alternatenames":[],"lat":38.54022,"lon":-0.13515,"countryCode":"ES"},{"name":"Bellavista Mar","asciiName":"Bellavista Mar","alternatenames":[],"lat":36.72559,"lon":-2.62873,"countryCode":"ES"},{"name":"Minarete","asciiName":"Minarete","alternatenames":[],"lat":36.7291,"lon":-2.6256,"countryCode":"ES"},{"name":"PLAYALUNA Hotel","asciiName":"PLAYALUNA Hotel","alternatenames":[],"lat":36.72165,"lon":-2.62961,"countryCode":"ES"},{"name":"Oasis Beach","asciiName":"Oasis Beach","alternatenames":[],"lat":38.83296,"lon":-0.12152,"countryCode":"ES"},{"name":"Parque Denia","asciiName":"Parque Denia","alternatenames":[],"lat":38.83427,"lon":0.08924,"countryCode":"ES"},{"name":"H10 Delfin Park","asciiName":"H10 Delfin Park","alternatenames":[],"lat":41.0752,"lon":1.1452,"countryCode":"ES"},{"name":"Carolina","asciiName":"Carolina","alternatenames":[],"lat":27.79331,"lon":-15.7098,"countryCode":"ES"},{"name":"Sand Club","asciiName":"Sand Club","alternatenames":[],"lat":28.4703,"lon":-16.2515,"countryCode":"ES"},{"name":"Park Plaza","asciiName":"Park Plaza","alternatenames":[],"lat":28.41578,"lon":-16.5515,"countryCode":"ES"},{"name":"Teneguia","asciiName":"Teneguia","alternatenames":[],"lat":28.41274,"lon":-16.55457,"countryCode":"ES"},{"name":"Alpha","asciiName":"Alpha","alternatenames":[],"lat":38.541,"lon":-0.117,"countryCode":"ES"},