[{"name":"Aso Youth Hostel","asciiName":"Aso Youth Hostel","alternatenames":["a suyusuhosuteru","阿蘇ユースホステル"],"lat":32.92858,"lon":131.07673,"countryCode":"JP"},{"name":"Hotel Il Monte","asciiName":"Hotel Il Monte","alternatenames":[],"lat":34.699,"lon":135.5054,"countryCode":"JP"},{"name":"the b Nagoya","asciiName":"the b Nagoya","alternatenames":[],"lat":35.1438,"lon":136.9162,"countryCode":"JP"},{"name":"Grand Prince Hotel Kyoto","asciiName":"Grand Prince Hotel Kyoto","alternatenames":[],"lat":35.0581,"lon":135.7846,"countryCode":"JP"},{"name":"Cerulean Tower Tokyu Hotel","asciiName":"Cerulean Tower Tokyu Hotel","alternatenames":[],"lat":35.6525,"lon":139.7018,"countryCode":"JP"},{"name":"Nagoya Tokyu Hotel","asciiName":"Nagoya Tokyu Hotel","alternatenames":[],"lat":35.1438,"lon":136.9162,"countryCode":"JP"},{"name":"Shibuya Excel Hotel Tokyu","asciiName":"Shibuya Excel Hotel Tokyu","alternatenames":[],"lat":35.6558,"lon":139.7044,"countryCode":"JP"},{"name":"Hotel Nikko Toyohashi","asciiName":"Hotel Nikko Toyohashi","alternatenames":[],"lat":35.1628,"lon":136.918,"countryCode":"JP"},{"name":"The Westin Miyako Kyoto","asciiName":"The Westin Miyako Kyoto","alternatenames":[],"lat":35.0045,"lon":135.7903,"countryCode":"JP"},{"name":"Akasaka Excel Hotel Tokyu","asciiName":"Akasaka Excel Hotel Tokyu","alternatenames":[],"lat":35.6745,"lon":139.7399,"countryCode":"JP"},{"name":"Kyoto Royal Hotel & Spa","asciiName":"Kyoto Royal Hotel & Spa","alternatenames":[],"lat":35.0069,"lon":135.7717,"countryCode":"JP"},{"name":"Dai Ichi Inn Ikebukuro","asciiName":"Dai Ichi Inn Ikebukuro","alternatenames":[],"lat":35.7272,"lon":139.7163,"countryCode":"JP"},{"name":"New Otani Hotel, Osaka","asciiName":"New Otani Hotel, Osaka","alternatenames":[],"lat":34.6863,"lon":135.5357,"countryCode":"JP"},{"name":"Ramada Kansai International Ai","asciiName":"Ramada Kansai International Ai","alternatenames":[],"lat":34.4142,"lon":135.3266,"countryCode":"JP"},{"name":"Nara Hotel","asciiName":"Nara Hotel","alternatenames":[],"lat":34.6814,"lon":135.8381,"countryCode":"JP"},{"name":"Yokohama Excel Hotel Tokyu","asciiName":"Yokohama Excel Hotel Tokyu","alternatenames":[],"lat":35.465,"lon":139.6263,"countryCode":"JP"},{"name":"Granvia Osaka Hotel","asciiName":"Granvia Osaka Hotel","alternatenames":[],"lat":34.6989,"lon":135.4989,"countryCode":"JP"},{"name":"Palace Hotel","asciiName":"Palace Hotel","alternatenames":[],"lat":35.6819,"lon":139.7643,"countryCode":"JP"},{"name":"Kyoto Hotel Okura","asciiName":"Kyoto Hotel Okura","alternatenames":[],"lat":35.0086,"lon":135.7728,"countryCode":"JP"},{"name":"The Prince Sakura Tower Tokyo","asciiName":"The Prince Sakura Tower Tokyo","alternatenames":[],"lat":35.631,"lon":139.73534,"countryCode":"JP"},{"name":"ANA Hotel Kyoto","asciiName":"ANA Hotel Kyoto","alternatenames":[],"lat":35.0083,"lon":135.7551,"countryCode":"JP"},{"name":"Hotel New Hankyu Tokyo","asciiName":"Hotel New Hankyu Tokyo","alternatenames":[],"lat":35.6631,"lon":139.7822,"countryCode":"JP"},{"name":"Hotel Granvia Kyoto","asciiName":"Hotel Granvia Kyoto","alternatenames":[],"lat":34.9797,"lon":135.7593,"countryCode":"JP"},{"name":"Hotel New Hankyu Osaka","asciiName":"Hotel New Hankyu Osaka","alternatenames":[],"lat":34.701,"lon":135.5012,"countryCode":"JP"},{"name":"Sheraton Sapporo Hotel","asciiName":"Sheraton Sapporo Hotel","alternatenames":[],"lat":43.0549,"lon":141.3453,"countryCode":"JP"},{"name":"Dai-Ichi Tokyo Seafort","asciiName":"Dai-Ichi Tokyo Seafort","alternatenames":[],"lat":35.62448,"lon":139.75116,"countryCode":"JP"},{"name":"Hotel Nikko Narita","asciiName":"Hotel Nikko Narita","alternatenames":[],"lat":35.7774,"lon":140.3885,"countryCode":"JP"},{"name":"Kyoto Brighton Hotel","asciiName":"Kyoto Brighton Hotel","alternatenames":[],"lat":35.0191,"lon":135.7599,"countryCode":"JP"},{"name":"Shinbashi Atagoyama Tokyu Inn","asciiName":"Shinbashi Atagoyama Tokyu Inn","alternatenames":[],"lat":35.6633,"lon":139.7521,"countryCode":"JP"},{"name":"Hilton Tokyo Narita Airport","asciiName":"Hilton Tokyo Narita Airport","alternatenames":[],"lat":35.78465,"lon":140.35392,"countryCode":"JP"},{"name":"Palace Hotel Hakone","asciiName":"Palace Hotel Hakone","alternatenames":[],"lat":35.1929,"lon":139.0318,"countryCode":"JP"},{"name":"Kichijoji Tokyu Inn","asciiName":"Kichijoji Tokyu Inn","alternatenames":[],"lat":35.7002,"lon":139.5827,"countryCode":"JP"},{"name":"Omori Tokyu Inn","asciiName":"Omori Tokyu Inn","alternatenames":[],"lat":35.5855,"lon":139.7322,"countryCode":"JP"},{"name":"Renaissance Gifu Hotel","asciiName":"Renaissance Gifu Hotel","alternatenames":[],"lat":35.7789,"lon":137.0592,"countryCode":"JP"},{"name":"Shinjuku Prince Hotel","asciiName":"Shinjuku Prince Hotel","alternatenames":[],"lat":35.6877,"lon":139.705,"countryCode":"JP"},{"name":"Swissotel Nankai","asciiName":"Swissotel Nankai","alternatenames":[],"lat":34.6511,"lon":135.4949,"countryCode":"JP"},{"name":"Royal Park Hotel","asciiName":"Royal Park Hotel","alternatenames":[],"lat":35.679,"lon":139.7903,"countryCode":"JP"},{"name":"ANA InterContinental Tokyo","asciiName":"ANA InterContinental Tokyo","alternatenames":[],"lat":35.666,"lon":139.7453,"countryCode":"JP"},{"name":"Okinawa Harborview Hotel","asciiName":"Okinawa Harborview Hotel","alternatenames":[],"lat":26.3374,"lon":127.8024,"countryCode":"JP"},{"name":"Tokyo Prince Hotel","asciiName":"Tokyo Prince Hotel","alternatenames":[],"lat":35.65906,"lon":139.74813,"countryCode":"JP"},{"name":"Dai Ichi Hotel Annex","asciiName":"Dai Ichi Hotel Annex","alternatenames":[],"lat":35.66897,"lon":139.75769,"countryCode":"JP"},{"name":"Grand Prince Hotel Hiroshima","asciiName":"Grand Prince Hotel Hiroshima","alternatenames":[],"lat":34.3431,"lon":132.4636,"countryCode":"JP"},{"name":"Hotel Okura, Tokyo","asciiName":"Hotel Okura, Tokyo","alternatenames":[],"lat":35.6635,"lon":139.747,"countryCode":"JP"},{"name":"Imperial Hotel Osaka","asciiName":"Imperial Hotel Osaka","alternatenames":[],"lat":34.6957,"lon":135.5235,"countryCode":"JP"},{"name":"Hilton Nagoya","asciiName":"Hilton Nagoya","alternatenames":[],"lat":35.16749,"lon":136.89471,"countryCode":"JP"},{"name":"Nagoya Kanko Hotel","asciiName":"Nagoya Kanko Hotel","alternatenames":[],"lat":35.1438,"lon":136.9162,"countryCode":"JP"},{"name":"Imperial Hotel","asciiName":"Imperial Hotel","alternatenames":["Hotel Imperial","Hotel imperial","Hôtel impérial","Imperial Hotel","deikoku hotel","di guo fan dian","di guohoteru","htl aympryal  twkyw","هتل ایمپریال، توکیو","帝国ホテル","帝国饭店","帝國飯店","데이코쿠 호텔"],"lat":35.67228,"lon":139.75845,"countryCode":"JP"},{"name":"Sheraton Miyako Hotel Tokyo","asciiName":"Sheraton Miyako Hotel Tokyo","alternatenames":[],"lat":35.6367,"lon":139.7348,"countryCode":"JP"},{"name":"Shiba Park Hotel","asciiName":"Shiba Park Hotel","alternatenames":[],"lat":35.6563,"lon":139.7566,"countryCode":"JP"},{"name":"Shinagawa Prince Hotel","asciiName":"Shinagawa Prince Hotel","alternatenames":[],"lat":35.6196,"lon":139.7386,"countryCode":"JP"},{"name":"Ramada Osaka","asciiName":"Ramada Osaka","alternatenames":[],"lat":34.7073,"lon":135.4997,"countryCode":"JP"},{"name":"Hilton Osaka","asciiName":"Hilton Osaka","alternatenames":[],"lat":34.69988,"lon":135.49597,"countryCode":"JP"},{"name":"Grand Prince Hotel New Takanawa","asciiName":"Grand Prince Hotel New Takanawa","alternatenames":[],"lat":35.6269,"lon":139.7377,"countryCode":"JP"},{"name":"Sheraton Miyako Hotel Osaka","asciiName":"Sheraton Miyako Hotel Osaka","alternatenames":["sheraton douhoteru da ban","シェラトン都ホテル大阪"],"lat":34.66578,"lon":135.52077,"countryCode":"JP"},{"name":"Hotel New Otani Tokyo","asciiName":"Hotel New Otani Tokyo","alternatenames":["Hotel New Otani","Hotel New Otani Tokyo","dong jing xin da gu fan dian","fndq nyw awtany","hotel nyu otani dokyo","hoterunyuotani","فندق نيو اوتانى","ホテルニューオータニ","东京新大谷饭店","東京新大谷飯店","호텔 뉴 오타니 도쿄"],"lat":35.68118,"lon":139.7341,"countryCode":"JP"},{"name":"The Westin Tokyo","asciiName":"The Westin Tokyo","alternatenames":[],"lat":35.6389,"lon":139.72,"countryCode":"JP"},{"name":"Keio Plaza Tokyo","asciiName":"Keio Plaza Tokyo","alternatenames":[],"lat":35.686,"lon":139.6973,"countryCode":"JP"},{"name":"Hyatt Regency Osaka","asciiName":"Hyatt Regency Osaka","alternatenames":[],"lat":34.6322,"lon":135.4178,"countryCode":"JP"},{"name":"Hotel Grand Palace","asciiName":"Hotel Grand Palace","alternatenames":[],"lat":35.6965,"lon":139.7522,"countryCode":"JP"},{"name":"Loisir Hotel Asahikawa","asciiName":"Loisir Hotel Asahikawa","alternatenames":["rowajiruhoteru xu chuan","ロワジールホテル旭川"],"lat":43.77246,"lon":142.36049,"countryCode":"JP"},{"name":"The Ritz-Carlton Tokyo","asciiName":"The Ritz-Carlton Tokyo","alternatenames":[],"lat":35.66622,"lon":139.73134,"countryCode":"JP"},{"name":"Chisun Inn Esaka","asciiName":"Chisun Inn Esaka","alternatenames":[],"lat":34.7642,"lon":135.4968,"countryCode":"JP"},{"name":"Hotel Monterey Le Soeur Fukuoka","asciiName":"Hotel Monterey Le Soeur Fukuoka","alternatenames":[],"lat":33.5879,"lon":130.4012,"countryCode":"JP"},{"name":"Hotel Monterey Kyoto","asciiName":"Hotel Monterey Kyoto","alternatenames":[],"lat":35.0042,"lon":135.7619,"countryCode":"JP"},{"name":"Hotel Monterey Akasaka","asciiName":"Hotel Monterey Akasaka","alternatenames":[],"lat":35.672,"lon":139.7369,"countryCode":"JP"},{"name":"Hotel Monterey Edelhof Sapporo","asciiName":"Hotel Monterey Edelhof Sapporo","alternatenames":[],"lat":43.0646,"lon":141.3557,"countryCode":"JP"},{"name":"Hotel Monterey Sendai","asciiName":"Hotel Monterey Sendai","alternatenames":[],"lat":38.2582,"lon":140.8805,"countryCode":"JP"},{"name":"Hotel Monterey Osaka","asciiName":"Hotel Monterey Osaka","alternatenames":[],"lat":34.6963,"lon":135.4963,"countryCode":"JP"},{"name":"Hotel Monterey Sapporo","asciiName":"Hotel Monterey Sapporo","alternatenames":[],"lat":43.065,"lon":141.3604,"countryCode":"JP"},{"name":"Hotel Monterey Yokohama","asciiName":"Hotel Monterey Yokohama","alternatenames":[],"lat":35.4429,"lon":139.6527,"countryCode":"JP"},{"name":"Hyatt Regency Hakone Resort and Spa","asciiName":"Hyatt Regency Hakone Resort and Spa","alternatenames":[],"lat":35.253,"lon":139.0506,"countryCode":"JP"},{"name":"Hotel Monterey Kobe","asciiName":"Hotel Monterey Kobe","alternatenames":[],"lat":34.6841,"lon":135.176,"countryCode":"JP"},{"name":"Weekly Mansion Osaka at Otemae","asciiName":"Weekly Mansion Osaka at Otemae","alternatenames":[],"lat":34.6775,"lon":135.5199,"countryCode":"JP"},{"name":"Hotel Monterey Hanzomon","asciiName":"Hotel Monterey Hanzomon","alternatenames":[],"lat":35.6838,"lon":139.7458,"countryCode":"JP"},{"name":"Chisun Inn Asakusa","asciiName":"Chisun Inn Asakusa","alternatenames":[],"lat":35.7033,"lon":139.7974,"countryCode":"JP"},{"name":"the b otsu","asciiName":"the b otsu","alternatenames":[],"lat":34.9999,"lon":135.8653,"countryCode":"JP"},{"name":"Hearton Hotel Kyoto","asciiName":"Hearton Hotel Kyoto","alternatenames":[],"lat":35.0022,"lon":135.7641,"countryCode":"JP"},{"name":"Yokkaichi Miyako Hotel","asciiName":"Yokkaichi Miyako Hotel","alternatenames":[],"lat":34.9689,"lon":136.6353,"countryCode":"JP"},{"name":"Mets Mito Hotel","asciiName":"Mets Mito Hotel","alternatenames":[],"lat":36.3666,"lon":140.4666,"countryCode":"JP"},{"name":"Hyatt Regency Kyoto","asciiName":"Hyatt Regency Kyoto","alternatenames":[],"lat":34.9848,"lon":135.7757,"countryCode":"JP"},{"name":"Pearl Hotel Kasai","asciiName":"Pearl Hotel Kasai","alternatenames":[],"lat":35.6569,"lon":139.8659,"countryCode":"JP"},{"name":"Pearl Hotel Kayabacho","asciiName":"Pearl Hotel Kayabacho","alternatenames":[],"lat":35.6763,"lon":139.7754,"countryCode":"JP"},{"name":"The President Hotel Aoyama","asciiName":"The President Hotel Aoyama","alternatenames":[],"lat":35.6661,"lon":139.7272,"countryCode":"JP"},{"name":"Karasuma Kyoto Hotel","asciiName":"Karasuma Kyoto Hotel","alternatenames":[],"lat":34.9987,"lon":135.7626,"countryCode":"JP"},{"name":"Hotel Nikko Winds Narita","asciiName":"Hotel Nikko Winds Narita","alternatenames":[],"lat":35.7759,"lon":140.3903,"countryCode":"JP"},{"name":"Hotel Sunroute Asakusa","asciiName":"Hotel Sunroute Asakusa","alternatenames":[],"lat":35.7079,"lon":139.795,"countryCode":"JP"},{"name":"Pearl Hotel Ryogoku","asciiName":"Pearl Hotel Ryogoku","alternatenames":[],"lat":35.6938,"lon":139.7943,"countryCode":"JP"},{"name":"Hilton Odawara Resort & Spa","asciiName":"Hilton Odawara Resort & Spa","alternatenames":["hiruton xiao tian yuanrizoto&supa","ヒルトン小田原リゾート&スパ"],"lat":35.20677,"lon":139.13123,"countryCode":"JP"},{"name":"Hilton Tokyo","asciiName":"Hilton Tokyo","alternatenames":[],"lat":35.69241,"lon":139.69101,"countryCode":"JP"},{"name":"Hotel The Velta Kitahama","asciiName":"Hotel The Velta Kitahama","alternatenames":[],"lat":34.6865,"lon":135.5087,"countryCode":"JP"},{"name":"Ramada Sapporo","asciiName":"Ramada Sapporo","alternatenames":[],"lat":43.051,"lon":141.3215,"countryCode":"JP"},{"name":"Salvia Hotel Hofu","asciiName":"Salvia Hotel Hofu","alternatenames":[],"lat":34.044,"lon":131.58,"countryCode":"JP"},{"name":"Sannomiya Terminal Hotel","asciiName":"Sannomiya Terminal Hotel","alternatenames":[],"lat":34.6961,"lon":135.1984,"countryCode":"JP"},{"name":"Narita View Hotel","asciiName":"Narita View Hotel","alternatenames":[],"lat":35.7801,"lon":140.3606,"countryCode":"JP"},{"name":"Radisson Hotel Narita Airport","asciiName":"Radisson Hotel Narita Airport","alternatenames":[],"lat":35.7645,"lon":140.3695,"countryCode":"JP"},{"name":"Crowne Plaza","asciiName":"Crowne Plaza","alternatenames":[],"lat":34.7041,"lon":135.1818,"countryCode":"JP"},{"name":"Tokyo Green Hotel Ochanomizu","asciiName":"Tokyo Green Hotel Ochanomizu","alternatenames":[],"lat":35.6936,"lon":139.7736,"countryCode":"JP"},{"name":"Conrad Tokyo","asciiName":"Conrad Tokyo","alternatenames":[],"lat":35.66315,"lon":139.76124,"countryCode":"JP"},{"name":"Shinjuku New City Hotel","asciiName":"Shinjuku New City Hotel","alternatenames":[],"lat":35.68859,"lon":139.68842,"countryCode":"JP"},{"name":"The Prince Park Tower Tokyo","asciiName":"The Prince Park Tower Tokyo","alternatenames":[],"lat":35.65545,"lon":139.74706,"countryCode":"JP"},{"name":"Hotel Monterey Ginza","asciiName":"Hotel Monterey Ginza","alternatenames":[],"lat":35.6709,"lon":139.7701,"countryCode":"JP"},{"name":"International Garden Hotel Narita","asciiName":"International Garden Hotel Narita","alternatenames":[],"lat":35.7827,"lon":140.3156,"countryCode":"JP"},{"name":"Celestine Hotel Tokyo","asciiName":"Celestine Hotel Tokyo","alternatenames":[],"lat":35.6478,"lon":139.753,"countryCode":"JP"},{"name":"the b sangenjaya","asciiName":"the b sangenjaya","alternatenames":[],"lat":35.6433,"lon":139.6744,"countryCode":"JP"},{"name":"Chisun Hotel Shin Osaka","asciiName":"Chisun Hotel Shin Osaka","alternatenames":[],"lat":34.7306,"lon":135.5045,"countryCode":"JP"},{"name":"Chisun Hotel Sendai","asciiName":"Chisun Hotel Sendai","alternatenames":[],"lat":38.2569,"lon":140.8794,"countryCode":"JP"},{"name":"Tokyo Dai-Ichi Hotel Okinawa Grand Mer Resort","asciiName":"Tokyo Dai-Ichi Hotel Okinawa Grand Mer Resort","alternatenames":[],"lat":26.3374,"lon":127.8024,"countryCode":"JP"},{"name":"Kyoto Tokyu Hotel","asciiName":"Kyoto Tokyu Hotel","alternatenames":[],"lat":34.9927,"lon":135.7548,"countryCode":"JP"},{"name":"Chisun Hotel Kobe","asciiName":"Chisun Hotel Kobe","alternatenames":[],"lat":34.6827,"lon":135.187,"countryCode":"JP"},{"name":"Chisun Hotel Utsunomiya","asciiName":"Chisun Hotel Utsunomiya","alternatenames":[],"lat":36.555,"lon":139.8949,"countryCode":"JP"},{"name":"the b roppongi","asciiName":"the b roppongi","alternatenames":[],"lat":35.6611,"lon":139.7388,"countryCode":"JP"},{"name":"Dai-Ichi Hotel - Tokyo","asciiName":"Dai-Ichi Hotel - Tokyo","alternatenames":[],"lat":35.66876,"lon":139.75731,"countryCode":"JP"},{"name":"The Mansions At Azabu Towers","asciiName":"The Mansions At Azabu Towers","alternatenames":[],"lat":35.6961,"lon":139.7796,"countryCode":"JP"},{"name":"Phoenician Plaza Hotel","asciiName":"Phoenician Plaza Hotel","alternatenames":[],"lat":43.0582,"lon":141.3433,"countryCode":"JP"},{"name":"Asakusa View Hotel","asciiName":"Asakusa View Hotel","alternatenames":[],"lat":35.712,"lon":139.7958,"countryCode":"JP"},{"name":"Mercure Hotel Narita","asciiName":"Mercure Hotel Narita","alternatenames":[],"lat":35.7831,"lon":140.3165,"countryCode":"JP"},{"name":"Royal Park Shiodome Tower","asciiName":"Royal Park Shiodome Tower","alternatenames":[],"lat":35.66408,"lon":139.76043,"countryCode":"JP"},{"name":"Oakwood Apartments Roppongi Central","asciiName":"Oakwood Apartments Roppongi Central","alternatenames":[],"lat":35.6612,"lon":139.7408,"countryCode":"JP"},{"name":"Park Hotel Tokyo","asciiName":"Park Hotel Tokyo","alternatenames":[],"lat":35.66321,"lon":139.75957,"countryCode":"JP"},{"name":"Hotel Jal City Yotsuya Tokyo","asciiName":"Hotel Jal City Yotsuya Tokyo","alternatenames":[],"lat":35.6999,"lon":139.7666,"countryCode":"JP"},{"name":"Takayama So Hanano","asciiName":"Takayama So Hanano","alternatenames":[],"lat":34.6833,"lon":135.1666,"countryCode":"JP"},{"name":"Clement Tokushima Hotel","asciiName":"Clement Tokushima Hotel","alternatenames":[],"lat":34.0666,"lon":134.5666,"countryCode":"JP"},{"name":"Rihga Royal Hotel Kokura Kyushu","asciiName":"Rihga Royal Hotel Kokura Kyushu","alternatenames":[],"lat":33.8333,"lon":130.8333,"countryCode":"JP"},{"name":"Ginza Nikko Hotel","asciiName":"Ginza Nikko Hotel","alternatenames":[],"lat":35.6666,"lon":139.7666,"countryCode":"JP"},{"name":"Granvia Wakayama Hotel","asciiName":"GRANVIA WAKAYAMA HOTEL","alternatenames":[],"lat":34.2166,"lon":133.1833,"countryCode":"JP"},{"name":"Hotel Nikko Yaeyama","asciiName":"Hotel Nikko Yaeyama","alternatenames":[],"lat":24.3333,"lon":124.15,"countryCode":"JP"},{"name":"Comfort Hotel Nagoya Chiyoda","asciiName":"Comfort Hotel Nagoya Chiyoda","alternatenames":[],"lat":35.16883,"lon":136.8932,"countryCode":"JP"},{"name":"Comfort Inn Suzuka","asciiName":"Comfort Inn Suzuka","alternatenames":[],"lat":34.8833,"lon":136.5833,"countryCode":"JP"},{"name":"Ana Hotel Clement Takamatsu","asciiName":"Ana Hotel Clement Takamatsu","alternatenames":[],"lat":34.3402,"lon":134.0453,"countryCode":"JP"},{"name":"Seiyo Ginza A Rosewood Hotel","asciiName":"Seiyo Ginza A Rosewood Hotel","alternatenames":[],"lat":35.67457,"lon":139.76959,"countryCode":"JP"},{"name":"Ana Hotel Oita Oasis Tower","asciiName":"Ana Hotel Oita Oasis Tower","alternatenames":[],"lat":33.2333,"lon":131.6,"countryCode":"JP"},{"name":"Okura Frontier Hotel Tsukuba","asciiName":"Okura Frontier Hotel Tsukuba","alternatenames":[],"lat":36.2,"lon":140.1,"countryCode":"JP"},{"name":"Comfort Hotel Oita","asciiName":"Comfort Hotel Oita","alternatenames":[],"lat":33.2333,"lon":131.6,"countryCode":"JP"},{"name":"Horai","asciiName":"Horai","alternatenames":[],"lat":37.4833,"lon":140.2666,"countryCode":"JP"},{"name":"Hotel Jal City Tamachi Tokyo","asciiName":"Hotel Jal City Tamachi Tokyo","alternatenames":[],"lat":35.6999,"lon":139.7666,"countryCode":"JP"},{"name":"Hotel Jal City Matsuyama","asciiName":"Hotel Jal City Matsuyama","alternatenames":[],"lat":33.8499,"lon":132.787,"countryCode":"JP"},{"name":"Asaba","asciiName":"Asaba","alternatenames":[],"lat":34.9666,"lon":138.3833,"countryCode":"JP"},{"name":"Hotel Jal City Hiroshima","asciiName":"Hotel Jal City Hiroshima","alternatenames":[],"lat":34.3873,"lon":132.4657,"countryCode":"JP"},{"name":"Kawasaki Nikko Hotel","asciiName":"Kawasaki Nikko Hotel","alternatenames":[],"lat":35.8833,"lon":139.7166,"countryCode":"JP"},{"name":"Hotel Anaga","asciiName":"Hotel Anaga","alternatenames":[],"lat":43.3666,"lon":144.4333,"countryCode":"JP"},{"name":"Seiryuso","asciiName":"Seiryuso","alternatenames":[],"lat":37.4806,"lon":140.2849,"countryCode":"JP"},{"name":"Hotel Kajima No Mori","asciiName":"Hotel Kajima No Mori","alternatenames":[],"lat":36.6471,"lon":138.1865,"countryCode":"JP"},{"name":"Hotel Hamatsu","asciiName":"Hotel Hamatsu","alternatenames":[],"lat":37.4,"lon":140.3833,"countryCode":"JP"},{"name":"Hotel Nikko Princess Kyoto","asciiName":"Hotel Nikko Princess Kyoto","alternatenames":[],"lat":35,"lon":135.75,"countryCode":"JP"},{"name":"Hotel New Otani Sapporo","asciiName":"Hotel New Otani Sapporo","alternatenames":[],"lat":43.05,"lon":141.3499,"countryCode":"JP"},{"name":"Tokyo Dome Hotel","asciiName":"Tokyo Dome Hotel","alternatenames":[],"lat":35.70369,"lon":139.75349,"countryCode":"JP"},{"name":"Hotel Okura Niigata","asciiName":"Hotel Okura Niigata","alternatenames":[],"lat":37.9166,"lon":139.05,"countryCode":"JP"},{"name":"Gora Kadan","asciiName":"Gora Kadan","alternatenames":[],"lat":35.1833,"lon":139.0333,"countryCode":"JP"},{"name":"Ana Hotel Toyama","asciiName":"Ana Hotel Toyama","alternatenames":[],"lat":36.691,"lon":137.22,"countryCode":"JP"},{"name":"Metropolitan Yamagata Hotel","asciiName":"Metropolitan Yamagata Hotel","alternatenames":[],"lat":36.6333,"lon":140.4,"countryCode":"JP"},{"name":"Kurashiki Hotel","asciiName":"Kurashiki Hotel","alternatenames":[],"lat":34.05,"lon":133,"countryCode":"JP"},{"name":"Sleep Inn Fukuyama","asciiName":"Sleep Inn Fukuyama","alternatenames":[],"lat":34.4166,"lon":131.8333,"countryCode":"JP"},{"name":"Station Hotel Kokura","asciiName":"Station Hotel Kokura","alternatenames":[],"lat":33.8333,"lon":130.8333,"countryCode":"JP"},{"name":"Hotel Nikko Northland Obihiro","asciiName":"Hotel Nikko Northland Obihiro","alternatenames":[],"lat":42.9166,"lon":143.2,"countryCode":"JP"},{"name":"Metropolitan Akita Hotel","asciiName":"Metropolitan Akita Hotel","alternatenames":[],"lat":39.7166,"lon":140.1166,"countryCode":"JP"},{"name":"Metropolitan Nagano Hotel","asciiName":"Metropolitan Nagano Hotel","alternatenames":[],"lat":36.6471,"lon":138.1865,"countryCode":"JP"},{"name":"Sheraton Grande Ocean Resort","asciiName":"Sheraton Grande Ocean Resort","alternatenames":[],"lat":31.9457,"lon":131.3689,"countryCode":"JP"},{"name":"Marriott Nagoya","asciiName":"Marriott Nagoya","alternatenames":[],"lat":35.17048,"lon":136.88307,"countryCode":"JP"},{"name":"Clement Uwajima Hotel","asciiName":"Clement Uwajima Hotel","alternatenames":[],"lat":33.2166,"lon":132.5666,"countryCode":"JP"},{"name":"Ana Hotel Ube","asciiName":"Ana Hotel Ube","alternatenames":[],"lat":34.179,"lon":131.4754,"countryCode":"JP"},{"name":"Garden Hotel Narita","asciiName":"Garden Hotel Narita","alternatenames":[],"lat":35.7833,"lon":140.3166,"countryCode":"JP"},{"name":"Metropolitan Sendai Hotel","asciiName":"Metropolitan Sendai Hotel","alternatenames":[],"lat":38.25879,"lon":140.88114,"countryCode":"JP"},{"name":"Granvia Okayama Hotel","asciiName":"Granvia Okayama Hotel","alternatenames":[],"lat":34.6499,"lon":133.9166,"countryCode":"JP"},{"name":"Granvia Hiroshima Hotel","asciiName":"Granvia Hiroshima Hotel","alternatenames":[],"lat":34.3873,"lon":132.4657,"countryCode":"JP"},{"name":"Ana Gate Tower Hotel Osaka","asciiName":"Ana Gate Tower Hotel Osaka","alternatenames":[],"lat":34.6521,"lon":135.5009,"countryCode":"JP"},{"name":"Metropolitan Edmont Hotel","asciiName":"Metropolitan Edmont Hotel","alternatenames":[],"lat":35.6999,"lon":139.7666,"countryCode":"JP"},{"name":"Rihga Royal Hotel Kyoto","asciiName":"Rihga Royal Hotel Kyoto","alternatenames":[],"lat":35,"lon":135.75,"countryCode":"JP"},{"name":"Comfort Inn Kyoto Gojo","asciiName":"Comfort Inn Kyoto Gojo","alternatenames":[],"lat":35,"lon":135.75,"countryCode":"JP"},{"name":"Shiba Yayoi Kaikan","asciiName":"Shiba Yayoi Kaikan","alternatenames":[],"lat":35.6999,"lon":139.7666,"countryCode":"JP"},{"name":"Hotel Grand Court Nagoya","asciiName":"Hotel Grand Court Nagoya","alternatenames":[],"lat":35.14279,"lon":136.89965,"countryCode":"JP"},{"name":"New Miyako Hotel","asciiName":"New Miyako Hotel","alternatenames":[],"lat":35,"lon":135.75,"countryCode":"JP"},{"name":"Ana Hotel Narita","asciiName":"Ana Hotel Narita","alternatenames":[],"lat":35.7833,"lon":140.3166,"countryCode":"JP"},{"name":"Palace Hotel Omiya","asciiName":"Palace Hotel Omiya","alternatenames":[],"lat":35.9059,"lon":139.6153,"countryCode":"JP"},{"name":"Hotel Okura Fukuoka","asciiName":"Hotel Okura Fukuoka","alternatenames":["hoteruokura fu gang","hoteruokurafukuoka","ホテルオークラふくおか","ホテルオークラ福岡"],"lat":33.59553,"lon":130.40511,"countryCode":"JP"},{"name":"Hotel East 21 Tokyo","asciiName":"Hotel East 21 Tokyo","alternatenames":[],"lat":35.6999,"lon":139.7666,"countryCode":"JP"},{"name":"Yokohama Bay Sheraton Hotel","asciiName":"Yokohama Bay Sheraton Hotel","alternatenames":[],"lat":35.4514,"lon":139.6211,"countryCode":"JP"},{"name":"Hotel Jal City Nagasaki","asciiName":"Hotel Jal City Nagasaki","alternatenames":[],"lat":32.8,"lon":129.9166,"countryCode":"JP"},{"name":"New Otani Kobe Harborland","asciiName":"New Otani Kobe Harborland","alternatenames":[],"lat":34.6833,"lon":135.1666,"countryCode":"JP"},{"name":"DoubleTree by Hilton Naha Shuri Castle","asciiName":"DoubleTree by Hilton Naha Shuri Castle","alternatenames":[],"lat":26.22061,"lon":127.71072,"countryCode":"JP"},{"name":"Century Southern Tower Hotel","asciiName":"Century Southern Tower Hotel","alternatenames":[],"lat":35.6999,"lon":139.7666,"countryCode":"JP"},{"name":"Hotel Okura Kobe","asciiName":"Hotel Okura Kobe","alternatenames":[],"lat":34.6833,"lon":135.1666,"countryCode":"JP"},{"name":"Hotel Jal City Aomori","asciiName":"Hotel Jal City Aomori","alternatenames":[],"lat":40.8166,"lon":140.75,"countryCode":"JP"},{"name":"New Otani Hakata Hotel","asciiName":"New Otani Hakata Hotel","alternatenames":[],"lat":33.5899,"lon":130.4068,"countryCode":"JP"},{"name":"Yokohama Royal Park Hotel","asciiName":"Yokohama Royal Park Hotel","alternatenames":[],"lat":35.4514,"lon":139.6211,"countryCode":"JP"},{"name":"Odakyu Hotel Century Sagamiono","asciiName":"Odakyu Hotel Century Sagamiono","alternatenames":[],"lat":35.5699,"lon":139.7294,"countryCode":"JP"},{"name":"Hotel Jal City Sendai","asciiName":"Hotel Jal City Sendai","alternatenames":[],"lat":38.26373,"lon":140.88168,"countryCode":"JP"},{"name":"Rihga Royal Hotel Osaka","asciiName":"Rihga Royal Hotel Osaka","alternatenames":[],"lat":34.6521,"lon":135.5009,"countryCode":"JP"},{"name":"Hotel Jal City Hakodate","asciiName":"Hotel Jal City Hakodate","alternatenames":[],"lat":41.75,"lon":140.7166,"countryCode":"JP"},{"name":"Laguna Garden Hotel","asciiName":"Laguna Garden Hotel","alternatenames":[],"lat":26.25,"lon":127.75,"countryCode":"JP"},{"name":"Shin Yokohama Prince Hotel","asciiName":"Shin Yokohama Prince Hotel","alternatenames":[],"lat":35.4514,"lon":139.6211,"countryCode":"JP"},{"name":"Naruto Renaissance Resort","asciiName":"Naruto Renaissance Resort","alternatenames":[],"lat":34.3402,"lon":134.0453,"countryCode":"JP"},{"name":"Hotel Nikko Alivila","asciiName":"Hotel Nikko Alivila","alternatenames":[],"lat":26.3374,"lon":127.8024,"countryCode":"JP"},{"name":"Hotel Nikko Kanazawa","asciiName":"Hotel Nikko Kanazawa","alternatenames":[],"lat":36.5602,"lon":136.6575,"countryCode":"JP"},{"name":"The Westin Osaka","asciiName":"The Westin Osaka","alternatenames":[],"lat":34.6521,"lon":135.5009,"countryCode":"JP"},{"name":"Hyatt Regency Fukuoka","asciiName":"Hyatt Regency Fukuoka","alternatenames":[],"lat":33.5899,"lon":130.4068,"countryCode":"JP"},{"name":"Kijima Korakuen Hotel","asciiName":"Kijima Korakuen Hotel","alternatenames":[],"lat":36.6523,"lon":138.1921,"countryCode":"JP"},{"name":"Sapporo Renaissance","asciiName":"Sapporo Renaissance","alternatenames":[],"lat":43.05,"lon":141.3499,"countryCode":"JP"},{"name":"Ana Hotel Matsuyama","asciiName":"Ana Hotel Matsuyama","alternatenames":[],"lat":33.8499,"lon":132.787,"countryCode":"JP"},{"name":"Grand Hyatt Fukuoka","asciiName":"Grand Hyatt Fukuoka","alternatenames":[],"lat":33.5899,"lon":130.4068,"countryCode":"JP"},{"name":"Four Seasons Chinzan-So","asciiName":"Four Seasons Chinzan-So","alternatenames":[],"lat":35.6999,"lon":139.7666,"countryCode":"JP"},{"name":"Royal Park Inn Nagoya","asciiName":"Royal Park Inn Nagoya","alternatenames":[],"lat":35.1628,"lon":136.918,"countryCode":"JP"},{"name":"Ana Hotel Hakata","asciiName":"Ana Hotel Hakata","alternatenames":[],"lat":33.5899,"lon":130.4068,"countryCode":"JP"},{"name":"Hotel Castle","asciiName":"Hotel Castle","alternatenames":[],"lat":36.6333,"lon":140.4,"countryCode":"JP"},{"name":"Manza Beach Hotel And Resort","asciiName":"Manza Beach Hotel And Resort","alternatenames":[],"lat":26.3374,"lon":127.8024,"countryCode":"JP"},{"name":"Kumejima Island Eef Beach","asciiName":"Kumejima Island Eef Beach","alternatenames":[],"lat":26.2166,"lon":127.6833,"countryCode":"JP"},{"name":"Hotel Nikko Huis Ten Bosch","asciiName":"Hotel Nikko Huis Ten Bosch","alternatenames":[],"lat":32.8,"lon":129.9166,"countryCode":"JP"},{"name":"Ritz Carlton Osaka","asciiName":"Ritz Carlton Osaka","alternatenames":[],"lat":34.6521,"lon":135.5009,"countryCode":"JP"},{"name":"Palace Hotel Tachikawa","asciiName":"Palace Hotel Tachikawa","alternatenames":[],"lat":35.6999,"lon":139.7666,"countryCode":"JP"},{"name":"Hotel Nikko Kansai Airport","asciiName":"Hotel Nikko Kansai Airport","alternatenames":[],"lat":34.4236,"lon":135.3403,"countryCode":"JP"},{"name":"Odakyu Atsugi Hotel","asciiName":"Odakyu Atsugi Hotel","alternatenames":[],"lat":35.5699,"lon":139.7294,"countryCode":"JP"},{"name":"Hotel Nikko Fukuoka","asciiName":"Hotel Nikko Fukuoka","alternatenames":["Hotel Nikko Fukuoka","Hotel Nikkō Fukuoka","hoteru ri hang fu gang","hoterunikkoufukuoka","hoterunitsukaufukuwoka","ホテルにっこうふくおか","ホテルにつかうふくをか","ホテル日航福岡"],"lat":33.59142,"lon":130.41719,"countryCode":"JP"},{"name":"Hotel Nikko Chitose","asciiName":"Hotel Nikko Chitose","alternatenames":[],"lat":42.8166,"lon":141.6499,"countryCode":"JP"},{"name":"Le Meridien Pacific Tokyo","asciiName":"Le Meridien Pacific Tokyo","alternatenames":[],"lat":35.6333,"lon":139.7333,"countryCode":"JP"},{"name":"Sunshine City Prince Hotel","asciiName":"Sunshine City Prince Hotel","alternatenames":[],"lat":35.6999,"lon":139.7666,"countryCode":"JP"},{"name":"Hotel Nikko Osaka","asciiName":"Hotel Nikko Osaka","alternatenames":[],"lat":34.6521,"lon":135.5009,"countryCode":"JP"},{"name":"Hotel Nikko Annupuri","asciiName":"Hotel Nikko Annupuri","alternatenames":[],"lat":42.806,"lon":140.7075,"countryCode":"JP"},{"name":"Marunouchi Hotel","asciiName":"Marunouchi Hotel","alternatenames":[],"lat":35.6833,"lon":139.7666,"countryCode":"JP"},{"name":"Sun Marina Hotel","asciiName":"Sun Marina Hotel","alternatenames":[],"lat":26.3374,"lon":127.8024,"countryCode":"JP"},{"name":"Ana Hotel Wakkanai","asciiName":"Ana Hotel Wakkanai","alternatenames":[],"lat":45.4166,"lon":141.6666,"countryCode":"JP"},{"name":"Rihga Grand Hotel Osaka","asciiName":"Rihga Grand Hotel Osaka","alternatenames":[],"lat":34.6521,"lon":135.5009,"countryCode":"JP"},{"name":"Century Hyatt Tokyo","asciiName":"Century Hyatt Tokyo","alternatenames":[],"lat":35.6873,"lon":139.7109,"countryCode":"JP"},{"name":"Rihga Royal Hotel Hiroshima","asciiName":"Rihga Royal Hotel Hiroshima","alternatenames":[],"lat":34.3873,"lon":132.4657,"countryCode":"JP"},{"name":"Renaissance Okinawa Resort","asciiName":"Renaissance Okinawa Resort","alternatenames":[],"lat":26.3374,"lon":127.8024,"countryCode":"JP"},{"name":"Rihga Royal Hotel Tokyo","asciiName":"Rihga Royal Hotel Tokyo","alternatenames":[],"lat":35.71032,"lon":139.72252,"countryCode":"JP"},{"name":"Park Hyatt Tokyo","asciiName":"Park Hyatt Tokyo","alternatenames":[],"lat":35.6873,"lon":139.7109,"countryCode":"JP"},{"name":"Ana Hotel Osaka","asciiName":"Ana Hotel Osaka","alternatenames":[],"lat":34.6521,"lon":135.5009,"countryCode":"JP"},{"name":"Okayama International Hotel","asciiName":"Okayama International Hotel","alternatenames":[],"lat":36.6523,"lon":138.1921,"countryCode":"JP"},{"name":"Sunroute Shinagawa Seaside Htl","asciiName":"Sunroute Shinagawa Seaside Htl","alternatenames":[],"lat":35.6999,"lon":139.7666,"countryCode":"JP"},{"name":"Courtyard Tokyo Ginza Hotel","asciiName":"Courtyard Tokyo Ginza Hotel","alternatenames":[],"lat":35.66834,"lon":139.76492,"countryCode":"JP"},{"name":"Oakwood Apartments Yotsuya","asciiName":"Oakwood Apartments Yotsuya","alternatenames":[],"lat":35.6999,"lon":139.7666,"countryCode":"JP"},{"name":"Oakwood Premier Tokyo Midtown","asciiName":"Oakwood Premier Tokyo Midtown","alternatenames":[],"lat":35.6999,"lon":139.7666,"countryCode":"JP"},{"name":"Chisun Grand Akasaka","asciiName":"Chisun Grand Akasaka","alternatenames":[],"lat":35.6999,"lon":139.7666,"countryCode":"JP"},{"name":"Somerset Roppongi","asciiName":"Somerset Roppongi","alternatenames":[],"lat":35.6999,"lon":139.7666,"countryCode":"JP"},{"name":"Comfort Hotel Akita","asciiName":"Comfort Hotel Akita","alternatenames":[],"lat":39.7166,"lon":140.1166,"countryCode":"JP"},{"name":"Hotel Heiannomori Kyoto","asciiName":"Hotel Heiannomori Kyoto","alternatenames":[],"lat":35,"lon":135.75,"countryCode":"JP"},{"name":"Mets Kitakami Hotel","asciiName":"Mets Kitakami Hotel","alternatenames":[],"lat":39.2833,"lon":141.1166,"countryCode":"JP"},{"name":"Sleep Inn Kanda Kitakyushu Ar","asciiName":"Sleep Inn Kanda Kitakyushu Ar","alternatenames":[],"lat":33.8333,"lon":130.8333,"countryCode":"JP"},{"name":"Metropolitan Morioka New Wing","asciiName":"Metropolitan Morioka New Wing","alternatenames":[],"lat":39.6999,"lon":141.15,"countryCode":"JP"},{"name":"Associa Shizuoka Terminal Hot","asciiName":"Associa Shizuoka Terminal Hot","alternatenames":[],"lat":34.9666,"lon":138.3833,"countryCode":"JP"},{"name":"Mets Mizonokuchi Hotel","asciiName":"Mets Mizonokuchi Hotel","alternatenames":[],"lat":26.3833,"lon":127.85,"countryCode":"JP"},{"name":"Metropolitan Morioka Hotel","asciiName":"Metropolitan Morioka Hotel","alternatenames":[],"lat":39.6999,"lon":141.15,"countryCode":"JP"},{"name":"Asakihawa Terminal Hotel","asciiName":"Asakihawa Terminal Hotel","alternatenames":[],"lat":43.76431,"lon":142.35781,"countryCode":"JP"},{"name":"Best Western Kochi","asciiName":"Best Western Kochi","alternatenames":[],"lat":26.2333,"lon":127.7333,"countryCode":"JP"},{"name":"Mets Hachinohe Hotel","asciiName":"Mets Hachinohe Hotel","alternatenames":[],"lat":40.5,"lon":141.4833,"countryCode":"JP"},{"name":"Somerset Azabu East","asciiName":"Somerset Azabu East","alternatenames":[],"lat":35.6999,"lon":139.7666,"countryCode":"JP"},{"name":"Jr Kyushu Hotel Fukuoka","asciiName":"Jr Kyushu Hotel Fukuoka","alternatenames":[],"lat":33.5833,"lon":130.4,"countryCode":"JP"},{"name":"Mets Urawa Hotel","asciiName":"Mets Urawa Hotel","alternatenames":[],"lat":35.85,"lon":139.6499,"countryCode":"JP"},{"name":"Resonate Club","asciiName":"Resonate Club","alternatenames":[],"lat":33.5833,"lon":130.4,"countryCode":"JP"},{"name":"Pension Hayaokidori","asciiName":"Pension Hayaokidori","alternatenames":[],"lat":36.6523,"lon":138.1921,"countryCode":"JP"},{"name":"Ginza Washington Hotel","asciiName":"Ginza Washington Hotel","alternatenames":[],"lat":35.6999,"lon":139.7666,"countryCode":"JP"},{"name":"Hotel Pearl City Kobe","asciiName":"Hotel Pearl City Kobe","alternatenames":[],"lat":32.8666,"lon":129.0166,"countryCode":"JP"},{"name":"Chisun Hotel Ueno","asciiName":"Chisun Hotel Ueno","alternatenames":[],"lat":35.6954,"lon":139.7776,"countryCode":"JP"},{"name":"Hotel Jal City Kannai Yokohama","asciiName":"HOTEL JAL CITY KANNAI YOKOHAMA","alternatenames":[],"lat":35.4499,"lon":139.6499,"countryCode":"JP"},{"name":"Keio Plaza Hotel Sapporo","asciiName":"Keio Plaza Hotel Sapporo","alternatenames":[],"lat":43.05,"lon":141.3499,"countryCode":"JP"},{"name":"Mets Kawasaki Hotel","asciiName":"Mets Kawasaki Hotel","alternatenames":[],"lat":26.3833,"lon":127.85,"countryCode":"JP"},{"name":"Sleep Inn Higashihiroshima","asciiName":"Sleep Inn Higashihiroshima","alternatenames":[],"lat":34.4136,"lon":132.7421,"countryCode":"JP"},{"name":"Ramada Sapporo","asciiName":"Ramada Sapporo","alternatenames":[],"lat":43.0625,"lon":141.3495,"countryCode":"JP"},{"name":"Comfort Hotel Koriyama","asciiName":"Comfort Hotel Koriyama","alternatenames":[],"lat":36.6523,"lon":138.1921,"countryCode":"JP"},{"name":"Sleep Inn Fukuoka","asciiName":"Sleep Inn Fukuoka","alternatenames":[],"lat":33.5833,"lon":130.4,"countryCode":"JP"},{"name":"Jr Kyushu Hotel Nagasaki","asciiName":"Jr Kyushu Hotel Nagasaki","alternatenames":[],"lat":32.8,"lon":129.9166,"countryCode":"JP"},{"name":"Mets Tsudanuma Hotel","asciiName":"Mets Tsudanuma Hotel","alternatenames":[],"lat":35.6833,"lon":140.0333,"countryCode":"JP"},{"name":"Comfort Hotel Himeji","asciiName":"Comfort Hotel Himeji","alternatenames":[],"lat":34.8166,"lon":134.6999,"countryCode":"JP"},{"name":"Sakuragicho Washington Hotel","asciiName":"Sakuragicho Washington Hotel","alternatenames":[],"lat":33.9499,"lon":135.1166,"countryCode":"JP"},{"name":"Mets Kumegawa Hotel","asciiName":"Mets Kumegawa Hotel","alternatenames":[],"lat":35.6999,"lon":139.7666,"countryCode":"JP"},{"name":"Mets Tabata Hotel","asciiName":"Mets Tabata Hotel","alternatenames":[],"lat":35.6999,"lon":139.7666,"countryCode":"JP"},{"name":"Mets Mijiro Hotel","asciiName":"Mets Mijiro Hotel","alternatenames":[],"lat":35.6999,"lon":139.7666,"countryCode":"JP"},{"name":"Mets Akabane Hotel","asciiName":"Mets Akabane Hotel","alternatenames":[],"lat":35.6999,"lon":139.7666,"countryCode":"JP"},{"name":"Mets Shibuya Hotel","asciiName":"Mets Shibuya Hotel","alternatenames":[],"lat":35.6999,"lon":139.7666,"countryCode":"JP"},{"name":"Mets Nagaoka Hotel","asciiName":"Mets Nagaoka Hotel","alternatenames":[],"lat":35.0333,"lon":138.9333,"countryCode":"JP"},{"name":"Jr Kyushu Hotel Kagoshima","asciiName":"Jr Kyushu Hotel Kagoshima","alternatenames":[],"lat":31.6,"lon":130.55,"countryCode":"JP"},{"name":"Mets Kamakura Ofuna Hotel","asciiName":"Mets Kamakura Ofuna Hotel","alternatenames":[],"lat":35.3166,"lon":139.55,"countryCode":"JP"},{"name":"Isezakicho Washington Hotel","asciiName":"Isezakicho Washington Hotel","alternatenames":[],"lat":33.9499,"lon":135.1166,"countryCode":"JP"},{"name":"Narita Airport Washington Hot","asciiName":"Narita Airport Washington Hot","alternatenames":[],"lat":35.7833,"lon":140.3166,"countryCode":"JP"},{"name":"Hotel Jal City Naha","asciiName":"Hotel Jal City Naha","alternatenames":[],"lat":26.2166,"lon":127.6666,"countryCode":"JP"},{"name":"Tokyo Bay Ariake Washington H","asciiName":"Tokyo Bay Ariake Washington H","alternatenames":[],"lat":35.6999,"lon":139.7666,"countryCode":"JP"},{"name":"Jr Kyushu Hotel Kumamoto","asciiName":"Jr Kyushu Hotel Kumamoto","alternatenames":[],"lat":32.8,"lon":130.7166,"countryCode":"JP"},{"name":"Shinjuku Washington Hotel","asciiName":"Shinjuku Washington Hotel","alternatenames":[],"lat":35.6999,"lon":139.7666,"countryCode":"JP"},{"name":"Mets Kokubunji Hotel","asciiName":"Mets Kokubunji Hotel","alternatenames":[],"lat":35.6999,"lon":139.7666,"countryCode":"JP"},{"name":"Aranvert Hotel Kyoto","asciiName":"Aranvert Hotel Kyoto","alternatenames":[],"lat":35,"lon":135.75,"countryCode":"JP"},{"name":"Ana Hotel Okayama","asciiName":"Ana Hotel Okayama","alternatenames":[],"lat":34.6499,"lon":133.9166,"countryCode":"JP"},{"name":"Comfort Hotel Okayama","asciiName":"Comfort Hotel Okayama","alternatenames":[],"lat":34.6499,"lon":133.9166,"countryCode":"JP"},{"name":"Portopia Hotel","asciiName":"Portopia Hotel","alternatenames":[],"lat":34.6833,"lon":135.1666,"countryCode":"JP"},{"name":"Hotel Nikko Nara","asciiName":"Hotel Nikko Nara","alternatenames":[],"lat":34.6837,"lon":135.8474,"countryCode":"JP"},{"name":"Best Western Premier Nagasaki","asciiName":"Best Western Premier Nagasaki","alternatenames":[],"lat":32.8,"lon":129.9166,"countryCode":"JP"},{"name":"Hotel Hankyu International","asciiName":"Hotel Hankyu International","alternatenames":[],"lat":34.6521,"lon":135.5009,"countryCode":"JP"},{"name":"Mandarin    Oriental Tokyo","asciiName":"Mandarin    Oriental Tokyo","alternatenames":[],"lat":35.6999,"lon":139.7666,"countryCode":"JP"},{"name":"Grand Prince Hotel Akasaka","asciiName":"Grand Prince Hotel Akasaka","alternatenames":["Akasaka Prince Hotel","Grand Prince Hotel Akasaka","chi ban wang zi jiu dian","chi banpurinsuhoteru","geulaendeu peulinseu hotel akasaka","แกรนด์พรินซ์โฮเทลอากาซากะ","赤坂プリンスホテル","赤坂王子酒店","그랜드 프린스 호텔 아카사카"],"lat":35.67944,"lon":139.73749,"countryCode":"JP"},{"name":"Hotel Jal City Nagano","asciiName":"Hotel Jal City Nagano","alternatenames":[],"lat":36.6499,"lon":138.1833,"countryCode":"JP"},{"name":"Comfort Htl Tokyo Kiyosumi","asciiName":"Comfort Htl Tokyo Kiyosumi","alternatenames":[],"lat":35.683,"lon":139.809,"countryCode":"JP"},{"name":"Marriott Okinawa Resort And Spa","asciiName":"Marriott Okinawa Resort And Spa","alternatenames":[],"lat":26.5877,"lon":127.9853,"countryCode":"JP"},{"name":"Comfort Hotel Central Internati","asciiName":"Comfort Hotel Central Internati","alternatenames":[],"lat":34.8833,"lon":136.85,"countryCode":"JP"},{"name":"Hotel Jal City Haneda Tokyo","asciiName":"Hotel Jal City Haneda Tokyo","alternatenames":[],"lat":35.6999,"lon":139.7666,"countryCode":"JP"},{"name":"Comfort Hotel Hakata","asciiName":"Comfort Hotel Hakata","alternatenames":[],"lat":33.5938,"lon":130.4139,"countryCode":"JP"},{"name":"Quality Hotel Kobe","asciiName":"Quality Hotel Kobe","alternatenames":[],"lat":34.6833,"lon":135.1666,"countryCode":"JP"},{"name":"Hakodate Harbourview","asciiName":"Hakodate Harbourview","alternatenames":[],"lat":41.75,"lon":140.7166,"countryCode":"JP"},{"name":"Loisir Hotel Yokkaichi","asciiName":"Loisir Hotel Yokkaichi","alternatenames":[],"lat":33.5333,"lon":131.3333,"countryCode":"JP"},{"name":"Comfort Hotel Nagasaki","asciiName":"Comfort Hotel Nagasaki","alternatenames":[],"lat":32.8,"lon":129.9166,"countryCode":"JP"},{"name":"Sleep Inn Kumamoto Airport","asciiName":"Sleep Inn Kumamoto Airport","alternatenames":[],"lat":32.9833,"lon":130.8166,"countryCode":"JP"},{"name":"Comfort Hotel Narita","asciiName":"Comfort Hotel Narita","alternatenames":[],"lat":35.7833,"lon":140.3166,"countryCode":"JP"},{"name":"Chisun Hotel Sapporo","asciiName":"Chisun Hotel Sapporo","alternatenames":[],"lat":43.05,"lon":141.3499,"countryCode":"JP"},{"name":"Mercure Hotel Ginza Tokyo","asciiName":"Mercure Hotel Ginza Tokyo","alternatenames":[],"lat":35.67272,"lon":139.76835,"countryCode":"JP"},{"name":"Otsu Prince Hotel","asciiName":"Otsu Prince Hotel","alternatenames":[],"lat":35.0159,"lon":135.8674,"countryCode":"JP"},{"name":"Chisun Hotel Shinsaibashi","asciiName":"Chisun Hotel Shinsaibashi","alternatenames":[],"lat":34.6521,"lon":135.5009,"countryCode":"JP"},{"name":"Ana Hotel Nagasaki Gloverhill","asciiName":"Ana Hotel Nagasaki Gloverhill","alternatenames":[],"lat":32.8,"lon":129.9166,"countryCode":"JP"},{"name":"Laforet Hotel Tokyo","asciiName":"Laforet Hotel Tokyo","alternatenames":[],"lat":35.6999,"lon":139.7666,"countryCode":"JP"},{"name":"Hotel Rose Garden Shinjuku","asciiName":"Hotel Rose Garden Shinjuku","alternatenames":[],"lat":35.6873,"lon":139.7109,"countryCode":"JP"},{"name":"Associa Toyohashi Hotel","asciiName":"Associa Toyohashi Hotel","alternatenames":[],"lat":34.7666,"lon":137.3833,"countryCode":"JP"},{"name":"Chisun Hotel Hamamatsucho","asciiName":"Chisun Hotel Hamamatsucho","alternatenames":[],"lat":35.648,"lon":139.7489,"countryCode":"JP"},{"name":"Hotel Highland Resort At Mt  Fujiyoshida Shi","asciiName":"Hotel Highland Resort At Mt  Fujiyoshida Shi","alternatenames":[],"lat":35.4905,"lon":138.808,"countryCode":"JP"},{"name":"Comfort Inn Komatsu","asciiName":"Comfort Inn Komatsu","alternatenames":[],"lat":36.4,"lon":136.4499,"countryCode":"JP"},{"name":"Namba Oriental Hotel","asciiName":"Namba Oriental Hotel","alternatenames":[],"lat":34.6521,"lon":135.5009,"countryCode":"JP"},{"name":"Oakwood Residence Roppongi T C","asciiName":"Oakwood Residence Roppongi T C","alternatenames":[],"lat":35.648,"lon":139.7489,"countryCode":"JP"},{"name":"Comfort Inn Kochi","asciiName":"Comfort Inn Kochi","alternatenames":[],"lat":33.558,"lon":133.525,"countryCode":"JP"},{"name":"Comfort Hotel Hiroshima","asciiName":"Comfort Hotel Hiroshima","alternatenames":[],"lat":34.3873,"lon":132.4657,"countryCode":"JP"},{"name":"Kitano Arms","asciiName":"Kitano Arms","alternatenames":[],"lat":35.6999,"lon":139.7666,"countryCode":"JP"},{"name":"Comfort Hotel Nagano","asciiName":"Comfort Hotel Nagano","alternatenames":[],"lat":36.6471,"lon":138.1865,"countryCode":"JP"},{"name":"Sleep Inn Kurashiki","asciiName":"Sleep Inn Kurashiki","alternatenames":[],"lat":34.5833,"lon":133.7666,"countryCode":"JP"},{"name":"Jr Tower Hotel Nikko Sapporo","asciiName":"Jr Tower Hotel Nikko Sapporo","alternatenames":[],"lat":43.05,"lon":141.3499,"countryCode":"JP"},{"name":"Ana Hotel Yonago","asciiName":"Ana Hotel Yonago","alternatenames":[],"lat":35.4333,"lon":133.3333,"countryCode":"JP"},{"name":"The Strings Hotel Tokyo","asciiName":"The Strings Hotel Tokyo","alternatenames":[],"lat":35.648,"lon":139.7489,"countryCode":"JP"},{"name":"Hotel Nikko Kumamoto","asciiName":"Hotel Nikko Kumamoto","alternatenames":[],"lat":32.8,"lon":130.7166,"countryCode":"JP"},{"name":"Hotel Nikko Kurashiki","asciiName":"Hotel Nikko Kurashiki","alternatenames":[],"lat":34.6499,"lon":133.9166,"countryCode":"JP"},{"name":"Okura Akademia Park Hotel","asciiName":"OKURA AKADEMIA PARK HOTEL","alternatenames":[],"lat":35.3833,"lon":139.9166,"countryCode":"JP"},{"name":"Ana Htl And Rsrt Thalassa Shi","asciiName":"ANA HTL AND RSRT THALASSA SHI","alternatenames":[],"lat":34.4833,"lon":136.85,"countryCode":"JP"},{"name":"Oakwood Residence Aoyama","asciiName":"Oakwood Residence Aoyama","alternatenames":[],"lat":35.6999,"lon":139.7666,"countryCode":"JP"},{"name":"Grand Hyatt Tokyo","asciiName":"Grand Hyatt Tokyo","alternatenames":[],"lat":35.6999,"lon":139.7666,"countryCode":"JP"},{"name":"Bw Hotel Takayama","asciiName":"Bw Hotel Takayama","alternatenames":[],"lat":36.1333,"lon":137.25,"countryCode":"JP"},{"name":"Four Seasons At Marunouchi","asciiName":"Four Seasons At Marunouchi","alternatenames":[],"lat":35.6833,"lon":139.7666,"countryCode":"JP"},{"name":"Comfort Htl Osaka Shinsaibash","asciiName":"Comfort Htl Osaka Shinsaibash","alternatenames":[],"lat":34.6521,"lon":135.5009,"countryCode":"JP"},{"name":"Rihga Nakanoshima Inn","asciiName":"Rihga Nakanoshima Inn","alternatenames":[],"lat":34.6521,"lon":135.5009,"countryCode":"JP"},{"name":"Quality Inn Gamagori","asciiName":"Quality Inn Gamagori","alternatenames":[],"lat":34.8333,"lon":137.2333,"countryCode":"JP"},{"name":"Ana Hotel Kushiro","asciiName":"ANA HOTEL KUSHIRO","alternatenames":[],"lat":42.9666,"lon":144.3833,"countryCode":"JP"},{"name":"Quality Hotel Toyokawa","asciiName":"Quality Hotel Toyokawa","alternatenames":[],"lat":44.0666,"lon":144.0333,"countryCode":"JP"},{"name":"Hotel Nikko Kochi Asahi Royal","asciiName":"Hotel Nikko Kochi Asahi Royal","alternatenames":[],"lat":33.558,"lon":133.525,"countryCode":"JP"},{"name":"Hotel Nikko Bayside Osaka","asciiName":"Hotel Nikko Bayside Osaka","alternatenames":[],"lat":34.6521,"lon":135.5009,"countryCode":"JP"},{"name":"Oakwood Residence Akasaka","asciiName":"Oakwood Residence Akasaka","alternatenames":[],"lat":35.648,"lon":139.7489,"countryCode":"JP"},{"name":"Sheraton Phoenix Golf Resort","asciiName":"Sheraton Phoenix Golf Resort","alternatenames":[],"lat":31.9457,"lon":131.3689,"countryCode":"JP"},{"name":"Okuhida Garden Hotel Yakedake","asciiName":"Okuhida Garden Hotel Yakedake","alternatenames":["ao fei tuogadenhoteru shao yue","奥飛騨ガーデンホテル焼岳"],"lat":36.21914,"lon":137.53982,"countryCode":"JP"},{"name":"Smile Hotel Tokyo Nihombashi","asciiName":"Smile Hotel Tokyo Nihombashi","alternatenames":[],"lat":35.67926,"lon":139.77998,"countryCode":"JP"},{"name":"Ark Hotel Tokyo","asciiName":"Ark Hotel Tokyo","alternatenames":[],"lat":35.73139,"lon":139.71704,"countryCode":"JP"},{"name":"Day Nice Hotel Tokyo","asciiName":"Day Nice Hotel Tokyo","alternatenames":[],"lat":35.66955,"lon":139.80182,"countryCode":"JP"},{"name":"Hotel Parklane Nishikasai","asciiName":"Hotel Parklane Nishikasai","alternatenames":[],"lat":35.66332,"lon":139.86028,"countryCode":"JP"},{"name":"Hotel Sunlite Shinjuku","asciiName":"Hotel Sunlite Shinjuku","alternatenames":[],"lat":35.69411,"lon":139.70722,"countryCode":"JP"},{"name":"Hotel Unizo Asakusa","asciiName":"Hotel Unizo Asakusa","alternatenames":[],"lat":35.71166,"lon":139.79271,"countryCode":"JP"},{"name":"Tokyo Ueno Touganeya Hotel","asciiName":"Tokyo Ueno Touganeya Hotel","alternatenames":[],"lat":35.71095,"lon":139.77791,"countryCode":"JP"},{"name":"Tokyo Green Hotel Korakuen","asciiName":"Tokyo Green Hotel Korakuen","alternatenames":[],"lat":35.70274,"lon":139.75255,"countryCode":"JP"},{"name":"Olympic Inn Azabu","asciiName":"Olympic Inn Azabu","alternatenames":[],"lat":35.65203,"lon":139.73693,"countryCode":"JP"},{"name":"Hotel Grand City","asciiName":"Hotel Grand City","alternatenames":[],"lat":35.73125,"lon":139.71631,"countryCode":"JP"},{"name":"Hotel Princess Garden","asciiName":"Hotel Princess Garden","alternatenames":[],"lat":35.63691,"lon":139.71386,"countryCode":"JP"},{"name":"Hearton Hotel Higashi Shinagawa","asciiName":"Hearton Hotel Higashi Shinagawa","alternatenames":[],"lat":35.61034,"lon":139.75034,"countryCode":"JP"},{"name":"the b ikebukuro","asciiName":"the b ikebukuro","alternatenames":[],"lat":35.73242,"lon":139.71426,"countryCode":"JP"},{"name":"the b akasaka","asciiName":"the b akasaka","alternatenames":[],"lat":35.67154,"lon":139.73281,"countryCode":"JP"},{"name":"Hotel Theatre Ikebukuro","asciiName":"Hotel Theatre Ikebukuro","alternatenames":[],"lat":35.73017,"lon":139.71556,"countryCode":"JP"},{"name":"Hotel Lungwood","asciiName":"Hotel Lungwood","alternatenames":[],"lat":35.72797,"lon":139.77288,"countryCode":"JP"},{"name":"Tobu Hotel Levant Tokyo","asciiName":"Tobu Hotel Levant Tokyo","alternatenames":[],"lat":35.69739,"lon":139.81072,"countryCode":"JP"},{"name":"Star Hotel Tokyo","asciiName":"Star Hotel Tokyo","alternatenames":[],"lat":35.694,"lon":139.69832,"countryCode":"JP"},{"name":"Mitsui Garden Hotel Kamata","asciiName":"Mitsui Garden Hotel Kamata","alternatenames":[],"lat":35.5622,"lon":139.71816,"countryCode":"JP"},{"name":"Ginza Capital Hotel","asciiName":"Ginza Capital Hotel","alternatenames":[],"lat":35.67023,"lon":139.77347,"countryCode":"JP"},{"name":"Chisun Hotel Shinagawa-West","asciiName":"Chisun Hotel Shinagawa-West","alternatenames":[],"lat":35.60169,"lon":139.71313,"countryCode":"JP"},{"name":"Hotel Bellclassic Tokyo","asciiName":"Hotel Bellclassic Tokyo","alternatenames":[],"lat":35.73187,"lon":139.72734,"countryCode":"JP"},{"name":"Takanawa Tobu Hotel","asciiName":"Takanawa Tobu Hotel","alternatenames":[],"lat":35.62928,"lon":139.7329,"countryCode":"JP"},{"name":"Toshi Center Hotel","asciiName":"Toshi Center Hotel","alternatenames":[],"lat":35.68113,"lon":139.73875,"countryCode":"JP"},{"name":"Best Western Shinjuku ASTINA Hotel Tokyo","asciiName":"Best Western Shinjuku ASTINA Hotel Tokyo","alternatenames":[],"lat":35.69445,"lon":139.70432,"countryCode":"JP"},{"name":"Hotel Unizo Shinbashi","asciiName":"Hotel Unizo Shinbashi","alternatenames":[],"lat":35.66648,"lon":139.75501,"countryCode":"JP"},{"name":"Hotel Metropolitan Tokyo","asciiName":"Hotel Metropolitan Tokyo","alternatenames":[],"lat":35.7284,"lon":139.70806,"countryCode":"JP"},{"name":"New Otani Inn Tokyo","asciiName":"New Otani Inn Tokyo","alternatenames":[],"lat":35.62085,"lon":139.72921,"countryCode":"JP"},{"name":"Remm Akihabara","asciiName":"Remm Akihabara","alternatenames":[],"lat":35.6979,"lon":139.77375,"countryCode":"JP"},{"name":"Hotel Trusty Tokyo Bayside","asciiName":"Hotel Trusty Tokyo Bayside","alternatenames":[],"lat":35.62886,"lon":139.78702,"countryCode":"JP"},{"name":"Hotel Sunroute Plaza Shinjuku","asciiName":"Hotel Sunroute Plaza Shinjuku","alternatenames":[],"lat":35.68705,"lon":139.69881,"countryCode":"JP"},{"name":"Hotel Monterey La Soeur Ginza","asciiName":"Hotel Monterey La Soeur Ginza","alternatenames":[],"lat":35.67393,"lon":139.76932,"countryCode":"JP"},{"name":"Remm Hibiya","asciiName":"Remm Hibiya","alternatenames":[],"lat":35.67272,"lon":139.75971,"countryCode":"JP"},{"name":"Yaesu Fujiya hotel","asciiName":"Yaesu Fujiya hotel","alternatenames":[],"lat":35.67643,"lon":139.76719,"countryCode":"JP"},{"name":"Grand Pacific Le Daiba","asciiName":"Grand Pacific Le Daiba","alternatenames":[],"lat":35.62476,"lon":139.77126,"countryCode":"JP"},{"name":"Shibuya Tokyu Inn","asciiName":"Shibuya Tokyu Inn","alternatenames":[],"lat":35.66021,"lon":139.70194,"countryCode":"JP"},{"name":"Shangri-la hotel","asciiName":"Shangri-la hotel","alternatenames":[],"lat":35.6825,"lon":139.76934,"countryCode":"JP"},{"name":"Hotel Parkside","asciiName":"Hotel Parkside","alternatenames":[],"lat":35.70922,"lon":139.77084,"countryCode":"JP"},{"name":"Hyatt Regency Tokyo","asciiName":"Hyatt Regency Tokyo","alternatenames":[],"lat":35.6908,"lon":139.6911,"countryCode":"JP"},{"name":"Shinjuku Monolith","asciiName":"Shinjuku Monolith","alternatenames":[],"lat":35.68859,"lon":139.69463,"countryCode":"JP"},{"name":"Hotel Villa Fontaine Shiodome","asciiName":"Hotel Villa Fontaine Shiodome","alternatenames":[],"lat":35.66197,"lon":139.75989,"countryCode":"JP"},{"name":"Sunroute","asciiName":"Sunroute","alternatenames":[],"lat":34.38964,"lon":132.45403,"countryCode":"JP"},{"name":"Mitsui Garden Hotel Hiroshima","asciiName":"Mitsui Garden Hotel Hiroshima","alternatenames":[],"lat":34.38972,"lon":132.45925,"countryCode":"JP"},{"name":"Hiroshima City Bunka Koryu Kai","asciiName":"Hiroshima City Bunka Koryu Kai","alternatenames":[],"lat":34.38873,"lon":132.44856,"countryCode":"JP"},{"name":"Ark","asciiName":"Ark","alternatenames":[],"lat":34.39391,"lon":132.47708,"countryCode":"JP"},{"name":"Ibis Styles Kyoto Station","asciiName":"Ibis Styles Kyoto Station","alternatenames":[],"lat":34.98376,"lon":135.75837,"countryCode":"JP"},{"name":"Court Shijo","asciiName":"Court Shijo","alternatenames":[],"lat":35.00319,"lon":135.75561,"countryCode":"JP"},{"name":"Gimmond Kyoto","asciiName":"Gimmond Kyoto","alternatenames":[],"lat":35.01056,"lon":135.76222,"countryCode":"JP"},{"name":"Apa Kyoto-Gion Excellent","asciiName":"Apa Kyoto-Gion Excellent","alternatenames":[],"lat":35.00361,"lon":135.77625,"countryCode":"JP"},{"name":"Royal Park The Kyoto","asciiName":"Royal Park The Kyoto","alternatenames":[],"lat":35.00894,"lon":135.76945,"countryCode":"JP"},{"name":"Dai-ni Tower","asciiName":"Dai-ni Tower","alternatenames":[],"lat":34.98649,"lon":135.76153,"countryCode":"JP"},{"name":"Hotel VIsta Premio Kyoto","asciiName":"Hotel VIsta Premio Kyoto","alternatenames":[],"lat":35.00776,"lon":135.7682,"countryCode":"JP"},{"name":"ARK","asciiName":"ARK","alternatenames":[],"lat":35.00334,"lon":135.74774,"countryCode":"JP"},{"name":"Apa Horikawadori","asciiName":"Apa Horikawadori","alternatenames":[],"lat":34.98661,"lon":135.75358,"countryCode":"JP"},{"name":"The Ritz Carlton Kyoto","asciiName":"The Ritz Carlton Kyoto","alternatenames":[],"lat":35.01362,"lon":135.77087,"countryCode":"JP"},{"name":"Hotel Sasarindou","asciiName":"Hotel Sasarindou","alternatenames":[],"lat":35.00325,"lon":135.77373,"countryCode":"JP"},{"name":"Hida Takayama Washington Hotel","asciiName":"Hida Takayama Washington Hotel","alternatenames":[],"lat":36.14085,"lon":137.25227,"countryCode":"JP"},{"name":"Associa Takayama Resort","asciiName":"Associa Takayama Resort","alternatenames":[],"lat":36.12273,"lon":137.24371,"countryCode":"JP"},{"name":"Hotel Routeinn Tokyo Toyocho","asciiName":"Hotel Routeinn Tokyo Toyocho","alternatenames":[],"lat":35.66785,"lon":139.81694,"countryCode":"JP"},{"name":"Mitsui Garden Hotel Ginza Premier","asciiName":"Mitsui Garden Hotel Ginza Premier","alternatenames":[],"lat":35.66708,"lon":139.7632,"countryCode":"JP"},{"name":"Villa Fontaine Nihombashi Hakozaki","asciiName":"Villa Fontaine Nihombashi Hakozaki","alternatenames":[],"lat":35.68036,"lon":139.78602,"countryCode":"JP"},{"name":"Villa Fontaine Kudanshita","asciiName":"Villa Fontaine Kudanshita","alternatenames":[],"lat":35.69783,"lon":139.75448,"countryCode":"JP"},{"name":"Villa Fontaine Ueno","asciiName":"Villa Fontaine Ueno","alternatenames":[],"lat":35.7053,"lon":139.78191,"countryCode":"JP"},{"name":"Villa Fontaine Nihonbashi Mitsukoshi Mae","asciiName":"Villa Fontaine Nihonbashi Mitsukoshi Mae","alternatenames":[],"lat":35.68624,"lon":139.77735,"countryCode":"JP"},{"name":"Villa Fontaine Jinbocho","asciiName":"Villa Fontaine Jinbocho","alternatenames":[],"lat":35.69698,"lon":139.75845,"countryCode":"JP"},{"name":"Villa Fontaine Kayabacho","asciiName":"Villa Fontaine Kayabacho","alternatenames":[],"lat":35.67828,"lon":139.78259,"countryCode":"JP"},{"name":"Villa Fontaine Hamamatsucho","asciiName":"Villa Fontaine Hamamatsucho","alternatenames":[],"lat":35.65206,"lon":139.75482,"countryCode":"JP"},{"name":"Villa Fontaine Otemachi","asciiName":"Villa Fontaine Otemachi","alternatenames":[],"lat":35.69057,"lon":139.76677,"countryCode":"JP"},{"name":"Marroad Inn Akasaka","asciiName":"Marroad Inn Akasaka","alternatenames":[],"lat":35.66906,"lon":139.7327,"countryCode":"JP"},{"name":"Villa Fontaine Tokyo Tamachi","asciiName":"Villa Fontaine Tokyo Tamachi","alternatenames":[],"lat":35.64267,"lon":139.74477,"countryCode":"JP"},{"name":"Listel Shinjuku","asciiName":"Listel Shinjuku","alternatenames":[],"lat":35.69289,"lon":139.71142,"countryCode":"JP"},{"name":"Citadines Shinjuku","asciiName":"Citadines Shinjuku","alternatenames":[],"lat":35.69102,"lon":139.71316,"countryCode":"JP"},{"name":"Akasaka Yoko A","asciiName":"Akasaka Yoko A","alternatenames":[],"lat":35.66948,"lon":139.73308,"countryCode":"JP"},{"name":"Niwa","asciiName":"Niwa","alternatenames":[],"lat":35.7006,"lon":139.75668,"countryCode":"JP"},{"name":"Mitsui Garden Shiodome Italia Gai A","asciiName":"Mitsui Garden Shiodome Italia Gai A","alternatenames":[],"lat":35.6602,"lon":139.75705,"countryCode":"JP"},{"name":"Courtyard By Marriott Tokyo Ginza","asciiName":"Courtyard By Marriott Tokyo Ginza","alternatenames":[],"lat":35.66837,"lon":139.76486,"countryCode":"JP"},{"name":"Haneda Excel Tokyu","asciiName":"Haneda Excel Tokyu","alternatenames":[],"lat":35.55313,"lon":139.78707,"countryCode":"JP"},{"name":"Chinzan So Tokyo City View","asciiName":"Chinzan So Tokyo City View","alternatenames":[],"lat":35.71185,"lon":139.726,"countryCode":"JP"},{"name":"Chinzan So Tokyo Garden View","asciiName":"Chinzan So Tokyo Garden View","alternatenames":[],"lat":35.71185,"lon":139.726,"countryCode":"JP"},{"name":"The Peninsula Tokyo","asciiName":"The Peninsula Tokyo","alternatenames":[],"lat":35.67486,"lon":139.76051,"countryCode":"JP"},{"name":"Vista Hotel Kamata","asciiName":"Vista Hotel Kamata","alternatenames":[],"lat":35.55982,"lon":139.71377,"countryCode":"JP"},{"name":"Keio Plaza Superior A","asciiName":"Keio Plaza Superior A","alternatenames":[],"lat":35.69006,"lon":139.69439,"countryCode":"JP"},{"name":"Mandarin Oriental Deluxe Premier","asciiName":"Mandarin Oriental Deluxe Premier","alternatenames":[],"lat":35.68703,"lon":139.77313,"countryCode":"JP"},{"name":"Prince Hotel Shinagawa Annex Tower A","asciiName":"Prince Hotel Shinagawa Annex Tower A","alternatenames":[],"lat":35.62784,"lon":139.73574,"countryCode":"JP"},{"name":"Via Inn Asakusa","asciiName":"Via Inn Asakusa","alternatenames":[],"lat":35.71525,"lon":139.79813,"countryCode":"JP"},{"name":"Ginza Capital Main","asciiName":"Ginza Capital Main","alternatenames":[],"lat":35.6702,"lon":139.77361,"countryCode":"JP"},{"name":"Via Inn Hiroshima Kanayamacho","asciiName":"Via Inn Hiroshima Kanayamacho","alternatenames":[],"lat":34.39181,"lon":132.46692,"countryCode":"JP"},{"name":"Vintage Shinjuku A","asciiName":"Vintage Shinjuku A","alternatenames":[],"lat":35.69725,"lon":139.70208,"countryCode":"JP"},{"name":"Keio Plaza Plaza Premier A","asciiName":"Keio Plaza Plaza Premier A","alternatenames":[],"lat":35.69006,"lon":139.69439,"countryCode":"JP"},{"name":"Kyoto Dai Ni Tower D","asciiName":"Kyoto Dai Ni Tower D","alternatenames":[],"lat":34.98644,"lon":135.76154,"countryCode":"JP"},{"name":"Citadines Kyoto Karasuma Gojo","asciiName":"Citadines Kyoto Karasuma Gojo","alternatenames":[],"lat":34.99654,"lon":135.76037,"countryCode":"JP"},{"name":"Village Kyoto Modern Japanese Futon","asciiName":"Village Kyoto Modern Japanese Futon","alternatenames":[],"lat":35.0038,"lon":135.74749,"countryCode":"JP"},{"name":"Mitsui Garden Hotel Kyoto Shijo","asciiName":"Mitsui Garden Hotel Kyoto Shijo","alternatenames":[],"lat":35.00334,"lon":135.75461,"countryCode":"JP"},{"name":"New Miyako South Wing A","asciiName":"New Miyako South Wing A","alternatenames":[],"lat":34.98379,"lon":135.75592,"countryCode":"JP"},{"name":"Apa Temma","asciiName":"Apa Temma","alternatenames":[],"lat":34.70356,"lon":135.51672,"countryCode":"JP"},{"name":"Holiday Inn Tobu","asciiName":"Holiday Inn Tobu","alternatenames":[],"lat":35.7863,"lon":140.369,"countryCode":"JP"},{"name":"Unizo Inn Nagoya Sakae Higashi","asciiName":"Unizo Inn Nagoya Sakae Higashi","alternatenames":[],"lat":35.16955,"lon":136.91317,"countryCode":"JP"},{"name":"Prince Kazenamiki","asciiName":"Prince Kazenamiki","alternatenames":[],"lat":44.07169,"lon":145.0005,"countryCode":"JP"},{"name":"Lucent Takamiya","asciiName":"Lucent Takamiya","alternatenames":[],"lat":38.16345,"lon":140.39153,"countryCode":"JP"},{"name":"Okinawa Kariyushi Ryukyu Naha","asciiName":"Okinawa Kariyushi Ryukyu Naha","alternatenames":[],"lat":26.21319,"lon":127.67699,"countryCode":"JP"},{"name":"Kagoshima Tokyu Inn","asciiName":"Kagoshima Tokyu Inn","alternatenames":[],"lat":31.58565,"lon":130.54565,"countryCode":"JP"},{"name":"Kagaya","asciiName":"Kagaya","alternatenames":[],"lat":37.09017,"lon":136.91449,"countryCode":"JP"},{"name":"Candeo Ueno-Park","asciiName":"Candeo Ueno-Park","alternatenames":[],"lat":35.72181,"lon":139.77976,"countryCode":"JP"},{"name":"Grantia","asciiName":"Grantia","alternatenames":[],"lat":24.34258,"lon":124.15131,"countryCode":"JP"},{"name":"Southern Beach Hotel And Resort","asciiName":"Southern Beach Hotel And Resort","alternatenames":[],"lat":26.12969,"lon":127.65431,"countryCode":"JP"},{"name":"Okinawa Miyako","asciiName":"Okinawa Miyako","alternatenames":[],"lat":26.2192,"lon":127.70662,"countryCode":"JP"},{"name":"Bluewave Inn","asciiName":"Bluewave Inn","alternatenames":[],"lat":43.05191,"lon":141.35192,"countryCode":"JP"},{"name":"Hearton Minami Senba","asciiName":"Hearton Minami Senba","alternatenames":[],"lat":34.67576,"lon":135.50366,"countryCode":"JP"},{"name":"St Regis Osaka","asciiName":"St Regis Osaka","alternatenames":[],"lat":34.68318,"lon":135.50116,"countryCode":"JP"},{"name":"Spa Resort Exes","asciiName":"Spa Resort Exes","alternatenames":[],"lat":26.52712,"lon":127.93068,"countryCode":"JP"},{"name":"Mercure Sapporo","asciiName":"Mercure Sapporo","alternatenames":[],"lat":43.05563,"lon":141.35573,"countryCode":"JP"},{"name":"Pacific Okinawa","asciiName":"Pacific Okinawa","alternatenames":[],"lat":26.21588,"lon":127.6674,"countryCode":"JP"},{"name":"New Akan (Crystal Wing)","asciiName":"New Akan (Crystal Wing)","alternatenames":[],"lat":43.43336,"lon":144.09699,"countryCode":"JP"},{"name":"Naha Terrace","asciiName":"Naha Terrace","alternatenames":[],"lat":26.22368,"lon":127.69152,"countryCode":"JP"},{"name":"New Grand","asciiName":"New Grand","alternatenames":[],"lat":35.4449,"lon":139.64951,"countryCode":"JP"},{"name":"Shin Osaka Esaka Tokyu Inn","asciiName":"Shin Osaka Esaka Tokyu Inn","alternatenames":[],"lat":34.75842,"lon":135.49636,"countryCode":"JP"},{"name":"Dotonbori Namba","asciiName":"Dotonbori Namba","alternatenames":[],"lat":34.66879,"lon":135.49881,"countryCode":"JP"},{"name":"Kansai Airport Washington","asciiName":"Kansai Airport Washington","alternatenames":[],"lat":34.41128,"lon":135.30151,"countryCode":"JP"},{"name":"Rich Kyoto","asciiName":"Rich Kyoto","alternatenames":[],"lat":34.9973,"lon":135.76663,"countryCode":"JP"},{"name":"Resol Hakata","asciiName":"Resol Hakata","alternatenames":[],"lat":33.59273,"lon":130.40608,"countryCode":"JP"},{"name":"Ana Crowne Plaza","asciiName":"Ana Crowne Plaza","alternatenames":[],"lat":36.69155,"lon":137.21193,"countryCode":"JP"},{"name":"Hotel Izyukyu","asciiName":"Hotel Izyukyu","alternatenames":[],"lat":34.68664,"lon":138.97135,"countryCode":"JP"},{"name":"Shimoda Tokyu Hotel","asciiName":"Shimoda Tokyu Hotel","alternatenames":[],"lat":34.66805,"lon":138.93838,"countryCode":"JP"},{"name":"Hotel New Akao","asciiName":"Hotel New Akao","alternatenames":[],"lat":35.08646,"lon":139.08157,"countryCode":"JP"},{"name":"Kishu Tetsudo Atami Hotel","asciiName":"Kishu Tetsudo Atami Hotel","alternatenames":[],"lat":35.10878,"lon":139.08226,"countryCode":"JP"},{"name":"Hotel Sun Hatoya","asciiName":"Hotel Sun Hatoya","alternatenames":[],"lat":34.99068,"lon":139.09269,"countryCode":"JP"},{"name":"Zagyoso","asciiName":"Zagyoso","alternatenames":[],"lat":34.86564,"lon":139.09663,"countryCode":"JP"},{"name":"Chisun Hotel & Conference Center","asciiName":"Chisun Hotel & Conference Center","alternatenames":[],"lat":37.91118,"lon":139.06523,"countryCode":"JP"},{"name":"Ana Holiday Inn","asciiName":"Ana Holiday Inn","alternatenames":[],"lat":38.25545,"lon":140.88399,"countryCode":"JP"},{"name":"Mitsui Garden","asciiName":"Mitsui Garden","alternatenames":[],"lat":38.26357,"lon":140.87354,"countryCode":"JP"},{"name":"Smile","asciiName":"Smile","alternatenames":[],"lat":38.26329,"lon":140.87068,"countryCode":"JP"},{"name":"Urabandai Royal","asciiName":"Urabandai Royal","alternatenames":[],"lat":37.65573,"lon":140.09395,"countryCode":"JP"},{"name":"Best Western Newcity","asciiName":"Best Western Newcity","alternatenames":[],"lat":40.59821,"lon":140.48421,"countryCode":"JP"},{"name":"Hachimantai Royal","asciiName":"Hachimantai Royal","alternatenames":[],"lat":39.89666,"lon":140.96762,"countryCode":"JP"},{"name":"Best Western Kochi","asciiName":"Best Western Kochi","alternatenames":[],"lat":33.55,"lon":133.5,"countryCode":"JP"},{"name":"Holiday Inn Kochi","asciiName":"Holiday Inn Kochi","alternatenames":[],"lat":33.5669,"lon":133.63088,"countryCode":"JP"},{"name":"Watermark Huis Ten Bosch","asciiName":"Watermark Huis Ten Bosch","alternatenames":[],"lat":33.08069,"lon":129.78551,"countryCode":"JP"},{"name":"Chisun Grand","asciiName":"Chisun Grand","alternatenames":[],"lat":33.17325,"lon":129.71802,"countryCode":"JP"},{"name":"Ana Intercontinental Manza Beach Resort","asciiName":"Ana Intercontinental Manza Beach Resort","alternatenames":[],"lat":26.32973,"lon":127.79829,"countryCode":"JP"},{"name":"Tokyu Bizfort Naha","asciiName":"Tokyu Bizfort Naha","alternatenames":[],"lat":26.20981,"lon":127.67741,"countryCode":"JP"},{"name":"Apa","asciiName":"Apa","alternatenames":[],"lat":26.21808,"lon":127.68038,"countryCode":"JP"},{"name":"Smile Hotel Okinawa Naha","asciiName":"Smile Hotel Okinawa Naha","alternatenames":[],"lat":26.22315,"lon":127.68361,"countryCode":"JP"},{"name":"Southern Beach Hotel & Resort","asciiName":"Southern Beach Hotel & Resort","alternatenames":[],"lat":26.13199,"lon":127.653,"countryCode":"JP"},{"name":"Garden Palace","asciiName":"Garden Palace","alternatenames":[],"lat":33.59503,"lon":130.39966,"countryCode":"JP"},{"name":"Court Tenjin","asciiName":"Court Tenjin","alternatenames":[],"lat":33.58899,"lon":130.4045,"countryCode":"JP"},{"name":"Sunline","asciiName":"Sunline","alternatenames":[],"lat":33.59073,"lon":130.38039,"countryCode":"JP"},{"name":"Il Palazzo","asciiName":"Il Palazzo","alternatenames":[],"lat":33.59517,"lon":130.40208,"countryCode":"JP"},{"name":"Hakata Excel Tokyu","asciiName":"Hakata Excel Tokyu","alternatenames":[],"lat":33.59247,"lon":130.40541,"countryCode":"JP"},{"name":"Mitsui Urban Fukuoka","asciiName":"Mitsui Urban Fukuoka","alternatenames":[],"lat":33.59078,"lon":130.41393,"countryCode":"JP"},{"name":"Hilton Fukuoka Sea Hawk","asciiName":"Hilton Fukuoka Sea Hawk","alternatenames":["Hilton Fukuoka Sea Hawk","hiruton fu gangshihoku","ヒルトン福岡シーホーク"],"lat":33.59486,"lon":130.35983,"countryCode":"JP"},{"name":"Mojiko Hotel","asciiName":"Mojiko Hotel","alternatenames":[],"lat":33.58385,"lon":130.41277,"countryCode":"JP"},{"name":"Ascent","asciiName":"Ascent","alternatenames":[],"lat":33.59222,"lon":130.39684,"countryCode":"JP"},{"name":"Sutton Hakata City","asciiName":"Sutton Hakata City","alternatenames":[],"lat":33.58664,"lon":130.41637,"countryCode":"JP"},{"name":"Sky Court Hakata","asciiName":"Sky Court Hakata","alternatenames":[],"lat":33.59793,"lon":130.42749,"countryCode":"JP"},{"name":"Hakata Green Hotel","asciiName":"Hakata Green Hotel","alternatenames":[],"lat":33.58367,"lon":130.41285,"countryCode":"JP"},{"name":"Tokyu Bizfort Hakata","asciiName":"Tokyu Bizfort Hakata","alternatenames":[],"lat":33.59203,"lon":130.41823,"countryCode":"JP"},{"name":"Sunlife23","asciiName":"Sunlife23","alternatenames":[],"lat":33.59133,"lon":130.42393,"countryCode":"JP"},{"name":"Crowne Plaza Ana Fukuoka","asciiName":"Crowne Plaza Ana Fukuoka","alternatenames":[],"lat":33.58738,"lon":130.41768,"countryCode":"JP"},{"name":"Miyako Hakata","asciiName":"Miyako Hakata","alternatenames":[],"lat":33.58894,"lon":130.42307,"countryCode":"JP"},{"name":"Sunlife1","asciiName":"Sunlife1","alternatenames":[],"lat":33.59289,"lon":130.42183,"countryCode":"JP"},{"name":"Sunroute Hakata","asciiName":"Sunroute Hakata","alternatenames":[],"lat":33.59148,"lon":130.42139,"countryCode":"JP"},{"name":"Takakura","asciiName":"Takakura","alternatenames":[],"lat":33.58339,"lon":130.40227,"countryCode":"JP"},{"name":"Qurega Tenjin","asciiName":"Qurega Tenjin","alternatenames":[],"lat":33.58677,"lon":130.39947,"countryCode":"JP"},{"name":"Mystays Tenjin","asciiName":"Mystays Tenjin","alternatenames":[],"lat":33.58874,"lon":130.40633,"countryCode":"JP"},{"name":"Seawave","asciiName":"Seawave","alternatenames":[],"lat":33.27905,"lon":131.50095,"countryCode":"JP"},{"name":"Centleisure Kijima Kogen","asciiName":"Centleisure Kijima Kogen","alternatenames":[],"lat":33.26262,"lon":131.42523,"countryCode":"JP"},{"name":"Tenku Yubo Seikaiso Ryokan","asciiName":"Tenku Yubo Seikaiso Ryokan","alternatenames":[],"lat":33.28098,"lon":131.50735,"countryCode":"JP"},{"name":"Koyasan Onsen Fukuchin","asciiName":"Koyasan Onsen Fukuchin","alternatenames":[],"lat":34.21875,"lon":135.17182,"countryCode":"JP"},{"name":"Sekisho-In","asciiName":"Sekisho-In","alternatenames":[],"lat":34.21875,"lon":135.17182,"countryCode":"JP"},{"name":"Nagahama Royal","asciiName":"Nagahama Royal","alternatenames":[],"lat":35.3742,"lon":136.26195,"countryCode":"JP"},{"name":"Kadoma Public","asciiName":"Kadoma Public","alternatenames":[],"lat":34.7376,"lon":135.58551,"countryCode":"JP"},{"name":"Camelot Japan","asciiName":"Camelot Japan","alternatenames":[],"lat":35.46802,"lon":139.61848,"countryCode":"JP"},{"name":"Pan Pacific Yokohama Bay Hotel Tokyu","asciiName":"Pan Pacific Yokohama Bay Hotel Tokyu","alternatenames":[],"lat":35.45699,"lon":139.6353,"countryCode":"JP"},{"name":"Sheraton Grande Tokyo Bay","asciiName":"Sheraton Grande Tokyo Bay","alternatenames":[],"lat":35.62603,"lon":139.87764,"countryCode":"JP"},{"name":"Epinard Nasu","asciiName":"Epinard Nasu","alternatenames":[],"lat":37.05035,"lon":140.02376,"countryCode":"JP"},{"name":"Sky Court Narita","asciiName":"Sky Court Narita","alternatenames":[],"lat":35.8073,"lon":140.408,"countryCode":"JP"},{"name":"Mercure Narita Airport","asciiName":"Mercure Narita Airport","alternatenames":[],"lat":35.7722,"lon":140.3152,"countryCode":"JP"},{"name":"Minakami Kogen 200","asciiName":"Minakami Kogen 200","alternatenames":[],"lat":36.85569,"lon":139.07616,"countryCode":"JP"},{"name":"Hatsuhana Ryokan","asciiName":"Hatsuhana Ryokan","alternatenames":[],"lat":35.22224,"lon":139.07983,"countryCode":"JP"},{"name":"Kowaki-En","asciiName":"Kowaki-En","alternatenames":[],"lat":35.23889,"lon":139.04742,"countryCode":"JP"},{"name":"Hotel Mystays Maihama","asciiName":"Hotel Mystays Maihama","alternatenames":[],"lat":35.59613,"lon":140.12462,"countryCode":"JP"},{"name":"Disney Ambassador Hotel","asciiName":"Disney Ambassador Hotel","alternatenames":[],"lat":35.59613,"lon":140.12462,"countryCode":"JP"},{"name":"Tokyo Bay Hotel Tokyu","asciiName":"Tokyo Bay Hotel Tokyu","alternatenames":[],"lat":35.59613,"lon":140.12462,"countryCode":"JP"},{"name":"Apa Tokyo Bay Makuhari","asciiName":"Apa Tokyo Bay Makuhari","alternatenames":[],"lat":35.644,"lon":140.03706,"countryCode":"JP"},{"name":"Mitsui Garden Hotel Prana Tokyo Bay","asciiName":"Mitsui Garden Hotel Prana Tokyo Bay","alternatenames":[],"lat":35.59613,"lon":140.12462,"countryCode":"JP"},{"name":"Urayasu Brighton Hotel","asciiName":"Urayasu Brighton Hotel","alternatenames":[],"lat":35.59613,"lon":140.12462,"countryCode":"JP"},{"name":"Apa And Resort Tokyo Bay Makuhari","asciiName":"Apa And Resort Tokyo Bay Makuhari","alternatenames":[],"lat":35.64417,"lon":140.03722,"countryCode":"JP"},{"name":"Hotel The Manhattan","asciiName":"Hotel The Manhattan","alternatenames":[],"lat":35.59613,"lon":140.12462,"countryCode":"JP"},{"name":"Hotel New Otani Makuhari","asciiName":"Hotel New Otani Makuhari","alternatenames":[],"lat":35.60325,"lon":140.11374,"countryCode":"JP"},{"name":"Tokyo Disney Sea Hotel Miracosta","asciiName":"Tokyo Disney Sea Hotel Miracosta","alternatenames":[],"lat":35.59613,"lon":140.12462,"countryCode":"JP"},{"name":"Gyotaukuso","asciiName":"Gyotaukuso","alternatenames":[],"lat":34.90555,"lon":139.89085,"countryCode":"JP"},{"name":"Ryugujo Hotel Mikazuki","asciiName":"Ryugujo Hotel Mikazuki","alternatenames":[],"lat":35.42144,"lon":139.89724,"countryCode":"JP"},{"name":"Tokyo Disneyland Hotel","asciiName":"Tokyo Disneyland Hotel","alternatenames":[],"lat":35.59613,"lon":140.12462,"countryCode":"JP"},{"name":"Shikabe Royal","asciiName":"Shikabe Royal","alternatenames":[],"lat":42.07234,"lon":140.77168,"countryCode":"JP"},{"name":"Kita Hotel","asciiName":"Kita Hotel","alternatenames":[],"lat":43.04242,"lon":141.35707,"countryCode":"JP"},{"name":"Jasmac Plaza","asciiName":"Jasmac Plaza","alternatenames":[],"lat":43.0518,"lon":141.35526,"countryCode":"JP"},{"name":"Sunroute New Sapporo","asciiName":"Sunroute New Sapporo","alternatenames":[],"lat":43.05662,"lon":141.34882,"countryCode":"JP"},{"name":"Tokyu Inn","asciiName":"Tokyu Inn","alternatenames":[],"lat":43.05503,"lon":141.35118,"countryCode":"JP"},{"name":"Vista Nakajima Koen","asciiName":"Vista Nakajima Koen","alternatenames":[],"lat":43.04844,"lon":141.35281,"countryCode":"JP"},{"name":"Grand","asciiName":"Grand","alternatenames":[],"lat":43.06282,"lon":141.35037,"countryCode":"JP"},{"name":"Novotel","asciiName":"Novotel","alternatenames":[],"lat":43.04765,"lon":141.35216,"countryCode":"JP"},{"name":"Prince Sapporo","asciiName":"Prince Sapporo","alternatenames":[],"lat":43.05579,"lon":141.34041,"countryCode":"JP"},{"name":"Resol Minami 2 Jo","asciiName":"Resol Minami 2 Jo","alternatenames":[],"lat":43.05792,"lon":141.35027,"countryCode":"JP"},{"name":"Keihan","asciiName":"Keihan","alternatenames":[],"lat":43.06775,"lon":141.34621,"countryCode":"JP"},{"name":"Royton","asciiName":"Royton","alternatenames":[],"lat":43.06094,"lon":141.3397,"countryCode":"JP"},{"name":"Jozankei Grand Zuien Ryokan","asciiName":"Jozankei Grand Zuien Ryokan","alternatenames":[],"lat":42.96361,"lon":141.15991,"countryCode":"JP"},{"name":"Watermark","asciiName":"Watermark","alternatenames":[],"lat":43.05671,"lon":141.35048,"countryCode":"JP"},{"name":"Route Inn Sapporo Chuo","asciiName":"Route Inn Sapporo Chuo","alternatenames":[],"lat":43.05436,"lon":141.35133,"countryCode":"JP"},{"name":"Chisun Grand","asciiName":"Chisun Grand","alternatenames":[],"lat":43.04993,"lon":141.35185,"countryCode":"JP"},{"name":"Sincerit","asciiName":"Sincerit","alternatenames":[],"lat":43.04982,"lon":141.35555,"countryCode":"JP"},{"name":"Garden Palace","asciiName":"Garden Palace","alternatenames":[],"lat":43.0623,"lon":141.34738,"countryCode":"JP"},{"name":"Gracery","asciiName":"Gracery","alternatenames":[],"lat":43.06633,"lon":141.34947,"countryCode":"JP"},{"name":"Excel Tokyu Sapporo","asciiName":"Excel Tokyu Sapporo","alternatenames":[],"lat":43.05083,"lon":141.34892,"countryCode":"JP"},{"name":"Jyozankei Milione Ryokan","asciiName":"Jyozankei Milione Ryokan","alternatenames":[],"lat":42.96429,"lon":141.1637,"countryCode":"JP"},{"name":"Mitsui Garden Sapporo","asciiName":"Mitsui Garden Sapporo","alternatenames":[],"lat":43.06657,"lon":141.34701,"countryCode":"JP"},{"name":"Resol Nakajimakoen","asciiName":"Resol Nakajimakoen","alternatenames":[],"lat":43.04884,"lon":141.35315,"countryCode":"JP"},{"name":"Jozankei Shogetsu Grand Ryokan","asciiName":"Jozankei Shogetsu Grand Ryokan","alternatenames":[],"lat":42.9655,"lon":141.16483,"countryCode":"JP"},{"name":"Manseikaku Ryokan","asciiName":"Manseikaku Ryokan","alternatenames":[],"lat":42.49151,"lon":141.14407,"countryCode":"JP"},{"name":"Yumoto Ryokan","asciiName":"Yumoto Ryokan","alternatenames":[],"lat":42.49212,"lon":141.14381,"countryCode":"JP"},{"name":"Manseikaku Lakeside Terrace","asciiName":"Manseikaku Lakeside Terrace","alternatenames":[],"lat":42.56571,"lon":140.82457,"countryCode":"JP"},{"name":"Shimonoseki Marin Hotel","asciiName":"Shimonoseki Marin Hotel","alternatenames":[],"lat":33.98687,"lon":130.9913,"countryCode":"JP"},{"name":"Bunka Koryu Kaikan","asciiName":"Bunka Koryu Kaikan","alternatenames":[],"lat":34.38873,"lon":132.44856,"countryCode":"JP"},{"name":"Ana Hiroshima","asciiName":"Ana Hiroshima","alternatenames":[],"lat":34.3901,"lon":132.45694,"countryCode":"JP"},{"name":"Blue Wave Inn Hiroshima","asciiName":"Blue Wave Inn Hiroshima","alternatenames":[],"lat":34.37756,"lon":132.44479,"countryCode":"JP"},{"name":"Tokyu Inn Hiroshima","asciiName":"Tokyu Inn Hiroshima","alternatenames":[],"lat":34.38905,"lon":132.46083,"countryCode":"JP"},{"name":"New Hiroden","asciiName":"New Hiroden","alternatenames":[],"lat":34.39893,"lon":132.47194,"countryCode":"JP"},{"name":"Garden Palace","asciiName":"Garden Palace","alternatenames":[],"lat":34.39822,"lon":132.48051,"countryCode":"JP"},{"name":"Miyajima Grand Hotel Arimoto","asciiName":"Miyajima Grand Hotel Arimoto","alternatenames":[],"lat":34.38371,"lon":132.4473,"countryCode":"JP"},{"name":"Ana Crowne Plaza Hiroshima","asciiName":"Ana Crowne Plaza Hiroshima","alternatenames":[],"lat":34.3904,"lon":132.45695,"countryCode":"JP"},{"name":"Kinsuikan","asciiName":"Kinsuikan","alternatenames":[],"lat":34.38371,"lon":132.4473,"countryCode":"JP"},{"name":"Seaside","asciiName":"Seaside","alternatenames":[],"lat":34.30432,"lon":132.33519,"countryCode":"JP"},{"name":"Unazuki New Otani Hotel","asciiName":"Unazuki New Otani Hotel","alternatenames":[],"lat":36.81712,"lon":137.58418,"countryCode":"JP"},{"name":"Hotel Suiyotei","asciiName":"Hotel Suiyotei","alternatenames":[],"lat":34.9748,"lon":138.38847,"countryCode":"JP"},{"name":"Hana No Yakata Somei","asciiName":"Hana No Yakata Somei","alternatenames":[],"lat":34.9748,"lon":138.38847,"countryCode":"JP"},{"name":"Ataminoyu Shinkadoya","asciiName":"Ataminoyu Shinkadoya","alternatenames":[],"lat":34.97481,"lon":138.38846,"countryCode":"JP"},{"name":"Kawasegien Isuzu Hotel","asciiName":"Kawasegien Isuzu Hotel","alternatenames":[],"lat":35.14169,"lon":139.08114,"countryCode":"JP"},{"name":"Noto Royal","asciiName":"Noto Royal","alternatenames":[],"lat":37.02812,"lon":136.76845,"countryCode":"JP"},{"name":"Jiragonno Fuji No Yakata","asciiName":"Jiragonno Fuji No Yakata","alternatenames":[],"lat":35.47515,"lon":138.6894,"countryCode":"JP"},{"name":"Cypress Garden","asciiName":"Cypress Garden","alternatenames":[],"lat":35.14249,"lon":136.90063,"countryCode":"JP"},{"name":"Sofitel The Cypress","asciiName":"Sofitel The Cypress","alternatenames":[],"lat":35.17729,"lon":136.88866,"countryCode":"JP"},{"name":"Marriott Associa","asciiName":"Marriott Associa","alternatenames":[],"lat":35.17194,"lon":136.88104,"countryCode":"JP"},{"name":"Ana Grand Court","asciiName":"Ana Grand Court","alternatenames":[],"lat":35.14335,"lon":136.90071,"countryCode":"JP"},{"name":"Associa Nagoya Terminal","asciiName":"Associa Nagoya Terminal","alternatenames":[],"lat":35.17347,"lon":136.88193,"countryCode":"JP"},{"name":"Hamilton Black","asciiName":"Hamilton Black","alternatenames":[],"lat":35.16639,"lon":136.89716,"countryCode":"JP"},{"name":"Sakae Tokyu Inn","asciiName":"Sakae Tokyu Inn","alternatenames":[],"lat":35.16812,"lon":136.90663,"countryCode":"JP"},{"name":"Com's","asciiName":"Com's","alternatenames":[],"lat":35.16224,"lon":136.91685,"countryCode":"JP"},{"name":"International Nagoya","asciiName":"International Nagoya","alternatenames":[],"lat":35.16946,"lon":136.90486,"countryCode":"JP"},{"name":"Garden Palace","asciiName":"Garden Palace","alternatenames":[],"lat":35.17117,"lon":136.90268,"countryCode":"JP"},{"name":"Hamilton Red","asciiName":"Hamilton Red","alternatenames":[],"lat":35.16721,"lon":136.9006,"countryCode":"JP"},{"name":"Marunouchi Tokyu Inn","asciiName":"Marunouchi Tokyu Inn","alternatenames":[],"lat":35.17409,"lon":136.8981,"countryCode":"JP"},{"name":"Fuchinobo","asciiName":"Fuchinobo","alternatenames":[],"lat":36.65775,"lon":138.18782,"countryCode":"JP"},{"name":"Kyu Karuizawa Hotel Shinonome Salon","asciiName":"Kyu Karuizawa Hotel Shinonome Salon","alternatenames":[],"lat":36.6491,"lon":138.1919,"countryCode":"JP"},{"name":"Myojinkan","asciiName":"Myojinkan","alternatenames":[],"lat":36.6491,"lon":138.1919,"countryCode":"JP"},{"name":"Matsumoto Kagetsu","asciiName":"Matsumoto Kagetsu","alternatenames":[],"lat":36.23597,"lon":137.97246,"countryCode":"JP"},{"name":"Nagano Daiichi Hotel","asciiName":"Nagano Daiichi Hotel","alternatenames":[],"lat":36.6491,"lon":138.1919,"countryCode":"JP"},{"name":"The Saihokukan Hotel","asciiName":"The Saihokukan Hotel","alternatenames":[],"lat":36.65292,"lon":138.18333,"countryCode":"JP"},{"name":"Toko City Hotel Matsumoto","asciiName":"Toko City Hotel Matsumoto","alternatenames":[],"lat":36.64911,"lon":138.19189,"countryCode":"JP"},{"name":"Hotel Buena Vista Hotel","asciiName":"Hotel Buena Vista Hotel","alternatenames":[],"lat":36.6491,"lon":138.1919,"countryCode":"JP"},{"name":"Tominoko Rich Lake","asciiName":"Tominoko Rich Lake","alternatenames":[],"lat":35.5132,"lon":138.77048,"countryCode":"JP"},{"name":"Seigaku Hotel","asciiName":"Seigaku Hotel","alternatenames":[],"lat":35.5054,"lon":138.77293,"countryCode":"JP"},{"name":"Apa Karuizawa Ekimae","asciiName":"Apa Karuizawa Ekimae","alternatenames":[],"lat":36.34307,"lon":138.63846,"countryCode":"JP"},{"name":"Prince West","asciiName":"Prince West","alternatenames":[],"lat":36.33693,"lon":138.63376,"countryCode":"JP"},{"name":"Prince East","asciiName":"Prince East","alternatenames":[],"lat":36.33984,"lon":138.63966,"countryCode":"JP"},{"name":"Ana Crowne Plaza Kanazawa","asciiName":"Ana Crowne Plaza Kanazawa","alternatenames":[],"lat":36.57671,"lon":136.64859,"countryCode":"JP"},{"name":"Kanazawa Excel Hotel Tokyu","asciiName":"Kanazawa Excel Hotel Tokyu","alternatenames":[],"lat":36.56262,"lon":136.65353,"countryCode":"JP"},{"name":"Riverge Akebono","asciiName":"Riverge Akebono","alternatenames":[],"lat":36.06209,"lon":136.21445,"countryCode":"JP"},{"name":"Court Hotel Shin Yokohama","asciiName":"Court Hotel Shin Yokohama","alternatenames":[],"lat":35.50889,"lon":139.61375,"countryCode":"JP"},{"name":"Inatori Tokai Hotel Yuen","asciiName":"Inatori Tokai Hotel Yuen","alternatenames":[],"lat":34.76616,"lon":139.03749,"countryCode":"JP"},{"name":"Katsuragawa","asciiName":"Katsuragawa","alternatenames":[],"lat":34.97178,"lon":138.93257,"countryCode":"JP"},{"name":"Imabari Kokusai Hotel","asciiName":"Imabari Kokusai Hotel","alternatenames":[],"lat":34.06219,"lon":133.0007,"countryCode":"JP"},{"name":"Shiroyama Kanko","asciiName":"Shiroyama Kanko","alternatenames":[],"lat":31.59538,"lon":130.54776,"countryCode":"JP"},{"name":"Rembrandt Kagoshima","asciiName":"Rembrandt Kagoshima","alternatenames":[],"lat":31.55519,"lon":130.56,"countryCode":"JP"},{"name":"Ana Crowne Plaza Narita","asciiName":"Ana Crowne Plaza Narita","alternatenames":[],"lat":35.78736,"lon":140.37106,"countryCode":"JP"},{"name":"Yokohama Sakuragicho Washington","asciiName":"Yokohama Sakuragicho Washington","alternatenames":[],"lat":35.45059,"lon":139.6326,"countryCode":"JP"},{"name":"Yokohama Isezakicho Washington","asciiName":"Yokohama Isezakicho Washington","alternatenames":[],"lat":35.44153,"lon":139.63279,"countryCode":"JP"},{"name":"Abashiri Kankou","asciiName":"Abashiri Kankou","alternatenames":[],"lat":43.99268,"lon":144.2255,"countryCode":"JP"},{"name":"Nagasaki Ana Groverhill","asciiName":"Nagasaki Ana Groverhill","alternatenames":[],"lat":32.73561,"lon":129.87006,"countryCode":"JP"},{"name":"Kyoto Tower Annex (D)","asciiName":"Kyoto Tower Annex (D)","alternatenames":[],"lat":34.98809,"lon":135.75655,"countryCode":"JP"},{"name":"Namba Washington Plaza (D)","asciiName":"Namba Washington Plaza (D)","alternatenames":[],"lat":34.66853,"lon":135.50669,"countryCode":"JP"},{"name":"Villa Fontaine Shinsaibashi","asciiName":"Villa Fontaine Shinsaibashi","alternatenames":[],"lat":34.67578,"lon":135.5017,"countryCode":"JP"},{"name":"Keihan Universal Tower","asciiName":"Keihan Universal Tower","alternatenames":[],"lat":34.66764,"lon":135.43796,"countryCode":"JP"},{"name":"Fujita Kanko Washington","asciiName":"Fujita Kanko Washington","alternatenames":[],"lat":43.76479,"lon":142.35822,"countryCode":"JP"},{"name":"Best Western The Japonais Yonezawa","asciiName":"Best Western The Japonais Yonezawa","alternatenames":[],"lat":37.90913,"lon":140.13164,"countryCode":"JP"},{"name":"Hotel Osho","asciiName":"Hotel Osho","alternatenames":[],"lat":38.35929,"lon":140.38145,"countryCode":"JP"},{"name":"Chisun","asciiName":"Chisun","alternatenames":[],"lat":37.39663,"lon":140.38625,"countryCode":"JP"},{"name":"Shichisyuen Ryokan","asciiName":"Shichisyuen Ryokan","alternatenames":[],"lat":34.23755,"lon":134.64231,"countryCode":"JP"},{"name":"Kafuu Resort Fuchaku Condo","asciiName":"Kafuu Resort Fuchaku Condo","alternatenames":[],"lat":26.4571,"lon":127.81155,"countryCode":"JP"},{"name":"Comfort Hotel Naha Kencho-Mae","asciiName":"Comfort Hotel Naha Kencho-Mae","alternatenames":[],"lat":26.21359,"lon":127.67774,"countryCode":"JP"},{"name":"The Busena Terrace","asciiName":"The Busena Terrace","alternatenames":[],"lat":26.32973,"lon":127.79829,"countryCode":"JP"},{"name":"Resort Hotel Kume-Island","asciiName":"Resort Hotel Kume-Island","alternatenames":[],"lat":26.32973,"lon":127.79829,"countryCode":"JP"},{"name":"Okinawa Kariyushi Urban Resort Naha","asciiName":"Okinawa Kariyushi Urban Resort Naha","alternatenames":[],"lat":26.32973,"lon":127.79829,"countryCode":"JP"},{"name":"Okinawa Kariyushi Ryukyu Hotel Naha","asciiName":"Okinawa Kariyushi Ryukyu Hotel Naha","alternatenames":[],"lat":26.32973,"lon":127.79829,"countryCode":"JP"},{"name":"Apa Hotel Naha","asciiName":"Apa Hotel Naha","alternatenames":[],"lat":26.21798,"lon":127.68023,"countryCode":"JP"},{"name":"The Atta Terrace Club Resort","asciiName":"The Atta Terrace Club Resort","alternatenames":[],"lat":26.32973,"lon":127.79829,"countryCode":"JP"},{"name":"Hotel Rizonex Nago","asciiName":"Hotel Rizonex Nago","alternatenames":[],"lat":26.32973,"lon":127.79829,"countryCode":"JP"},{"name":"Nature Hotel Painumaya Resort","asciiName":"Nature Hotel Painumaya Resort","alternatenames":[],"lat":24.38169,"lon":123.90814,"countryCode":"JP"},{"name":"Hotel Moon Beach Okinawa","asciiName":"Hotel Moon Beach Okinawa","alternatenames":[],"lat":26.32973,"lon":127.79829,"countryCode":"JP"},{"name":"Island Resort Yonaguni","asciiName":"Island Resort Yonaguni","alternatenames":[],"lat":24.47007,"lon":123.00277,"countryCode":"JP"},{"name":"Hotel Chura Ryukyu","asciiName":"Hotel Chura Ryukyu","alternatenames":[],"lat":26.32973,"lon":127.79829,"countryCode":"JP"},{"name":"Kumejima Eef Beach Hotel","asciiName":"Kumejima Eef Beach Hotel","alternatenames":[],"lat":26.32973,"lon":127.79829,"countryCode":"JP"},{"name":"Spa Resort Exes","asciiName":"Spa Resort Exes","alternatenames":[],"lat":26.32973,"lon":127.79829,"countryCode":"JP"},{"name":"Okinawa Sun-Coast Hotel","asciiName":"Okinawa Sun-Coast Hotel","alternatenames":[],"lat":26.32973,"lon":127.79829,"countryCode":"JP"},{"name":"Super Hotel Abiyanpana Ishigaki Jima","asciiName":"Super Hotel Abiyanpana Ishigaki Jima","alternatenames":[],"lat":24.34205,"lon":124.15719,"countryCode":"JP"},{"name":"Okinawa Marriott Resort & Spa","asciiName":"Okinawa Marriott Resort & Spa","alternatenames":[],"lat":26.53012,"lon":127.93345,"countryCode":"JP"},{"name":"Cypress Resort Kumejima","asciiName":"Cypress Resort Kumejima","alternatenames":[],"lat":26.35447,"lon":126.71807,"countryCode":"JP"},{"name":"Victoria Inn","asciiName":"Victoria Inn","alternatenames":[],"lat":32.74347,"lon":129.87714,"countryCode":"JP"},{"name":"Washington Plaza","asciiName":"Washington Plaza","alternatenames":[],"lat":32.79854,"lon":130.70865,"countryCode":"JP"},{"name":"Kkr","asciiName":"Kkr","alternatenames":[],"lat":32.80791,"lon":130.70639,"countryCode":"JP"},{"name":"Mitsui Garden","asciiName":"Mitsui Garden","alternatenames":[],"lat":32.79728,"lon":130.70502,"countryCode":"JP"},{"name":"Suizenji Comfort","asciiName":"Suizenji Comfort","alternatenames":[],"lat":32.79071,"lon":130.73056,"countryCode":"JP"},{"name":"Ark","asciiName":"Ark","alternatenames":[],"lat":32.80707,"lon":130.71033,"countryCode":"JP"},{"name":"Jr Hotel Yakushima","asciiName":"Jr Hotel Yakushima","alternatenames":[],"lat":31.58495,"lon":130.55856,"countryCode":"JP"},{"name":"Yuga Ryokan","asciiName":"Yuga Ryokan","alternatenames":[],"lat":34.30014,"lon":136.74042,"countryCode":"JP"},{"name":"Com's","asciiName":"Com's","alternatenames":[],"lat":35.00259,"lon":135.86514,"countryCode":"JP"},{"name":"Royal Oak","asciiName":"Royal Oak","alternatenames":[],"lat":34.98857,"lon":135.90964,"countryCode":"JP"},{"name":"Monterey Grasmere","asciiName":"Monterey Grasmere","alternatenames":[],"lat":34.66629,"lon":135.49612,"countryCode":"JP"},{"name":"Hearton Shinsaibashi","asciiName":"Hearton Shinsaibashi","alternatenames":[],"lat":34.67255,"lon":135.49957,"countryCode":"JP"},{"name":"Sunlife","asciiName":"Sunlife","alternatenames":[],"lat":34.68261,"lon":135.48849,"countryCode":"JP"},{"name":"Mystays Inn Sakaisuji Honmachi","asciiName":"Mystays Inn Sakaisuji Honmachi","alternatenames":[],"lat":34.68655,"lon":135.50797,"countryCode":"JP"},{"name":"Yamatoya Honten Ryokan","asciiName":"Yamatoya Honten Ryokan","alternatenames":[],"lat":34.66923,"lon":135.50645,"countryCode":"JP"},{"name":"Cityroute","asciiName":"Cityroute","alternatenames":[],"lat":34.68357,"lon":135.49239,"countryCode":"JP"},{"name":"Kaneyoshi Ryokan","asciiName":"Kaneyoshi Ryokan","alternatenames":[],"lat":34.66927,"lon":135.50549,"countryCode":"JP"},{"name":"Apa Villa Yodoyabashi","asciiName":"Apa Villa Yodoyabashi","alternatenames":[],"lat":34.68932,"lon":135.50285,"countryCode":"JP"},{"name":"Hillarys","asciiName":"Hillarys","alternatenames":[],"lat":34.66146,"lon":135.50613,"countryCode":"JP"},{"name":"Toyoko Inn Yodoyabashi-Eki","asciiName":"Toyoko Inn Yodoyabashi-Eki","alternatenames":[],"lat":34.68807,"lon":135.50237,"countryCode":"JP"},{"name":"Mitsui Gardenhotel Osaka Yodoyabashi","asciiName":"Mitsui Gardenhotel Osaka Yodoyabashi","alternatenames":[],"lat":34.69001,"lon":135.50427,"countryCode":"JP"},{"name":"Claiton Shin-Osaka","asciiName":"Claiton Shin-Osaka","alternatenames":[],"lat":34.72551,"lon":135.49571,"countryCode":"JP"},{"name":"Osaka Cross Hotel","asciiName":"Osaka Cross Hotel","alternatenames":[],"lat":34.67788,"lon":135.51274,"countryCode":"JP"},{"name":"Hotel Kansai","asciiName":"Hotel Kansai","alternatenames":[],"lat":34.70055,"lon":135.50341,"countryCode":"JP"},{"name":"Toko City Umeda","asciiName":"Toko City Umeda","alternatenames":[],"lat":34.7004,"lon":135.519,"countryCode":"JP"},{"name":"Osaka Fujiya","asciiName":"Osaka Fujiya","alternatenames":[],"lat":34.67092,"lon":135.50598,"countryCode":"JP"},{"name":"Super Hotel City Tennen-Onsen","asciiName":"Super Hotel City Tennen-Onsen","alternatenames":[],"lat":34.68543,"lon":135.48528,"countryCode":"JP"},{"name":"Brighton City Kitahama","asciiName":"Brighton City Kitahama","alternatenames":[],"lat":34.68904,"lon":135.50797,"countryCode":"JP"},{"name":"Senri Hankyu Osaka","asciiName":"Senri Hankyu Osaka","alternatenames":[],"lat":34.7829,"lon":135.4698,"countryCode":"JP"},{"name":"Ark","asciiName":"Ark","alternatenames":[],"lat":34.67459,"lon":135.50684,"countryCode":"JP"},{"name":"Best Western Joytel","asciiName":"Best Western Joytel","alternatenames":[],"lat":34.60863,"lon":135.4716,"countryCode":"JP"},{"name":"Oaks Shin-Osaka","asciiName":"Oaks Shin-Osaka","alternatenames":[],"lat":34.72461,"lon":135.49933,"countryCode":"JP"},{"name":"Best Western Fino Shinsaibashi","asciiName":"Best Western Fino Shinsaibashi","alternatenames":[],"lat":34.67452,"lon":135.50566,"countryCode":"JP"},{"name":"Metro The 21","asciiName":"Metro The 21","alternatenames":[],"lat":34.6698,"lon":135.51089,"countryCode":"JP"},{"name":"Sunroute Umeda","asciiName":"Sunroute Umeda","alternatenames":[],"lat":34.7149,"lon":135.509,"countryCode":"JP"},{"name":"Unizo Yodoyabashi","asciiName":"Unizo Yodoyabashi","alternatenames":[],"lat":34.68982,"lon":135.49991,"countryCode":"JP"},{"name":"Vista Grande","asciiName":"Vista Grande","alternatenames":[],"lat":34.6698,"lon":135.50359,"countryCode":"JP"},{"name":"Riva Shinsaibashi","asciiName":"Riva Shinsaibashi","alternatenames":[],"lat":34.6701,"lon":135.5071,"countryCode":"JP"},{"name":"Apa Hotel Osaka Higobashi Ekimae","asciiName":"Apa Hotel Osaka Higobashi Ekimae","alternatenames":[],"lat":34.69221,"lon":135.49556,"countryCode":"JP"},{"name":"Toko City Shin-Osaka","asciiName":"Toko City Shin-Osaka","alternatenames":[],"lat":34.7702,"lon":135.4828,"countryCode":"JP"},{"name":"Hearton Minamisenba","asciiName":"Hearton Minamisenba","alternatenames":[],"lat":34.67577,"lon":135.50363,"countryCode":"JP"},{"name":"Ana Crowne Plaza Osaka","asciiName":"Ana Crowne Plaza Osaka","alternatenames":[],"lat":34.6981,"lon":135.5079,"countryCode":"JP"},{"name":"Mielparque","asciiName":"Mielparque","alternatenames":[],"lat":34.73483,"lon":135.49582,"countryCode":"JP"},{"name":"Castle Osaka","asciiName":"Castle Osaka","alternatenames":[],"lat":34.6916,"lon":135.5242,"countryCode":"JP"},{"name":"East Osaka","asciiName":"East Osaka","alternatenames":[],"lat":34.7008,"lon":135.51289,"countryCode":"JP"},{"name":"Nara Hakusikaso","asciiName":"Nara Hakusikaso","alternatenames":[],"lat":34.68608,"lon":135.8287,"countryCode":"JP"},{"name":"Kasuga Hotel","asciiName":"Kasuga Hotel","alternatenames":[],"lat":34.68398,"lon":135.82966,"countryCode":"JP"},{"name":"Yukei No Yado Heijo","asciiName":"Yukei No Yado Heijo","alternatenames":[],"lat":34.69637,"lon":135.84485,"countryCode":"JP"},{"name":"Guesthouse Nara Komachi","asciiName":"Guesthouse Nara Komachi","alternatenames":[],"lat":34.67892,"lon":135.82088,"countryCode":"JP"},{"name":"Ace Inn","asciiName":"Ace Inn","alternatenames":[],"lat":34.57532,"lon":136.5354,"countryCode":"JP"},{"name":"Gyozanen","asciiName":"Gyozanen","alternatenames":[],"lat":35.00779,"lon":135.76842,"countryCode":"JP"},{"name":"Sanoya","asciiName":"Sanoya","alternatenames":[],"lat":35.00779,"lon":135.76842,"countryCode":"JP"},{"name":"Arashiyama Onsen Shiki No Yado Hanaikada","asciiName":"Arashiyama Onsen Shiki No Yado Hanaikada","alternatenames":[],"lat":35.00779,"lon":135.76842,"countryCode":"JP"},{"name":"Keihan","asciiName":"Keihan","alternatenames":[],"lat":34.98359,"lon":135.76089,"countryCode":"JP"},{"name":"Gion Shinmonso","asciiName":"Gion Shinmonso","alternatenames":[],"lat":35.00644,"lon":135.77512,"countryCode":"JP"},{"name":"Junwafu Ryori Ryokan Kinoe","asciiName":"Junwafu Ryori Ryokan Kinoe","alternatenames":[],"lat":35.00779,"lon":135.76842,"countryCode":"JP"},{"name":"Urban","asciiName":"Urban","alternatenames":[],"lat":34.96138,"lon":135.7679,"countryCode":"JP"},{"name":"Unizo","asciiName":"Unizo","alternatenames":[],"lat":35.00724,"lon":135.76884,"countryCode":"JP"},{"name":"Mitsui Garden Hotel Kyoto Sanjo","asciiName":"Mitsui Garden Hotel Kyoto Sanjo","alternatenames":[],"lat":35.00779,"lon":135.76842,"countryCode":"JP"},{"name":"Hotel Vista Kyoto Hachijoguchi","asciiName":"Hotel Vista Kyoto Hachijoguchi","alternatenames":[],"lat":35.00779,"lon":135.76842,"countryCode":"JP"},{"name":"Kanamean Nishitomiya","asciiName":"Kanamean Nishitomiya","alternatenames":[],"lat":35.00779,"lon":135.76842,"countryCode":"JP"},{"name":"Nishikiro Ryokan","asciiName":"Nishikiro Ryokan","alternatenames":[],"lat":35.00779,"lon":135.76842,"countryCode":"JP"},{"name":"Oyado Ishicho","asciiName":"Oyado Ishicho","alternatenames":[],"lat":35.00779,"lon":135.76842,"countryCode":"JP"},{"name":"Kaden","asciiName":"Kaden","alternatenames":[],"lat":35.00779,"lon":135.76842,"countryCode":"JP"},{"name":"Ryoan Kazuki","asciiName":"Ryoan Kazuki","alternatenames":[],"lat":35.00779,"lon":135.76842,"countryCode":"JP"},{"name":"Anteroom Kyoto","asciiName":"Anteroom Kyoto","alternatenames":[],"lat":34.97575,"lon":135.75896,"countryCode":"JP"},{"name":"Gion Fukuzumi Ryokan","asciiName":"Gion Fukuzumi Ryokan","alternatenames":[],"lat":35.00539,"lon":135.77747,"countryCode":"JP"},{"name":"Hotel Avanshell Kyoto","asciiName":"Hotel Avanshell Kyoto","alternatenames":[],"lat":35.0392,"lon":135.7851,"countryCode":"JP"},{"name":"Alpha Kyoto","asciiName":"Alpha Kyoto","alternatenames":[],"lat":35.0074,"lon":135.77299,"countryCode":"JP"},{"name":"Yachiyo","asciiName":"Yachiyo","alternatenames":[],"lat":35.00779,"lon":135.76842,"countryCode":"JP"},{"name":"Izumiya Ryokan","asciiName":"Izumiya Ryokan","alternatenames":[],"lat":34.99075,"lon":135.75342,"countryCode":"JP"},{"name":"Crowne Plaza Ana Kyoto","asciiName":"Crowne Plaza Ana Kyoto","alternatenames":[],"lat":35.0103,"lon":135.757,"countryCode":"JP"},{"name":"Matsui Honkan Ryokan","asciiName":"Matsui Honkan Ryokan","alternatenames":[],"lat":35.007,"lon":135.76419,"countryCode":"JP"},{"name":"Matsui Hanakanzashi Ryokan","asciiName":"Matsui Hanakanzashi Ryokan","alternatenames":[],"lat":35.00753,"lon":135.76276,"countryCode":"JP"},{"name":"Sunroute Kyoto","asciiName":"Sunroute Kyoto","alternatenames":[],"lat":35.00779,"lon":135.76842,"countryCode":"JP"},{"name":"Apa Kyoto-Ekimae","asciiName":"Apa Kyoto-Ekimae","alternatenames":[],"lat":34.98624,"lon":135.75499,"countryCode":"JP"},{"name":"Hotel Heian No Mori Kyoto","asciiName":"Hotel Heian No Mori Kyoto","alternatenames":[],"lat":35.01687,"lon":135.78911,"countryCode":"JP"},{"name":"Watazen Ryokan","asciiName":"Watazen Ryokan","alternatenames":[],"lat":35.0052,"lon":135.771,"countryCode":"JP"},{"name":"Hiirajiya Ryokan","asciiName":"Hiirajiya Ryokan","alternatenames":[],"lat":35.00779,"lon":135.76842,"countryCode":"JP"},{"name":"Satomo Ryokan","asciiName":"Satomo Ryokan","alternatenames":[],"lat":35.00779,"lon":135.76842,"countryCode":"JP"},{"name":"Mystays Shijo","asciiName":"Mystays Shijo","alternatenames":[],"lat":35.00385,"lon":135.75479,"countryCode":"JP"},{"name":"New Hankyu Kyoto","asciiName":"New Hankyu Kyoto","alternatenames":[],"lat":34.9868,"lon":135.76199,"countryCode":"JP"},{"name":"Kokusai","asciiName":"Kokusai","alternatenames":[],"lat":35.01347,"lon":135.75279,"countryCode":"JP"},{"name":"Fujita","asciiName":"Fujita","alternatenames":[],"lat":35.01364,"lon":135.77087,"countryCode":"JP"},{"name":"Hirashin Ryokan","asciiName":"Hirashin Ryokan","alternatenames":[],"lat":35.00595,"lon":135.76152,"countryCode":"JP"},{"name":"Ana Crowne Plaza Kobe","asciiName":"Ana Crowne Plaza Kobe","alternatenames":[],"lat":34.67748,"lon":135.17548,"countryCode":"JP"},