[{"name":"Paradise Hotel and Casino Pusan","asciiName":"Paradise Hotel and Casino Pusan","alternatenames":[],"lat":35.1568,"lon":129.1666,"countryCode":"KR"},{"name":"Imperial Palace","asciiName":"Imperial Palace","alternatenames":[],"lat":37.5073,"lon":127.044,"countryCode":"KR"},{"name":"JW Marriott Hotel Seoul","asciiName":"JW Marriott Hotel Seoul","alternatenames":[],"lat":37.5061,"lon":127.0055,"countryCode":"KR"},{"name":"The Westin Chosun Busan","asciiName":"THE WESTIN CHOSUN BUSAN","alternatenames":[],"lat":35.1,"lon":129.05,"countryCode":"KR"},{"name":"Lotte Hotel Seoul","asciiName":"Lotte Hotel Seoul","alternatenames":[],"lat":37.5629,"lon":126.9812,"countryCode":"KR"},{"name":"The Shilla Seoul","asciiName":"The Shilla Seoul","alternatenames":[],"lat":37.5532,"lon":127.0062,"countryCode":"KR"},{"name":"Hilton Gyeongju","asciiName":"Hilton Gyeongju","alternatenames":[],"lat":35.84001,"lon":129.28591,"countryCode":"KR"},{"name":"Koreana Hotel","asciiName":"Koreana Hotel","alternatenames":["Koreana Hotel","koliana hotel","코리아나 호텔"],"lat":37.56826,"lon":126.97668,"countryCode":"KR"},{"name":"Tower Hotel","asciiName":"Tower Hotel","alternatenames":[],"lat":37.5478,"lon":127.0028,"countryCode":"KR"},{"name":"Novotel Ambassador Busan","asciiName":"Novotel Ambassador Busan","alternatenames":[],"lat":35.1545,"lon":129.1401,"countryCode":"KR"},{"name":"Lotte Hotel World","asciiName":"Lotte Hotel World","alternatenames":[],"lat":37.5076,"lon":127.1054,"countryCode":"KR"},{"name":"Grand Hyatt Seoul","asciiName":"Grand Hyatt Seoul","alternatenames":[],"lat":37.5388,"lon":127.0003,"countryCode":"KR"},{"name":"The Westin Chosun","asciiName":"The Westin Chosun","alternatenames":[],"lat":37.5611,"lon":126.9815,"countryCode":"KR"},{"name":"Renaissance Seoul Hotel","asciiName":"Renaissance Seoul Hotel","alternatenames":[],"lat":37.5019,"lon":127.0499,"countryCode":"KR"},{"name":"Fraser Place Central Seoul","asciiName":"Fraser Place Central Seoul","alternatenames":[],"lat":37.56289,"lon":126.96965,"countryCode":"KR"},{"name":"Best Western Premier Hotel Kukdo","asciiName":"Best Western Premier Hotel Kukdo","alternatenames":[],"lat":37.5696,"lon":127.0024,"countryCode":"KR"},{"name":"Somerset Palace Seoul","asciiName":"Somerset Palace Seoul","alternatenames":[],"lat":37.5728,"lon":126.9837,"countryCode":"KR"},{"name":"W Seoul Walkerhill","asciiName":"W Seoul Walkerhill","alternatenames":[],"lat":37.5553,"lon":127.1149,"countryCode":"KR"},{"name":"Ramada Plaza Cheongju","asciiName":"Ramada Plaza Cheongju","alternatenames":[],"lat":36.6363,"lon":127.4986,"countryCode":"KR"},{"name":"Provista Hotel","asciiName":"Provista Hotel","alternatenames":[],"lat":37.4937,"lon":127.0196,"countryCode":"KR"},{"name":"The Shilla Jeju","asciiName":"The Shilla Jeju","alternatenames":[],"lat":33.2406,"lon":126.4177,"countryCode":"KR"},{"name":"Seogwipo KAL Hotel","asciiName":"Seogwipo KAL Hotel","alternatenames":[],"lat":33.2373,"lon":126.5949,"countryCode":"KR"},{"name":"Hotel Cherbourg","asciiName":"Hotel Cherbourg","alternatenames":[],"lat":37.4929,"lon":126.4445,"countryCode":"KR"},{"name":"Jeju KAL Hotel","asciiName":"Jeju KAL Hotel","alternatenames":[],"lat":33.2396,"lon":126.5734,"countryCode":"KR"},{"name":"Vabien Suites II Serviced Residence","asciiName":"Vabien Suites II Serviced Residence","alternatenames":[],"lat":37.5632,"lon":126.9832,"countryCode":"KR"},{"name":"Western Co-Op Residence","asciiName":"Western Co-Op Residence","alternatenames":[],"lat":37.5639,"lon":127.0053,"countryCode":"KR"},{"name":"Best Western Premier Gangnam","asciiName":"Best Western Premier Gangnam","alternatenames":[],"lat":37.5108,"lon":127.0414,"countryCode":"KR"},{"name":"The Westin Chosun Pusan","asciiName":"The Westin Chosun Pusan","alternatenames":[],"lat":35.152,"lon":129.169,"countryCode":"KR"},{"name":"Ramada Songdo Hotel","asciiName":"Ramada Songdo Hotel","alternatenames":[],"lat":37.4348,"lon":126.6403,"countryCode":"KR"},{"name":"Hotel Victoria","asciiName":"Hotel Victoria","alternatenames":[],"lat":37.6512,"lon":126.9988,"countryCode":"KR"},{"name":"Park Hyatt Seoul","asciiName":"Park Hyatt Seoul","alternatenames":[],"lat":37.506,"lon":127.0659,"countryCode":"KR"},{"name":"Oh-Mok Gyo Co-Op Residence","asciiName":"Oh-Mok Gyo Co-Op Residence","alternatenames":[],"lat":37.5247,"lon":126.9011,"countryCode":"KR"},{"name":"The Lexington Hotel Yoido","asciiName":"The Lexington Hotel Yoido","alternatenames":[],"lat":37.5226,"lon":126.9289,"countryCode":"KR"},{"name":"Samsung-Station ( COEX ) CO-OP Residence","asciiName":"Samsung-Station ( COEX ) CO-OP Residence","alternatenames":[],"lat":37.5072,"lon":127.0628,"countryCode":"KR"},{"name":"Seocho-dong CO-OP Residence","asciiName":"Seocho-dong CO-OP Residence","alternatenames":[],"lat":37.4904,"lon":127.0174,"countryCode":"KR"},{"name":"M Chereville","asciiName":"M Chereville","alternatenames":[],"lat":37.4994,"lon":127.0234,"countryCode":"KR"},{"name":"Uljiro Co-Op Residence","asciiName":"Uljiro Co-Op Residence","alternatenames":[],"lat":37.5667,"lon":127.0043,"countryCode":"KR"},{"name":"Best Western Incheon Airport","asciiName":"Best Western Incheon Airport","alternatenames":[],"lat":37.4741,"lon":126.4643,"countryCode":"KR"},{"name":"Lotte Hotel Jeju","asciiName":"Lotte Hotel Jeju","alternatenames":[],"lat":33.2425,"lon":126.4144,"countryCode":"KR"},{"name":"Hyatt Regency Cheju","asciiName":"Hyatt Regency Cheju","alternatenames":[],"lat":33.2397,"lon":126.3997,"countryCode":"KR"},{"name":"Ramada Seoul","asciiName":"Ramada Seoul","alternatenames":[],"lat":37.5085,"lon":127.0561,"countryCode":"KR"},{"name":"Hotel Zeumes","asciiName":"Hotel Zeumes","alternatenames":[],"lat":37.5014,"lon":126.4986,"countryCode":"KR"},{"name":"Sheraton Grande Walkerhill","asciiName":"Sheraton Grande Walkerhill","alternatenames":[],"lat":37.5553,"lon":127.1149,"countryCode":"KR"},{"name":"Hotel Incheon Airport","asciiName":"Hotel Incheon Airport","alternatenames":[],"lat":37.5029,"lon":126.4958,"countryCode":"KR"},{"name":"Hotel Riviera","asciiName":"Hotel Riviera","alternatenames":[],"lat":37.5214,"lon":127.0553,"countryCode":"KR"},{"name":"Lotte Hotel Ulsan","asciiName":"Lotte Hotel Ulsan","alternatenames":[],"lat":35.5451,"lon":129.315,"countryCode":"KR"},{"name":"Hotel Crown Insadong","asciiName":"Hotel Crown Insadong","alternatenames":[],"lat":37.5719,"lon":126.9905,"countryCode":"KR"},{"name":"Paradise Hotel Jeju","asciiName":"Paradise Hotel Jeju","alternatenames":[],"lat":33.5,"lon":126.5166,"countryCode":"KR"},{"name":"Best Western Legend Hotel","asciiName":"BEST WESTERN LEGEND HOTEL","alternatenames":[],"lat":36.3333,"lon":127.4333,"countryCode":"KR"},{"name":"Oakwood Premier Coex Center","asciiName":"Oakwood Premier Coex Center","alternatenames":[],"lat":37.5666,"lon":127,"countryCode":"KR"},{"name":"Novotel Ambassador Gangnam","asciiName":"Novotel Ambassador Gangnam","alternatenames":[],"lat":37.5666,"lon":127,"countryCode":"KR"},{"name":"Novotel Ambassador Doksan","asciiName":"Novotel Ambassador Doksan","alternatenames":[],"lat":37.5666,"lon":127,"countryCode":"KR"},{"name":"Seoul Plaza Hotel","asciiName":"Seoul Plaza Hotel","alternatenames":[],"lat":37.5666,"lon":127,"countryCode":"KR"},{"name":"Sofitel Ambassador Seoul","asciiName":"Sofitel Ambassador Seoul","alternatenames":[],"lat":37.5666,"lon":127,"countryCode":"KR"},{"name":"President Hotel Seoul","asciiName":"President Hotel Seoul","alternatenames":[],"lat":37.5666,"lon":127,"countryCode":"KR"},{"name":"Dormy In Suwon Serviced Reside","asciiName":"Dormy In Suwon Serviced Reside","alternatenames":[],"lat":37.2496,"lon":127.0131,"countryCode":"KR"},{"name":"Best Western Niagara Hotel","asciiName":"Best Western Niagara Hotel","alternatenames":[],"lat":37.5666,"lon":127,"countryCode":"KR"},{"name":"Hotel Ibis Myeong Dong","asciiName":"Hotel Ibis Myeong Dong","alternatenames":[],"lat":37.5666,"lon":127,"countryCode":"KR"},{"name":"Best Western Hotel Dragon","asciiName":"Best Western Hotel Dragon","alternatenames":[],"lat":35.2333,"lon":128.6666,"countryCode":"KR"},{"name":"Best Western Gumi Hotel","asciiName":"Best Western Gumi Hotel","alternatenames":[],"lat":36.6356,"lon":127.5006,"countryCode":"KR"},{"name":"Sejong Hotel","asciiName":"Sejong Hotel","alternatenames":[],"lat":37.5666,"lon":127,"countryCode":"KR"},{"name":"Bw Premier Hotel Green Park","asciiName":"Bw Premier Hotel Green Park","alternatenames":[],"lat":37.518,"lon":127.017,"countryCode":"KR"},{"name":"Seoul Palace Hotel","asciiName":"Seoul Palace Hotel","alternatenames":[],"lat":37.5666,"lon":127,"countryCode":"KR"},{"name":"Bw Vision Hotel","asciiName":"Bw Vision Hotel","alternatenames":[],"lat":37.5666,"lon":127,"countryCode":"KR"},{"name":"Hotel Ibis Seoul","asciiName":"Hotel Ibis Seoul","alternatenames":[],"lat":37.5666,"lon":127,"countryCode":"KR"},{"name":"Best Western  New Seoul Hotel","asciiName":"Best Western  New Seoul Hotel","alternatenames":[],"lat":37.5666,"lon":127,"countryCode":"KR"},{"name":"Fraser Suites Seoul","asciiName":"Fraser Suites Seoul","alternatenames":[],"lat":37.5666,"lon":127,"countryCode":"KR"},{"name":"Bw Hotel Dongdaemun","asciiName":"Bw Hotel Dongdaemun","alternatenames":[],"lat":37.5666,"lon":127,"countryCode":"KR"},{"name":"Hotel Crown Itaewon","asciiName":"Hotel Crown Itaewon","alternatenames":[],"lat":37.5666,"lon":127,"countryCode":"KR"},{"name":"Sheraton Walker Hill Hotel","asciiName":"Sheraton Walker Hill Hotel","alternatenames":["Sheraton Walker Hill Hotel","Swerat'onwok'ohil","Swerat’onwŏk’ŏhil","swelaton-wokeohil","swelaton-wokeohilhotel","쉐라톤워커힐","쉐라톤워커힐호텔"],"lat":37.55512,"lon":127.11077,"countryCode":"KR"},{"name":"Tunnaeyusŭhoseut’el","asciiName":"Tunnaeyusuhoseut'el","alternatenames":["Tunnaeyusuhoseut'el","Tunnaeyusŭhoseut’el","dunnaeyuseuhoseutel","둔내유스호스텔"],"lat":37.5192,"lon":128.2753,"countryCode":"KR"},{"name":"Odaesan Hotel","asciiName":"Odaesan Hotel","alternatenames":["Odaesan Hotel","Odaesan-hot'el","Odaesan-hot’el","odaesanhotel","오대산호텔"],"lat":37.6886,"lon":128.5969,"countryCode":"KR"},{"name":"Benikea Hotel Jeju Crystal","asciiName":"Benikea Hotel Jeju Crystal","alternatenames":[],"lat":33.2473,"lon":126.5582,"countryCode":"KR"},{"name":"Hotel Hana Benikea","asciiName":"Hotel Hana Benikea","alternatenames":[],"lat":33.24985,"lon":126.40815,"countryCode":"KR"},{"name":"Ocean Grand Hotel Jeju","asciiName":"Ocean Grand Hotel Jeju","alternatenames":[],"lat":33.54253,"lon":126.66521,"countryCode":"KR"},{"name":"Jeju Marina Tourist Hotel","asciiName":"Jeju Marina Tourist Hotel","alternatenames":[],"lat":33.49334,"lon":126.49719,"countryCode":"KR"},{"name":"Ocean Suites Jeju Hotel","asciiName":"Ocean Suites Jeju Hotel","alternatenames":[],"lat":33.51826,"lon":126.52312,"countryCode":"KR"},{"name":"남서울대학교 엘림생활관 I NSU Univ. elim dormitory I","asciiName":"namseouldaehaggyo ellimsaenghwalgwan I NSU Univ. elim dormitory I","alternatenames":["namseouldaehaggyo ellimsaenghwal 1gwan","namseouldaehaggyo saenghwal 1gwan","남서울대학교 생활 1관","남서울대학교 엘림생활 1관"],"lat":36.9089,"lon":127.14714,"countryCode":"KR"},{"name":"Grand Prix Motel","asciiName":"Grand Prix Motel","alternatenames":["Grand Prix Motel","geulangpeulimotel","그랑프리모텔"],"lat":38.17498,"lon":127.53709,"countryCode":"KR"},{"name":"Yongcheonjangyeogwan","asciiName":"Yongcheonjangyeogwan","alternatenames":["Yongcheonjangyeogwan","yongcheonjang-yeogwan","용천장여관"],"lat":38.18533,"lon":128.29504,"countryCode":"KR"},{"name":"Delhi Park Motel","asciiName":"Delhi Park Motel","alternatenames":["Delhi Park Motel","dellipakeumotel","델리파크모텔"],"lat":38.18455,"lon":128.30438,"countryCode":"KR"},{"name":"Seorak Beach Resort Hotel","asciiName":"Seorak Beach Resort Hotel","alternatenames":["Seorak Beach Resort Hotel","seol-agbichilijotel","설악비치리조텔"],"lat":38.21931,"lon":128.59217,"countryCode":"KR"},{"name":"Dongjin Resort Hotel","asciiName":"Dongjin Resort Hotel","alternatenames":["Dongjin Resort Hotel","dongjinlijotel","동진리조텔"],"lat":38.21368,"lon":128.59013,"countryCode":"KR"},{"name":"Sokcho Beach Gwangwang Hotel","asciiName":"Sokcho Beach Gwangwang Hotel","alternatenames":["Sokcho Beach Gwangwang Hotel","sogchobichigwangwanghotel","속초비치관광호텔"],"lat":38.20291,"lon":128.59141,"countryCode":"KR"},{"name":"Ritz Carlton Hotel","asciiName":"Ritz Carlton Hotel","alternatenames":["Ritz Carlton Hotel","lischeukalteunhotel","릿츠칼튼호텔"],"lat":38.18991,"lon":128.54873,"countryCode":"KR"},{"name":"Cheorwononcheonhwasan Hotel","asciiName":"Cheorwononcheonhwasan Hotel","alternatenames":["Cheorwononcheonhwasan Hotel","cheol-won-oncheonhwasanhotel","철원온천화산호텔"],"lat":38.18641,"lon":127.29111,"countryCode":"KR"},{"name":"Rainbow","asciiName":"Rainbow","alternatenames":[],"lat":37.53867,"lon":126.96585,"countryCode":"KR"},{"name":"Elleinn","asciiName":"Elleinn","alternatenames":[],"lat":37.54061,"lon":126.97275,"countryCode":"KR"},{"name":"Gangnam Serviced Residences","asciiName":"Gangnam Serviced Residences","alternatenames":[],"lat":37.50658,"lon":127.03017,"countryCode":"KR"},{"name":"Astoria","asciiName":"Astoria","alternatenames":[],"lat":37.56036,"lon":126.99113,"countryCode":"KR"},{"name":"Hamilton","asciiName":"Hamilton","alternatenames":[],"lat":37.53468,"lon":126.99367,"countryCode":"KR"},{"name":"Western Co Op Residence Twin","asciiName":"Western Co Op Residence Twin","alternatenames":[],"lat":37.56624,"lon":127.00549,"countryCode":"KR"},{"name":"Ellui","asciiName":"Ellui","alternatenames":[],"lat":37.52598,"lon":127.05421,"countryCode":"KR"},{"name":"Samjung","asciiName":"Samjung","alternatenames":[],"lat":37.50595,"lon":127.03126,"countryCode":"KR"},{"name":"Ibis Seoul Myeong Dong Double","asciiName":"Ibis Seoul Myeong Dong Double","alternatenames":[],"lat":37.56436,"lon":126.98253,"countryCode":"KR"},{"name":"Ibis Seoul Myeong Dong Twin","asciiName":"Ibis Seoul Myeong Dong Twin","alternatenames":[],"lat":37.56433,"lon":126.98254,"countryCode":"KR"},{"name":"Ritz Carlton Seoul","asciiName":"Ritz Carlton Seoul","alternatenames":[],"lat":37.50476,"lon":127.02726,"countryCode":"KR"},{"name":"Guibinjangyeogwan","asciiName":"Guibinjangyeogwan","alternatenames":["Guibinjangyeogwan","gwibinjang-yeogwan","귀빈장여관"],"lat":38.22399,"lon":127.95701,"countryCode":"KR"},{"name":"Haebaragijang Motel","asciiName":"Haebaragijang Motel","alternatenames":["Haebaragijang Motel","haebalagijangmotel","해바라기장모텔"],"lat":38.21521,"lon":128.05035,"countryCode":"KR"},{"name":"Yeongnimjang Motel","asciiName":"Yeongnimjang Motel","alternatenames":["Yeongnimjang Motel","yeonglimjangmotel","영림장모텔"],"lat":38.21654,"lon":128.04981,"countryCode":"KR"},{"name":"Best Western Seoul Garden","asciiName":"Best Western Seoul Garden","alternatenames":[],"lat":37.54071,"lon":126.94808,"countryCode":"KR"},{"name":"Grand Ambassador Seoul Associated With Pullman","asciiName":"Grand Ambassador Seoul Associated With Pullman","alternatenames":[],"lat":37.56014,"lon":127.00235,"countryCode":"KR"},{"name":"Grand Intercontinental Seoul Parnas","asciiName":"Grand Intercontinental Seoul Parnas","alternatenames":[],"lat":37.50885,"lon":127.06071,"countryCode":"KR"},{"name":"Lotte City Hotel","asciiName":"Lotte City Hotel","alternatenames":[],"lat":37.54489,"lon":126.95061,"countryCode":"KR"},{"name":"Best Western Premier Seoul Garden","asciiName":"Best Western Premier Seoul Garden","alternatenames":[],"lat":37.54078,"lon":126.94825,"countryCode":"KR"},{"name":"Ramada Seoul Dongdaemun","asciiName":"Ramada Seoul Dongdaemun","alternatenames":[],"lat":37.56587,"lon":127.0028,"countryCode":"KR"},{"name":"Grand Inter-Continental","asciiName":"Grand Inter-Continental","alternatenames":[],"lat":37.50916,"lon":127.06071,"countryCode":"KR"},{"name":"Paradise (Jeju (Cheju))","asciiName":"Paradise (Jeju (Cheju))","alternatenames":[],"lat":33.23996,"lon":126.59849,"countryCode":"KR"},{"name":"Royal Tourist Hotel","asciiName":"Royal Tourist Hotel","alternatenames":[],"lat":36.99143,"lon":126.91275,"countryCode":"KR"},{"name":"Hotel Palace","asciiName":"Hotel Palace","alternatenames":[],"lat":36.78217,"lon":126.99938,"countryCode":"KR"},{"name":"Onyang Grand","asciiName":"Onyang Grand","alternatenames":[],"lat":36.78338,"lon":127.00654,"countryCode":"KR"},{"name":"Best Western Vision","asciiName":"Best Western Vision","alternatenames":[],"lat":37.5692,"lon":127.004,"countryCode":"KR"},{"name":"Myeongdong Dream Hotel","asciiName":"Myeongdong Dream Hotel","alternatenames":[],"lat":37.55889,"lon":126.98391,"countryCode":"KR"},{"name":"Seokyo","asciiName":"Seokyo","alternatenames":[],"lat":37.5591,"lon":126.896,"countryCode":"KR"},{"name":"Sunbee","asciiName":"Sunbee","alternatenames":[],"lat":37.5714,"lon":126.967,"countryCode":"KR"},{"name":"Royal Seoul","asciiName":"Royal Seoul","alternatenames":[],"lat":37.568,"lon":126.964,"countryCode":"KR"},{"name":"Holiday Inn Seoul","asciiName":"Holiday Inn Seoul","alternatenames":[],"lat":37.5409,"lon":126.936,"countryCode":"KR"},{"name":"Brown","asciiName":"Brown","alternatenames":[],"lat":37.5886,"lon":126.994,"countryCode":"KR"},{"name":"Olympiana","asciiName":"Olympiana","alternatenames":[],"lat":37.502,"lon":127.136,"countryCode":"KR"},{"name":"New Kukje","asciiName":"New Kukje","alternatenames":[],"lat":37.5736,"lon":126.953,"countryCode":"KR"},{"name":"Novotel Seoul Ambassador Doksan","asciiName":"Novotel Seoul Ambassador Doksan","alternatenames":[],"lat":37.4534,"lon":126.921,"countryCode":"KR"},{"name":"Kyung Nam","asciiName":"Kyung Nam","alternatenames":[],"lat":37.5689,"lon":127.057,"countryCode":"KR"},{"name":"R Hotel","asciiName":"R Hotel","alternatenames":[],"lat":37.51719,"lon":126.91206,"countryCode":"KR"},{"name":"Coex Inter-Continental","asciiName":"Coex Inter-Continental","alternatenames":[],"lat":37.5011,"lon":127.074,"countryCode":"KR"},{"name":"Eastgate Tower","asciiName":"Eastgate Tower","alternatenames":[],"lat":37.56878,"lon":127.0075,"countryCode":"KR"},{"name":"Dodo Tourist","asciiName":"Dodo Tourist","alternatenames":[],"lat":37.51539,"lon":126.89967,"countryCode":"KR"},{"name":"Jamsil Tourist","asciiName":"Jamsil Tourist","alternatenames":[],"lat":37.489,"lon":127.114,"countryCode":"KR"},{"name":"Beluga","asciiName":"Beluga","alternatenames":[],"lat":37.492,"lon":127.129,"countryCode":"KR"},{"name":"Metro","asciiName":"Metro","alternatenames":[],"lat":37.55005,"lon":126.99707,"countryCode":"KR"},{"name":"Biz Myeong-Dong","asciiName":"Biz Myeong-Dong","alternatenames":[],"lat":37.57285,"lon":127.03136,"countryCode":"KR"},{"name":"Pacific","asciiName":"Pacific","alternatenames":[],"lat":37.55712,"lon":126.97738,"countryCode":"KR"},{"name":"The California Hotel","asciiName":"The California Hotel","alternatenames":[],"lat":37.48516,"lon":127.01466,"countryCode":"KR"},{"name":"Prince Seoul","asciiName":"Prince Seoul","alternatenames":[],"lat":37.5629,"lon":126.967,"countryCode":"KR"},{"name":"Hotel Skypark Myeongdong 2","asciiName":"Hotel Skypark Myeongdong 2","alternatenames":[],"lat":37.56476,"lon":126.98498,"countryCode":"KR"},{"name":"City Palace","asciiName":"City Palace","alternatenames":[],"lat":37.5707,"lon":127.035,"countryCode":"KR"},{"name":"Best Western Dongdaemun","asciiName":"Best Western Dongdaemun","alternatenames":[],"lat":37.56654,"lon":126.97797,"countryCode":"KR"},{"name":"Rex Seoul","asciiName":"Rex Seoul","alternatenames":[],"lat":37.5617,"lon":126.962,"countryCode":"KR"},{"name":"Three Seven Stay","asciiName":"Three Seven Stay","alternatenames":[],"lat":37.55816,"lon":126.94331,"countryCode":"KR"},{"name":"Riverside Seoul","asciiName":"Riverside Seoul","alternatenames":[],"lat":37.5098,"lon":127.027,"countryCode":"KR"},{"name":"New Oriental","asciiName":"New Oriental","alternatenames":[],"lat":37.5625,"lon":126.964,"countryCode":"KR"},{"name":"Kims","asciiName":"Kims","alternatenames":[],"lat":37.6224,"lon":126.927,"countryCode":"KR"},{"name":"Newchonji Tourist Hotel","asciiName":"Newchonji Tourist Hotel","alternatenames":[],"lat":37.5665,"lon":127.00256,"countryCode":"KR"},{"name":"Mayfield Hotel & Resort","asciiName":"Mayfield Hotel & Resort","alternatenames":[],"lat":37.5897,"lon":126.831,"countryCode":"KR"},{"name":"2C House","asciiName":"2C House","alternatenames":[],"lat":37.56628,"lon":127.03243,"countryCode":"KR"},{"name":"Intercontinental Seoul Coex","asciiName":"Intercontinental Seoul Coex","alternatenames":[],"lat":37.513,"lon":127.05724,"countryCode":"KR"},{"name":"Olympic Parktel","asciiName":"Olympic Parktel","alternatenames":[],"lat":37.5084,"lon":127.137,"countryCode":"KR"},{"name":"Namsan Park","asciiName":"Namsan Park","alternatenames":[],"lat":37.55896,"lon":126.9793,"countryCode":"KR"},{"name":"Banyan Tree Club & Spa Seoul","asciiName":"Banyan Tree Club & Spa Seoul","alternatenames":[],"lat":37.55024,"lon":127.00058,"countryCode":"KR"},{"name":"Capital Seoul","asciiName":"Capital Seoul","alternatenames":[],"lat":37.5252,"lon":126.992,"countryCode":"KR"},{"name":"Hotel La Mir","asciiName":"Hotel La Mir","alternatenames":[],"lat":37.50676,"lon":127.04,"countryCode":"KR"},{"name":"Prima","asciiName":"Prima","alternatenames":[],"lat":37.5147,"lon":127.062,"countryCode":"KR"},{"name":"Pj","asciiName":"Pj","alternatenames":[],"lat":37.5702,"lon":126.995,"countryCode":"KR"},{"name":"Hotel Blue Pearl","asciiName":"Hotel Blue Pearl","alternatenames":[],"lat":37.52567,"lon":127.05401,"countryCode":"KR"},{"name":"Green World","asciiName":"Green World","alternatenames":[],"lat":37.50397,"lon":126.7086,"countryCode":"KR"},{"name":"Bando Hotel","asciiName":"Bando Hotel","alternatenames":[],"lat":37.571,"lon":126.984,"countryCode":"KR"},{"name":"Poong Jun","asciiName":"Poong Jun","alternatenames":[],"lat":37.5702,"lon":126.995,"countryCode":"KR"},{"name":"Centro Seoul","asciiName":"Centro Seoul","alternatenames":[],"lat":37.4707,"lon":127.038,"countryCode":"KR"},{"name":"Amourex","asciiName":"Amourex","alternatenames":[],"lat":37.56365,"lon":127.03525,"countryCode":"KR"},{"name":"Lees","asciiName":"Lees","alternatenames":[],"lat":37.5689,"lon":126.983,"countryCode":"KR"},{"name":"New Boolim","asciiName":"New Boolim","alternatenames":[],"lat":37.5826,"lon":127.022,"countryCode":"KR"},{"name":"Dong Seoul","asciiName":"Dong Seoul","alternatenames":[],"lat":37.5263,"lon":127.103,"countryCode":"KR"},{"name":"Seoul Royal","asciiName":"Seoul Royal","alternatenames":[],"lat":37.78138,"lon":127.00461,"countryCode":"KR"},{"name":"Shilla Stay Yeoksam","asciiName":"Shilla Stay Yeoksam","alternatenames":[],"lat":37.5047,"lon":127.04124,"countryCode":"KR"},{"name":"Savoy Seoul","asciiName":"Savoy Seoul","alternatenames":[],"lat":37.5647,"lon":126.966,"countryCode":"KR"},{"name":"Cutee","asciiName":"Cutee","alternatenames":[],"lat":37.50493,"lon":127.05298,"countryCode":"KR"},{"name":"Skypark In Myeongdong","asciiName":"Skypark In Myeongdong","alternatenames":[],"lat":37.56111,"lon":126.98444,"countryCode":"KR"},{"name":"Noblesse Jangan","asciiName":"Noblesse Jangan","alternatenames":[],"lat":37.5613,"lon":127.058,"countryCode":"KR"},{"name":"Casaville Residence Samsung","asciiName":"Casaville Residence Samsung","alternatenames":[],"lat":37.50788,"lon":127.0631,"countryCode":"KR"},{"name":"Lotte City Hotel Gimpo Airport","asciiName":"Lotte City Hotel Gimpo Airport","alternatenames":[],"lat":37.56384,"lon":126.80336,"countryCode":"KR"},{"name":"Noblesse & Merdian","asciiName":"Noblesse & Merdian","alternatenames":[],"lat":37.5613,"lon":127.058,"countryCode":"KR"},{"name":"Sutton Hotel","asciiName":"Sutton Hotel","alternatenames":[],"lat":37.56852,"lon":126.99067,"countryCode":"KR"},{"name":"Young Dong","asciiName":"Young Dong","alternatenames":[],"lat":37.5087,"lon":127.037,"countryCode":"KR"},{"name":"Mate","asciiName":"Mate","alternatenames":[],"lat":37.52997,"lon":126.84103,"countryCode":"KR"},{"name":"S Hotel","asciiName":"S Hotel","alternatenames":[],"lat":37.53937,"lon":126.84773,"countryCode":"KR"},{"name":"Noblesse Yeoksam","asciiName":"Noblesse Yeoksam","alternatenames":[],"lat":37.525,"lon":127.034,"countryCode":"KR"},{"name":"Irene","asciiName":"Irene","alternatenames":[],"lat":37.3341,"lon":126.5838,"countryCode":"KR"},{"name":"Grand Intercontinental Parnas (Jr Suite)","asciiName":"Grand Intercontinental Parnas (Jr Suite)","alternatenames":[],"lat":37.50916,"lon":127.06074,"countryCode":"KR"},{"name":"Hotel Skypark Myeongdong Ii","asciiName":"Hotel Skypark Myeongdong Ii","alternatenames":[],"lat":37.5649,"lon":126.98502,"countryCode":"KR"},{"name":"Bali Tourist","asciiName":"Bali Tourist","alternatenames":[],"lat":37.52905,"lon":127.13499,"countryCode":"KR"},{"name":"Cs Hotel","asciiName":"Cs Hotel","alternatenames":[],"lat":37.60858,"lon":126.92987,"countryCode":"KR"},{"name":"Artnouveau City Yeoksam","asciiName":"Artnouveau City Yeoksam","alternatenames":[],"lat":37.50337,"lon":127.04351,"countryCode":"KR"},{"name":"Casaville Residence Shinchon","asciiName":"Casaville Residence Shinchon","alternatenames":[],"lat":37.55669,"lon":126.94012,"countryCode":"KR"},{"name":"Royal Jeju Cheju","asciiName":"Royal Jeju Cheju","alternatenames":[],"lat":33.50756,"lon":126.5221,"countryCode":"KR"},{"name":"Oriental Jeju Cheju","asciiName":"Oriental Jeju Cheju","alternatenames":[],"lat":33.51585,"lon":126.52688,"countryCode":"KR"},{"name":"Hyatt Jeju Cheju","asciiName":"Hyatt Jeju Cheju","alternatenames":[],"lat":33.21497,"lon":126.29262,"countryCode":"KR"},{"name":"Lotte Jeju Cheju","asciiName":"Lotte Jeju Cheju","alternatenames":[],"lat":33.24739,"lon":126.40757,"countryCode":"KR"},{"name":"Hotel Neighborhood","asciiName":"Hotel Neighborhood","alternatenames":[],"lat":33.4879,"lon":126.4818,"countryCode":"KR"},{"name":"Sunshine","asciiName":"Sunshine","alternatenames":[],"lat":33.5435,"lon":126.66226,"countryCode":"KR"},{"name":"New Crown","asciiName":"New Crown","alternatenames":[],"lat":33.51342,"lon":126.51783,"countryCode":"KR"},{"name":"Grand Jeju Cheju","asciiName":"Grand Jeju Cheju","alternatenames":[],"lat":33.51576,"lon":126.52454,"countryCode":"KR"},{"name":"Kal","asciiName":"Kal","alternatenames":[],"lat":33.51606,"lon":126.52118,"countryCode":"KR"},{"name":"Ramada Plaza Jeju Cheju","asciiName":"Ramada Plaza Jeju Cheju","alternatenames":[],"lat":33.51568,"lon":126.52906,"countryCode":"KR"},{"name":"Namseoul Plaza And Casino","asciiName":"Namseoul Plaza And Casino","alternatenames":[],"lat":33.49522,"lon":126.49545,"countryCode":"KR"},{"name":"Haevichi Hotel & ResortResort","asciiName":"Haevichi Hotel & ResortResort","alternatenames":[],"lat":33.32325,"lon":126.84462,"countryCode":"KR"},{"name":"Shineville Luxury Resort","asciiName":"Shineville Luxury Resort","alternatenames":[],"lat":33.3055,"lon":126.80064,"countryCode":"KR"},{"name":"Seoguipo Kal","asciiName":"Seoguipo Kal","alternatenames":[],"lat":33.2874,"lon":126.577,"countryCode":"KR"},{"name":"Robero","asciiName":"Robero","alternatenames":[],"lat":33.51142,"lon":126.50511,"countryCode":"KR"},{"name":"Pacific Jeju Cheju","asciiName":"Pacific Jeju Cheju","alternatenames":[],"lat":33.51223,"lon":126.52115,"countryCode":"KR"},{"name":"Novotel Ambassador Busan(Dlx Ocean View)","asciiName":"Novotel Ambassador Busan(Dlx Ocean View)","alternatenames":[],"lat":35.16017,"lon":129.16305,"countryCode":"KR"},{"name":"Commodore Chosun","asciiName":"Commodore Chosun","alternatenames":[],"lat":35.84869,"lon":129.28064,"countryCode":"KR"},{"name":"Gallery","asciiName":"Gallery","alternatenames":[],"lat":36.6433,"lon":127.46033,"countryCode":"KR"},{"name":"Airport Yeongjong Bridge Hotel","asciiName":"Airport Yeongjong Bridge Hotel","alternatenames":[],"lat":37.49416,"lon":126.53679,"countryCode":"KR"},{"name":"Hotel Parkwood","asciiName":"Hotel Parkwood","alternatenames":[],"lat":37.42609,"lon":126.42194,"countryCode":"KR"},{"name":"Air Park","asciiName":"Air Park","alternatenames":[],"lat":37.4945,"lon":126.48969,"countryCode":"KR"},{"name":"June Incheon Airport","asciiName":"June Incheon Airport","alternatenames":[],"lat":37.49384,"lon":126.49046,"countryCode":"KR"},{"name":"Sevilla","asciiName":"Sevilla","alternatenames":[],"lat":37.49441,"lon":126.4929,"countryCode":"KR"},{"name":"A Seven Incheon Airport","asciiName":"A Seven Incheon Airport","alternatenames":[],"lat":37.4948,"lon":126.49124,"countryCode":"KR"},{"name":"Oceanside","asciiName":"Oceanside","alternatenames":[],"lat":37.46125,"lon":126.39868,"countryCode":"KR"},{"name":"Novotel Ambassador Daegu","asciiName":"Novotel Ambassador Daegu","alternatenames":[],"lat":35.87086,"lon":128.59794,"countryCode":"KR"},{"name":"Paragon","asciiName":"Paragon","alternatenames":[],"lat":35.16206,"lon":128.98142,"countryCode":"KR"},{"name":"Phoenix","asciiName":"Phoenix","alternatenames":[],"lat":35.09843,"lon":129.02964,"countryCode":"KR"},{"name":"T.H.E Hotel And Vegas Casino","asciiName":"T.H.E Hotel And Vegas Casino","alternatenames":[],"lat":33.48998,"lon":126.49402,"countryCode":"KR"},{"name":"Toyoko Inn Busan Station 2","asciiName":"Toyoko Inn Busan Station 2","alternatenames":[],"lat":35.11423,"lon":129.04063,"countryCode":"KR"},{"name":"Toyoko Inn Busan Seo-Myeon","asciiName":"Toyoko Inn Busan Seo-Myeon","alternatenames":[],"lat":35.15797,"lon":129.06407,"countryCode":"KR"},{"name":"Sun Beach","asciiName":"Sun Beach","alternatenames":[],"lat":33.24618,"lon":126.56016,"countryCode":"KR"},{"name":"Commodore","asciiName":"Commodore","alternatenames":[],"lat":35.10935,"lon":129.03537,"countryCode":"KR"},{"name":"Busan Tourist","asciiName":"Busan Tourist","alternatenames":[],"lat":35.10041,"lon":129.03464,"countryCode":"KR"},{"name":"Ibis Ambassador Seoul Gangnam (Twin)","asciiName":"Ibis Ambassador Seoul Gangnam (Twin)","alternatenames":[],"lat":37.50507,"lon":127.05705,"countryCode":"KR"},{"name":"Ibis Ambassador Seoul Gangnam (Double)","asciiName":"Ibis Ambassador Seoul Gangnam (Double)","alternatenames":[],"lat":37.50499,"lon":127.05696,"countryCode":"KR"},{"name":"Dongdaemun (Twin)","asciiName":"Dongdaemun (Twin)","alternatenames":[],"lat":37.57087,"lon":127.01042,"countryCode":"KR"},{"name":"Intercontinental Alpensia Pyeongchang Resort","asciiName":"Intercontinental Alpensia Pyeongchang Resort","alternatenames":[],"lat":37.65847,"lon":128.66928,"countryCode":"KR"},{"name":"Novotel Ambassador (Executive Floor)","asciiName":"Novotel Ambassador (Executive Floor)","alternatenames":[],"lat":35.87094,"lon":128.59825,"countryCode":"KR"},{"name":"Naksan Beach","asciiName":"Naksan Beach","alternatenames":[],"lat":38.12352,"lon":128.63039,"countryCode":"KR"},{"name":"River Hotel","asciiName":"River Hotel","alternatenames":[],"lat":37.27101,"lon":127.1074,"countryCode":"KR"},{"name":"Windsor Castle","asciiName":"Windsor Castle","alternatenames":[],"lat":37.28923,"lon":127.09975,"countryCode":"KR"},{"name":"Tae Pyung Yang","asciiName":"Tae Pyung Yang","alternatenames":[],"lat":37.30859,"lon":126.85336,"countryCode":"KR"},{"name":"Hyundai","asciiName":"Hyundai","alternatenames":[],"lat":35.52064,"lon":129.431,"countryCode":"KR"},{"name":"Shilla Stay Dongtan","asciiName":"Shilla Stay Dongtan","alternatenames":[],"lat":37.202,"lon":127.073,"countryCode":"KR"},{"name":"Ramada Plaza Suwon","asciiName":"Ramada Plaza Suwon","alternatenames":[],"lat":37.27739,"lon":127.03248,"countryCode":"KR"},{"name":"Suwon Herb Hotel","asciiName":"Suwon Herb Hotel","alternatenames":[],"lat":37.25965,"lon":127.03315,"countryCode":"KR"},{"name":"Suwon Reve Hotel","asciiName":"Suwon Reve Hotel","alternatenames":[],"lat":37.26485,"lon":127.0281,"countryCode":"KR"},{"name":"S Hotel Suwon","asciiName":"S Hotel Suwon","alternatenames":[],"lat":37.26232,"lon":127.03361,"countryCode":"KR"},{"name":"Ramada Hotel Dongtan","asciiName":"Ramada Hotel Dongtan","alternatenames":[],"lat":37.2016,"lon":127.0487,"countryCode":"KR"},{"name":"Mate Hotel","asciiName":"Mate Hotel","alternatenames":[],"lat":37.1654,"lon":126.58176,"countryCode":"KR"},{"name":"Benikea Suwon Hotel","asciiName":"Benikea Suwon Hotel","alternatenames":[],"lat":37.24988,"lon":127.02744,"countryCode":"KR"},{"name":"Ibis Ambassador Suwon","asciiName":"Ibis Ambassador Suwon","alternatenames":[],"lat":37.25938,"lon":127.03151,"countryCode":"KR"},{"name":"El Suite Place Serviced Residences","asciiName":"El Suite Place Serviced Residences","alternatenames":[],"lat":37.25491,"lon":127.01289,"countryCode":"KR"},{"name":"Amour & Symphony","asciiName":"Amour & Symphony","alternatenames":[],"lat":37.26626,"lon":127.0719,"countryCode":"KR"},{"name":"Hotel Sorak Park","asciiName":"Hotel Sorak Park","alternatenames":[],"lat":38.16984,"lon":128.48772,"countryCode":"KR"},{"name":"Kensington Stars","asciiName":"Kensington Stars","alternatenames":[],"lat":38.17291,"lon":128.49895,"countryCode":"KR"},{"name":"Hotel Maremons","asciiName":"Hotel Maremons","alternatenames":[],"lat":38.16705,"lon":128.6063,"countryCode":"KR"},{"name":"Hotel 7 Street Seoul","asciiName":"Hotel 7 Street Seoul","alternatenames":[],"lat":37.56862,"lon":126.99084,"countryCode":"KR"},{"name":"The California Hotel Seocho","asciiName":"The California Hotel Seocho","alternatenames":[],"lat":37.48527,"lon":127.01464,"countryCode":"KR"},{"name":"Hostel Korea 11Th Changdeokgun","asciiName":"Hostel Korea 11Th Changdeokgun","alternatenames":[],"lat":37.576,"lon":126.99,"countryCode":"KR"},{"name":"Dw Design Residence","asciiName":"Dw Design Residence","alternatenames":[],"lat":37.558,"lon":126.921,"countryCode":"KR"},{"name":"Vestin Villa Myongdong","asciiName":"Vestin Villa Myongdong","alternatenames":[],"lat":37.558,"lon":126.985,"countryCode":"KR"},{"name":"Duriworld House","asciiName":"Duriworld House","alternatenames":[],"lat":37.559,"lon":126.92,"countryCode":"KR"},{"name":"Vestin Residence Myeongdong","asciiName":"Vestin Residence Myeongdong","alternatenames":[],"lat":37.56,"lon":126.987,"countryCode":"KR"},{"name":"Jw Marriott Dongdaemun Square","asciiName":"Jw Marriott Dongdaemun Square","alternatenames":[],"lat":37.57037,"lon":127.00895,"countryCode":"KR"},{"name":"Hotel Karashy","asciiName":"Hotel Karashy","alternatenames":[],"lat":37.477,"lon":126.98,"countryCode":"KR"},{"name":"Pharos Hotel","asciiName":"Pharos Hotel","alternatenames":[],"lat":37.511,"lon":127.081,"countryCode":"KR"},{"name":"Hotel Together Yeouido","asciiName":"Hotel Together Yeouido","alternatenames":[],"lat":37.528,"lon":126.92,"countryCode":"KR"},{"name":"Golden Forest Residence-River","asciiName":"Golden Forest Residence-River","alternatenames":[],"lat":37.561,"lon":127.07,"countryCode":"KR"},{"name":"Sheraton Seoul D Cube City","asciiName":"Sheraton Seoul D Cube City","alternatenames":[],"lat":37.50909,"lon":126.8893,"countryCode":"KR"},{"name":"Inn The City Residence-Nonhyeo","asciiName":"Inn The City Residence-Nonhyeo","alternatenames":[],"lat":37.511,"lon":127.024,"countryCode":"KR"},{"name":"Human Touchvil Yeoksam","asciiName":"Human Touchvil Yeoksam","alternatenames":[],"lat":37.506,"lon":127.034,"countryCode":"KR"},{"name":"Inn The City Residence-Yeoksam","asciiName":"Inn The City Residence-Yeoksam","alternatenames":[],"lat":37.503,"lon":127.04,"countryCode":"KR"},{"name":"Central Tourist Hotel","asciiName":"Central Tourist Hotel","alternatenames":[],"lat":37.569,"lon":126.993,"countryCode":"KR"},{"name":"Blessing In Seoul","asciiName":"Blessing In Seoul","alternatenames":[],"lat":37.587,"lon":127.052,"countryCode":"KR"},{"name":"The Benikea Premier Marigold H","asciiName":"The Benikea Premier Marigold H","alternatenames":[],"lat":37.553,"lon":126.92,"countryCode":"KR"},{"name":"Blooming House","asciiName":"Blooming House","alternatenames":[],"lat":37.50082,"lon":127.03897,"countryCode":"KR"},{"name":"Hotel Shinshin","asciiName":"Hotel Shinshin","alternatenames":[],"lat":37.562,"lon":126.979,"countryCode":"KR"},{"name":"Hoegi Co-Op Residence","asciiName":"Hoegi Co-Op Residence","alternatenames":[],"lat":37.59,"lon":127.056,"countryCode":"KR"},{"name":"Ramada Seoul Jongno","asciiName":"Ramada Seoul Jongno","alternatenames":[],"lat":37.57179,"lon":126.99852,"countryCode":"KR"},{"name":"Tong Hotel Andante Insadong","asciiName":"Tong Hotel Andante Insadong","alternatenames":[],"lat":37.57123,"lon":126.98525,"countryCode":"KR"},{"name":"Namsan Hill Hotel","asciiName":"Namsan Hill Hotel","alternatenames":[],"lat":37.557,"lon":126.982,"countryCode":"KR"},{"name":"The Summit Hotel Dongdaemun","asciiName":"The Summit Hotel Dongdaemun","alternatenames":[],"lat":37.562,"lon":127.007,"countryCode":"KR"},{"name":"Hotel Tong Vivace Dongdaemun","asciiName":"Hotel Tong Vivace Dongdaemun","alternatenames":[],"lat":37.571,"lon":127.012,"countryCode":"KR"},{"name":"New Sun Guest House","asciiName":"New Sun Guest House","alternatenames":[],"lat":37.558,"lon":126.981,"countryCode":"KR"},{"name":"Tmark Hotel Myeongdong","asciiName":"Tmark Hotel Myeongdong","alternatenames":[],"lat":37.563,"lon":126.993,"countryCode":"KR"},{"name":"Golden Seoul Hotel","asciiName":"Golden Seoul Hotel","alternatenames":[],"lat":37.54782,"lon":126.87815,"countryCode":"KR"},{"name":"City Days Inn","asciiName":"City Days Inn","alternatenames":[],"lat":37.571,"lon":127.012,"countryCode":"KR"},{"name":"Daewoo Inn","asciiName":"Daewoo Inn","alternatenames":[],"lat":37.563,"lon":126.978,"countryCode":"KR"},{"name":"Yellow Brick 2","asciiName":"Yellow Brick 2","alternatenames":[],"lat":37.574,"lon":126.991,"countryCode":"KR"},{"name":"Hotel Atti Chungmu-Ro","asciiName":"Hotel Atti Chungmu-Ro","alternatenames":[],"lat":37.561,"lon":126.997,"countryCode":"KR"},{"name":"Benikea Hotel Kp","asciiName":"Benikea Hotel Kp","alternatenames":[],"lat":37.58954,"lon":127.05683,"countryCode":"KR"},{"name":"Ss Guest House","asciiName":"Ss Guest House","alternatenames":[],"lat":37.552,"lon":126.969,"countryCode":"KR"},{"name":"Hotel Manu Seoul","asciiName":"Hotel Manu Seoul","alternatenames":[],"lat":37.55703,"lon":126.97482,"countryCode":"KR"},{"name":"Hotel Tomgi","asciiName":"Hotel Tomgi","alternatenames":[],"lat":37.572,"lon":126.989,"countryCode":"KR"},{"name":"Courtyard By Marriott Seoul Ti","asciiName":"Courtyard By Marriott Seoul Ti","alternatenames":[],"lat":37.517,"lon":126.904,"countryCode":"KR"},{"name":"Nine Tree Hotel Myeongdong","asciiName":"Nine Tree Hotel Myeongdong","alternatenames":[],"lat":37.562,"lon":126.986,"countryCode":"KR"},{"name":"Hotel Icon","asciiName":"Hotel Icon","alternatenames":[],"lat":37.57533,"lon":126.9889,"countryCode":"KR"},{"name":"Center Mark","asciiName":"Center Mark","alternatenames":[],"lat":37.57254,"lon":126.98428,"countryCode":"KR"},{"name":"N Fourseason Seoul","asciiName":"N Fourseason Seoul","alternatenames":[],"lat":37.557,"lon":126.98,"countryCode":"KR"},{"name":"Hotel Skypark Central","asciiName":"Hotel Skypark Central","alternatenames":[],"lat":37.565,"lon":126.985,"countryCode":"KR"},{"name":"Staz Hotel Myeongdong I","asciiName":"Staz Hotel Myeongdong I","alternatenames":[],"lat":37.56704,"lon":126.99133,"countryCode":"KR"},{"name":"Hotel Aventree Jong-No","asciiName":"Hotel Aventree Jong-No","alternatenames":[],"lat":37.573,"lon":126.983,"countryCode":"KR"},{"name":"O2 Hotel","asciiName":"O2 Hotel","alternatenames":[],"lat":37.574,"lon":126.959,"countryCode":"KR"},{"name":"Hotel Cozy","asciiName":"Hotel Cozy","alternatenames":[],"lat":37.561,"lon":126.974,"countryCode":"KR"},{"name":"Sarang Bang Motel","asciiName":"Sarang Bang Motel","alternatenames":[],"lat":37.575,"lon":126.984,"countryCode":"KR"},{"name":"Hotel Irene City","asciiName":"Hotel Irene City","alternatenames":[],"lat":37.562,"lon":126.978,"countryCode":"KR"},{"name":"Nyx Hotel","asciiName":"Nyx Hotel","alternatenames":[],"lat":37.5298,"lon":126.83967,"countryCode":"KR"},{"name":"Yims House","asciiName":"Yims House","alternatenames":[],"lat":37.57645,"lon":126.99097,"countryCode":"KR"},{"name":"Western Coop Residence","asciiName":"Western Coop Residence","alternatenames":[],"lat":37.56658,"lon":127.00354,"countryCode":"KR"},{"name":"Sunshine","asciiName":"Sunshine","alternatenames":[],"lat":37.52064,"lon":127.02879,"countryCode":"KR"},{"name":"Stay7 Gongdeok","asciiName":"Stay7 Gongdeok","alternatenames":[],"lat":37.54334,"lon":126.95354,"countryCode":"KR"},{"name":"Stanford Hotel Seoul","asciiName":"Stanford Hotel Seoul","alternatenames":[],"lat":37.58242,"lon":126.88671,"countryCode":"KR"},{"name":"Hotel Skypark Myeongdong 1","asciiName":"Hotel Skypark Myeongdong 1","alternatenames":[],"lat":37.56128,"lon":126.98361,"countryCode":"KR"},{"name":"Seocho Coop Residence","asciiName":"Seocho Coop Residence","alternatenames":[],"lat":37.49558,"lon":127.02101,"countryCode":"KR"},{"name":"Seoul Stars Hotel","asciiName":"Seoul Stars Hotel","alternatenames":[],"lat":37.50842,"lon":127.03645,"countryCode":"KR"},{"name":"Seokyo Hotel","asciiName":"Seokyo Hotel","alternatenames":[],"lat":37.55456,"lon":126.92123,"countryCode":"KR"},{"name":"Saerim Hotel","asciiName":"Saerim Hotel","alternatenames":[],"lat":37.57359,"lon":126.98451,"countryCode":"KR"},{"name":"River Park","asciiName":"River Park","alternatenames":[],"lat":37.54865,"lon":126.87797,"countryCode":"KR"},{"name":"The Riverside Hotel","asciiName":"The Riverside Hotel","alternatenames":[],"lat":37.51847,"lon":127.01808,"countryCode":"KR"},{"name":"Ramada Hotel & Suites Seoul Na","asciiName":"Ramada Hotel & Suites Seoul Na","alternatenames":[],"lat":37.56069,"lon":126.9719,"countryCode":"KR"},{"name":"Prime In Seoul","asciiName":"Prime In Seoul","alternatenames":[],"lat":37.61685,"lon":126.92374,"countryCode":"KR"},{"name":"Namdaemun Palace","asciiName":"Namdaemun Palace","alternatenames":[],"lat":37.55867,"lon":126.97988,"countryCode":"KR"},{"name":"Orange County Hotel","asciiName":"Orange County Hotel","alternatenames":[],"lat":37.55664,"lon":126.93962,"countryCode":"KR"},{"name":"Mercure Ambassador Gangnam","asciiName":"Mercure Ambassador Gangnam","alternatenames":[],"lat":37.501,"lon":127.035,"countryCode":"KR"},{"name":"Mare","asciiName":"Mare","alternatenames":[],"lat":37.5636,"lon":127.05765,"countryCode":"KR"},{"name":"Lotte City Mapo","asciiName":"Lotte City Mapo","alternatenames":[],"lat":37.54498,"lon":126.95071,"countryCode":"KR"},{"name":"Hotel At Home","asciiName":"Hotel At Home","alternatenames":[],"lat":37.57265,"lon":126.99927,"countryCode":"KR"},{"name":"La Casa","asciiName":"La Casa","alternatenames":[],"lat":37.5222,"lon":127.0195,"countryCode":"KR"},{"name":"Hotel Kobos","asciiName":"Hotel Kobos","alternatenames":[],"lat":37.53019,"lon":126.92059,"countryCode":"KR"},{"name":"Kaya Tourist","asciiName":"Kaya Tourist","alternatenames":[],"lat":37.54094,"lon":126.97237,"countryCode":"KR"},{"name":"Just Stay Hotel","asciiName":"Just Stay Hotel","alternatenames":[],"lat":37.56623,"lon":127.00496,"countryCode":"KR"},{"name":"Ip Boutique","asciiName":"Ip Boutique","alternatenames":[],"lat":37.53535,"lon":126.99841,"countryCode":"KR"},{"name":"Ibis Ambassador Seoul Insadong","asciiName":"Ibis Ambassador Seoul Insadong","alternatenames":[],"lat":37.57436,"lon":126.98944,"countryCode":"KR"},{"name":"Ibis Ambassador Myeong-Dong","asciiName":"Ibis Ambassador Myeong-Dong","alternatenames":[],"lat":37.56428,"lon":126.98272,"countryCode":"KR"},{"name":"Hyundai Residence","asciiName":"Hyundai Residence","alternatenames":[],"lat":37.56388,"lon":127.00084,"countryCode":"KR"},{"name":"Hotel Biz Jongro Insa-Dong","asciiName":"Hotel Biz Jongro Insa-Dong","alternatenames":[],"lat":37.57331,"lon":126.98848,"countryCode":"KR"},{"name":"Hotel Pagoda","asciiName":"Hotel Pagoda","alternatenames":[],"lat":37.50676,"lon":127.04,"countryCode":"KR"},{"name":"Hotel Cutee","asciiName":"Hotel Cutee","alternatenames":[],"lat":37.57197,"lon":126.9896,"countryCode":"KR"},{"name":"Hotel The Designers","asciiName":"Hotel The Designers","alternatenames":[],"lat":37.507,"lon":127.055,"countryCode":"KR"},{"name":"Hotel Acacia","asciiName":"Hotel Acacia","alternatenames":[],"lat":37.5667,"lon":127.0027,"countryCode":"KR"},{"name":"Hotel Sun","asciiName":"Hotel Sun","alternatenames":[],"lat":37.50633,"lon":127.05197,"countryCode":"KR"},{"name":"2Nd Casa","asciiName":"2Nd Casa","alternatenames":[],"lat":37.5651,"lon":126.99175,"countryCode":"KR"},{"name":"Holiday Inn Seong Buk","asciiName":"Holiday Inn Seong Buk","alternatenames":[],"lat":37.60112,"lon":127.03305,"countryCode":"KR"},{"name":"Hill House","asciiName":"Hill House","alternatenames":[],"lat":37.55683,"lon":126.98195,"countryCode":"KR"},{"name":"Han Suite","asciiName":"Han Suite","alternatenames":[],"lat":37.56005,"lon":126.99113,"countryCode":"KR"},{"name":"Hangul House Cuarto Ondol","asciiName":"Hangul House Cuarto Ondol","alternatenames":[],"lat":37.57897,"lon":126.97306,"countryCode":"KR"},{"name":"Friend","asciiName":"Friend","alternatenames":[],"lat":37.48277,"lon":127.00993,"countryCode":"KR"},{"name":"Benikea Hotel Flower","asciiName":"Benikea Hotel Flower","alternatenames":[],"lat":37.58489,"lon":127.05055,"countryCode":"KR"},{"name":"Doulos","asciiName":"Doulos","alternatenames":[],"lat":37.56918,"lon":126.99069,"countryCode":"KR"},{"name":"Dynasty","asciiName":"Dynasty","alternatenames":[],"lat":37.50569,"lon":127.02743,"countryCode":"KR"},{"name":"Coatel","asciiName":"Coatel","alternatenames":[],"lat":37.49399,"lon":127.02784,"countryCode":"KR"},{"name":"Chungmuro Residence Dongdaemun","asciiName":"Chungmuro Residence Dongdaemun","alternatenames":[],"lat":37.56256,"lon":126.99905,"countryCode":"KR"},{"name":"Brown Sweet Residence","asciiName":"Brown Sweet Residence","alternatenames":[],"lat":37.56077,"lon":126.9682,"countryCode":"KR"},{"name":"Best Western Premier Guro","asciiName":"Best Western Premier Guro","alternatenames":[],"lat":37.48318,"lon":126.89891,"countryCode":"KR"},{"name":"Best Western Premier Gang Nam","asciiName":"Best Western Premier Gang Nam","alternatenames":[],"lat":37.50637,"lon":127.02969,"countryCode":"KR"},{"name":"Benhur Hotel","asciiName":"Benhur Hotel","alternatenames":[],"lat":37.52972,"lon":126.92024,"countryCode":"KR"},{"name":"Artnouveau City Gangnam","asciiName":"Artnouveau City Gangnam","alternatenames":[],"lat":37.49381,"lon":127.02809,"countryCode":"KR"},{"name":"Artnouveau City Iii","asciiName":"Artnouveau City Iii","alternatenames":[],"lat":37.49611,"lon":127.02047,"countryCode":"KR"},{"name":"Urban Boutique Hotel","asciiName":"Urban Boutique Hotel","alternatenames":[],"lat":37.39842,"lon":126.97641,"countryCode":"KR"},{"name":"Toyoko Inn Daejeon","asciiName":"Toyoko Inn Daejeon","alternatenames":[],"lat":36.35898,"lon":127.38767,"countryCode":"KR"},{"name":"Interciti Hotel","asciiName":"Interciti Hotel","alternatenames":[],"lat":36.3544,"lon":127.34807,"countryCode":"KR"},{"name":"Riviera Yuseong Hotel","asciiName":"Riviera Yuseong Hotel","alternatenames":[],"lat":36.35464,"lon":127.33797,"countryCode":"KR"},{"name":"Benikea Hotel Daelim","asciiName":"Benikea Hotel Daelim","alternatenames":[],"lat":36.32853,"lon":127.42244,"countryCode":"KR"},{"name":"Hotel Polaris","asciiName":"Hotel Polaris","alternatenames":[],"lat":37.50509,"lon":126.74895,"countryCode":"KR"},{"name":"Kensington Flora","asciiName":"Kensington Flora","alternatenames":[],"lat":37.6888,"lon":128.5976,"countryCode":"KR"},{"name":"Holiday Inn Suites Alpensia Pyeongchang Suites","asciiName":"Holiday Inn Suites Alpensia Pyeongchang Suites","alternatenames":[],"lat":37.65849,"lon":128.66994,"countryCode":"KR"},{"name":"Toyoko Inn Busan Station 1","asciiName":"Toyoko Inn Busan Station 1","alternatenames":[],"lat":35.11414,"lon":129.04072,"countryCode":"KR"},{"name":"Toyoko Inn Busan Sea-Myeon","asciiName":"Toyoko Inn Busan Sea-Myeon","alternatenames":[],"lat":35.15793,"lon":129.06407,"countryCode":"KR"},{"name":"Sunset Business Hotel","asciiName":"Sunset Business Hotel","alternatenames":[],"lat":35.1603,"lon":129.16142,"countryCode":"KR"},{"name":"Seacloud Hotel Haeundae Beach","asciiName":"Seacloud Hotel Haeundae Beach","alternatenames":[],"lat":35.1604,"lon":129.16225,"countryCode":"KR"},{"name":"Sangnam International House","asciiName":"Sangnam International House","alternatenames":[],"lat":35.23748,"lon":129.07948,"countryCode":"KR"},{"name":"Riviera","asciiName":"Riviera","alternatenames":[],"lat":35.16204,"lon":129.16113,"countryCode":"KR"},{"name":"Nongshim","asciiName":"Nongshim","alternatenames":[],"lat":35.2202,"lon":129.08188,"countryCode":"KR"},{"name":"Lotte","asciiName":"Lotte","alternatenames":[],"lat":35.15671,"lon":129.05544,"countryCode":"KR"},{"name":"Lord Beach","asciiName":"Lord Beach","alternatenames":[],"lat":35.16115,"lon":129.15965,"countryCode":"KR"},{"name":"Kukje","asciiName":"Kukje","alternatenames":[],"lat":35.13826,"lon":129.06154,"countryCode":"KR"},{"name":"Ibis Ambassador Busan City Centre","asciiName":"Ibis Ambassador Busan City Centre","alternatenames":[],"lat":35.16213,"lon":129.06185,"countryCode":"KR"},{"name":"Haeundae Centum","asciiName":"Haeundae Centum","alternatenames":[],"lat":35.16752,"lon":129.13282,"countryCode":"KR"},{"name":"Haeundae Grand","asciiName":"Haeundae Grand","alternatenames":[],"lat":35.15899,"lon":129.15519,"countryCode":"KR"},{"name":"Golden Beach Hotel","asciiName":"Golden Beach Hotel","alternatenames":[],"lat":35.16013,"lon":129.15604,"countryCode":"KR"},{"name":"Hotel Benikea Songjung","asciiName":"Hotel Benikea Songjung","alternatenames":[],"lat":35.18106,"lon":129.20303,"countryCode":"KR"},{"name":"Beach Tourist","asciiName":"Beach Tourist","alternatenames":[],"lat":35.09255,"lon":129.02429,"countryCode":"KR"},{"name":"Kolon","asciiName":"Kolon","alternatenames":[],"lat":35.78203,"lon":129.303,"countryCode":"KR"},{"name":"Prado","asciiName":"Prado","alternatenames":[],"lat":35.13561,"lon":126.90103,"countryCode":"KR"},{"name":"Ramada Plaza Gwangju","asciiName":"Ramada Plaza Gwangju","alternatenames":[],"lat":35.15,"lon":126.9166,"countryCode":"KR"},{"name":"Mudeung Park","asciiName":"Mudeung Park","alternatenames":[],"lat":35.14923,"lon":126.94785,"countryCode":"KR"},{"name":"Gwangju Korea","asciiName":"Gwangju Korea","alternatenames":[],"lat":35.14755,"lon":126.83847,"countryCode":"KR"},{"name":"Philos Hotel","asciiName":"Philos Hotel","alternatenames":[],"lat":36.02949,"lon":129.35693,"countryCode":"KR"},{"name":"High1 Hotel","asciiName":"High1 Hotel","alternatenames":[],"lat":37.174,"lon":128.843,"countryCode":"KR"},{"name":"Kangwonland Hotel","asciiName":"Kangwonland Hotel","alternatenames":[],"lat":37.212,"lon":128.822,"countryCode":"KR"},{"name":"Incheon Tourist Hotel","asciiName":"Incheon Tourist Hotel","alternatenames":[],"lat":37.483,"lon":126.709,"countryCode":"KR"},{"name":"Songdo Bridge Hotel","asciiName":"Songdo Bridge Hotel","alternatenames":[],"lat":37.38454,"lon":126.63884,"countryCode":"KR"},{"name":"Royal","asciiName":"Royal","alternatenames":[],"lat":37.46594,"lon":126.71034,"countryCode":"KR"},{"name":"Paradise Hotel Incheon","asciiName":"Paradise Hotel Incheon","alternatenames":[],"lat":37.47427,"lon":126.61669,"countryCode":"KR"},{"name":"Charis","asciiName":"Charis","alternatenames":[],"lat":37.52641,"lon":126.72299,"countryCode":"KR"},{"name":"Orakai Songdo Park Hotel","asciiName":"Orakai Songdo Park Hotel","alternatenames":[],"lat":37.38794,"lon":126.64082,"countryCode":"KR"},{"name":"Hotel Oceanview","asciiName":"Hotel Oceanview","alternatenames":[],"lat":37.442,"lon":126.379,"countryCode":"KR"},{"name":"Hotel Yegrina","asciiName":"Hotel Yegrina","alternatenames":[],"lat":37.426,"lon":126.42,"countryCode":"KR"},{"name":"Hotel Hu","asciiName":"Hotel Hu","alternatenames":[],"lat":37.439,"lon":126.461,"countryCode":"KR"},{"name":"The Residence Yeongjong","asciiName":"The Residence Yeongjong","alternatenames":[],"lat":37.49478,"lon":126.49172,"countryCode":"KR"},{"name":"Hotel Sky Incheon Airport","asciiName":"Hotel Sky Incheon Airport","alternatenames":[],"lat":37.49485,"lon":126.48878,"countryCode":"KR"},{"name":"Hotel Airport Yeong Jong Bridge","asciiName":"Hotel Airport Yeong Jong Bridge","alternatenames":[],"lat":37.49416,"lon":126.53679,"countryCode":"KR"},{"name":"Incheon Prince Hotel","asciiName":"Incheon Prince Hotel","alternatenames":[],"lat":37.44971,"lon":126.38917,"countryCode":"KR"},{"name":"Grand Hyatt Incheon","asciiName":"Grand Hyatt Incheon","alternatenames":[],"lat":37.567,"lon":126.617,"countryCode":"KR"},{"name":"Hotel Queen Del Aeropuerto Incheon","asciiName":"Hotel Queen Del Aeropuerto Incheon","alternatenames":[],"lat":37.49451,"lon":126.49159,"countryCode":"KR"},{"name":"Ulwang Tourist Hotel","asciiName":"Ulwang Tourist Hotel","alternatenames":[],"lat":37.44638,"lon":126.37631,"countryCode":"KR"},{"name":"Incheon Airtel Air Park","asciiName":"Incheon Airtel Air Park","alternatenames":[],"lat":37.49457,"lon":126.48974,"countryCode":"KR"},{"name":"Hotel Miranda","asciiName":"Hotel Miranda","alternatenames":[],"lat":37.28344,"lon":127.44961,"countryCode":"KR"},{"name":"Rolling Hills","asciiName":"Rolling Hills","alternatenames":[],"lat":37.19017,"lon":126.83882,"countryCode":"KR"},{"name":"Prince","asciiName":"Prince","alternatenames":[],"lat":35.8563,"lon":128.58656,"countryCode":"KR"},{"name":"Inter-Burgo","asciiName":"Inter-Burgo","alternatenames":[],"lat":35.8666,"lon":128.6,"countryCode":"KR"},{"name":"Grand","asciiName":"Grand","alternatenames":[],"lat":35.8578,"lon":128.6253,"countryCode":"KR"},{"name":"Crystal","asciiName":"Crystal","alternatenames":[],"lat":35.86185,"lon":128.57348,"countryCode":"KR"},{"name":"Mei The Hotel","asciiName":"Mei The Hotel","alternatenames":[],"lat":33.552,"lon":126.707,"countryCode":"KR"},{"name":"Raon Hotel Jeju","asciiName":"Raon Hotel Jeju","alternatenames":[],"lat":33.374,"lon":126.241,"countryCode":"KR"},{"name":"Lotte City Hotel Jeju","asciiName":"Lotte City Hotel Jeju","alternatenames":[],"lat":33.491,"lon":126.487,"countryCode":"KR"},{"name":"Jeju Ocean Palace","asciiName":"Jeju Ocean Palace","alternatenames":[],"lat":33.49962,"lon":126.53119,"countryCode":"KR"},{"name":"Haevichi Resort","asciiName":"Haevichi Resort","alternatenames":[],"lat":33.323,"lon":126.845,"countryCode":"KR"},{"name":"Hostal The Forest","asciiName":"Hostal The Forest","alternatenames":[],"lat":33.514,"lon":126.527,"countryCode":"KR"},{"name":"Jeju Golf Hotel","asciiName":"Jeju Golf Hotel","alternatenames":[],"lat":33.48106,"lon":126.49204,"countryCode":"KR"},{"name":"Teddy Valley Golf & Resort","asciiName":"Teddy Valley Golf & Resort","alternatenames":[],"lat":33.29132,"lon":126.34827,"countryCode":"KR"},{"name":"Seoul Tourist","asciiName":"Seoul Tourist","alternatenames":[],"lat":33.51266,"lon":126.5222,"countryCode":"KR"},{"name":"Travellers","asciiName":"Travellers","alternatenames":[],"lat":33.28613,"lon":126.44397,"countryCode":"KR"},{"name":"New Kyungnam Seogwipo","asciiName":"New Kyungnam Seogwipo","alternatenames":[],"lat":33.24683,"lon":126.55828,"countryCode":"KR"},{"name":"Milano Crown","asciiName":"Milano Crown","alternatenames":[],"lat":33.50228,"lon":126.51539,"countryCode":"KR"},{"name":"Jeju Whitebeach Hotel","asciiName":"Jeju Whitebeach Hotel","alternatenames":[],"lat":33.51762,"lon":126.52711,"countryCode":"KR"},{"name":"Jeju Wonder Resort","asciiName":"Jeju Wonder Resort","alternatenames":[],"lat":33.24442,"lon":126.5109,"countryCode":"KR"},{"name":"Hawaii","asciiName":"Hawaii","alternatenames":[],"lat":33.50042,"lon":126.51737,"countryCode":"KR"},{"name":"Daekuk Isleinn","asciiName":"Daekuk Isleinn","alternatenames":[],"lat":33.24823,"lon":126.4258,"countryCode":"KR"},{"name":"T.H.E Hotel & Vegas Casino","asciiName":"T.H.E Hotel & Vegas Casino","alternatenames":[],"lat":33.49522,"lon":126.49545,"countryCode":"KR"},{"name":"Pullman Ambassador Changwon City7","asciiName":"Pullman Ambassador Changwon City7","alternatenames":[],"lat":35.23935,"lon":128.65511,"countryCode":"KR"},{"name":"Hotel Yaja Haeundae","asciiName":"Hotel Yaja Haeundae","alternatenames":[],"lat":35.16,"lon":129.157,"countryCode":"KR"},{"name":"Bellus Rose Pension Hotel","asciiName":"Bellus Rose Pension Hotel","alternatenames":[],"lat":35.85916,"lon":129.26028,"countryCode":"KR"},{"name":"Regency Hotel","asciiName":"Regency Hotel","alternatenames":[],"lat":37.27354,"lon":127.01747,"countryCode":"KR"},{"name":"Hotel Candy","asciiName":"Hotel Candy","alternatenames":[],"lat":37.63218,"lon":127.023,"countryCode":"KR"},{"name":"Days Hotel Myeongdong","asciiName":"Days Hotel Myeongdong","alternatenames":[],"lat":37.56099,"lon":126.98362,"countryCode":"KR"},{"name":"Hotel Bonbon","asciiName":"Hotel Bonbon","alternatenames":[],"lat":37.56683,"lon":126.98203,"countryCode":"KR"},{"name":"Regent Motel","asciiName":"Regent Motel","alternatenames":[],"lat":37.56285,"lon":127.03448,"countryCode":"KR"},{"name":"Ezen Hotel","asciiName":"Ezen Hotel","alternatenames":[],"lat":37.5564,"lon":126.93951,"countryCode":"KR"},{"name":"Hostel Hongdae","asciiName":"Hostel Hongdae","alternatenames":[],"lat":37.55951,"lon":126.92075,"countryCode":"KR"},{"name":"Hotel Mac","asciiName":"Hotel Mac","alternatenames":[],"lat":37.55634,"lon":126.93937,"countryCode":"KR"},{"name":"Bellisimo Serviced Residence","asciiName":"Bellisimo Serviced Residence","alternatenames":[],"lat":37.51571,"lon":127.11018,"countryCode":"KR"},{"name":"El'lee By Yanolja Group","asciiName":"El'lee By Yanolja Group","alternatenames":[],"lat":36.8104,"lon":127.13978,"countryCode":"KR"},{"name":"Gumi Park Business Hotel","asciiName":"Gumi Park Business Hotel","alternatenames":[],"lat":36.12129,"lon":128.32484,"countryCode":"KR"},{"name":"Pencil Hostel","asciiName":"Pencil Hostel","alternatenames":[],"lat":37.55876,"lon":126.91948,"countryCode":"KR"},{"name":"Pencil Guesthouse","asciiName":"Pencil Guesthouse","alternatenames":[],"lat":37.56022,"lon":126.92513,"countryCode":"KR"},{"name":"Hotel Anesville","asciiName":"Hotel Anesville","alternatenames":[],"lat":35.96127,"lon":126.68923,"countryCode":"KR"},{"name":"Rio Tourist Hotel","asciiName":"Rio Tourist Hotel","alternatenames":[],"lat":37.30992,"lon":126.86807,"countryCode":"KR"},{"name":"Holiday Inn Incheon Songdo","asciiName":"Holiday Inn Incheon Songdo","alternatenames":[],"lat":37.39297,"lon":126.63294,"countryCode":"KR"},{"name":"Hotel Praha","asciiName":"Hotel Praha","alternatenames":[],"lat":37.48456,"lon":126.78796,"countryCode":"KR"},{"name":"Blue Beach Hotel","asciiName":"Blue Beach Hotel","alternatenames":[],"lat":35.16026,"lon":129.19059,"countryCode":"KR"},{"name":"New World Seoul","asciiName":"New World Seoul","alternatenames":[],"lat":37.54428,"lon":126.97353,"countryCode":"KR"},{"name":"D Hotel Shinchon","asciiName":"D Hotel Shinchon","alternatenames":[],"lat":37.55604,"lon":126.93768,"countryCode":"KR"},{"name":"Click Hotel","asciiName":"Click Hotel","alternatenames":[],"lat":37.56198,"lon":126.98831,"countryCode":"KR"},{"name":"Hanwha Resort Pheonix Park","asciiName":"Hanwha Resort Pheonix Park","alternatenames":[],"lat":37.5788,"lon":128.33143,"countryCode":"KR"},{"name":"Hotel Yaja Suwon Cityhall","asciiName":"Hotel Yaja Suwon Cityhall","alternatenames":[],"lat":37.26137,"lon":127.03013,"countryCode":"KR"},{"name":"Mind Tourist Hotel","asciiName":"Mind Tourist Hotel","alternatenames":[],"lat":37.47885,"lon":126.89096,"countryCode":"KR"},{"name":"Ocean Palace Boutique Hotel Jeju","asciiName":"Ocean Palace Boutique Hotel Jeju","alternatenames":[],"lat":33.24616,"lon":126.5624,"countryCode":"KR"},{"name":"Goodstay Feliz Telcon","asciiName":"Goodstay Feliz Telcon","alternatenames":[],"lat":33.24934,"lon":126.56041,"countryCode":"KR"},{"name":"Amber Hotel","asciiName":"Amber Hotel","alternatenames":[],"lat":33.48967,"lon":126.48932,"countryCode":"KR"},{"name":"Isabel Hotel","asciiName":"Isabel Hotel","alternatenames":[],"lat":37.45479,"lon":126.63536,"countryCode":"KR"},{"name":"Benikea Primier Incheon Royal Hotel","asciiName":"Benikea Primier Incheon Royal Hotel","alternatenames":[],"lat":37.46542,"lon":126.70965,"countryCode":"KR"},{"name":"Yes","asciiName":"Yes","alternatenames":[],"lat":36.1107,"lon":128.41876,"countryCode":"KR"},{"name":"Residence U","asciiName":"Residence U","alternatenames":[],"lat":37.66004,"lon":126.77107,"countryCode":"KR"},{"name":"Residence Mumum","asciiName":"Residence Mumum","alternatenames":[],"lat":35.15927,"lon":129.06176,"countryCode":"KR"},{"name":"Noah Hotel","asciiName":"Noah Hotel","alternatenames":[],"lat":35.09751,"lon":129.02929,"countryCode":"KR"},{"name":"Hanwha Resort Jirisan","asciiName":"Hanwha Resort Jirisan","alternatenames":[],"lat":35.2486,"lon":127.49385,"countryCode":"KR"},{"name":"Hanwha Resort Daecheon","asciiName":"Hanwha Resort Daecheon","alternatenames":[],"lat":36.30451,"lon":126.51954,"countryCode":"KR"},{"name":"Hanwha Baegam Spa Resort","asciiName":"Hanwha Baegam Spa Resort","alternatenames":[],"lat":36.72311,"lon":129.33815,"countryCode":"KR"},{"name":"Best Western Premier Incheon Airport Hotel","asciiName":"Best Western Premier Incheon Airport Hotel","alternatenames":[],"lat":37.47526,"lon":126.6381,"countryCode":"KR"},{"name":"Hotel Skypark Dongdaemun 1","asciiName":"Hotel Skypark Dongdaemun 1","alternatenames":[],"lat":37.564,"lon":127.002,"countryCode":"KR"},{"name":"Ibiza Hotel","asciiName":"Ibiza Hotel","alternatenames":[],"lat":33.486,"lon":126.483,"countryCode":"KR"},{"name":"Ramada Encore Dongdaemun","asciiName":"Ramada Encore Dongdaemun","alternatenames":[],"lat":37.577,"lon":127.026,"countryCode":"KR"},{"name":"Hotel The Designers Jongro","asciiName":"Hotel The Designers Jongro","alternatenames":[],"lat":37.569,"lon":126.989,"countryCode":"KR"},{"name":"Hotel Eastern I","asciiName":"Hotel Eastern I","alternatenames":[],"lat":37.499,"lon":127.033,"countryCode":"KR"},{"name":"The Island Blue Hotel","asciiName":"The Island Blue Hotel","alternatenames":[],"lat":33.246,"lon":126.566,"countryCode":"KR"},{"name":"Marevo Resort","asciiName":"Marevo Resort","alternatenames":[],"lat":33.471,"lon":126.354,"countryCode":"KR"},{"name":"Hanwha Resort Seorak Sorano","asciiName":"Hanwha Resort Seorak Sorano","alternatenames":[],"lat":38.2106,"lon":128.52859,"countryCode":"KR"},{"name":"Gaeul Sinchon","asciiName":"Gaeul Sinchon","alternatenames":[],"lat":37.5567,"lon":126.93796,"countryCode":"KR"},{"name":"Amare Hotel Jongno","asciiName":"Amare Hotel Jongno","alternatenames":[],"lat":37.57135,"lon":126.98978,"countryCode":"KR"},{"name":"Boom Tourist Hotel","asciiName":"Boom Tourist Hotel","alternatenames":[],"lat":37.54858,"lon":126.8196,"countryCode":"KR"},{"name":"Incheon Airport Global Guesthouse","asciiName":"Incheon Airport Global Guesthouse","alternatenames":[],"lat":37.43894,"lon":126.46281,"countryCode":"KR"},{"name":"Hanwha Resort Gyeongju","asciiName":"Hanwha Resort Gyeongju","alternatenames":[],"lat":35.85946,"lon":129.26996,"countryCode":"KR"},{"name":"Dongdaemun House","asciiName":"Dongdaemun House","alternatenames":[],"lat":37.57508,"lon":127.02743,"countryCode":"KR"},{"name":"Baiton Hotel","asciiName":"Baiton Hotel","alternatenames":[],"lat":37.56533,"lon":127.00278,"countryCode":"KR"},{"name":"Goodstay New Grand Hotel","asciiName":"Goodstay New Grand Hotel","alternatenames":[],"lat":35.87608,"lon":128.59777,"countryCode":"KR"},{"name":"Kunoh Seacloud Hotel","asciiName":"Kunoh Seacloud Hotel","alternatenames":[],"lat":35.16041,"lon":129.16215,"countryCode":"KR"},{"name":"The Sun Hotel Busan","asciiName":"The Sun Hotel Busan","alternatenames":[],"lat":35.1618,"lon":129.15754,"countryCode":"KR"},{"name":"Sum Hostel Nampo","asciiName":"Sum Hostel Nampo","alternatenames":[],"lat":35.09892,"lon":129.03396,"countryCode":"KR"},{"name":"Elysee Motel","asciiName":"Elysee Motel","alternatenames":[],"lat":35.10103,"lon":129.03399,"countryCode":"KR"},{"name":"Busan Hotel Amare","asciiName":"Busan Hotel Amare","alternatenames":[],"lat":35.18641,"lon":129.07864,"countryCode":"KR"},{"name":"Benikea Riviera Haeundae","asciiName":"Benikea Riviera Haeundae","alternatenames":[],"lat":35.16236,"lon":129.1613,"countryCode":"KR"},{"name":"Aroma Busan","asciiName":"Aroma Busan","alternatenames":[],"lat":35.09971,"lon":129.03416,"countryCode":"KR"},{"name":"Venezia Tourist Hotel","asciiName":"Venezia Tourist Hotel","alternatenames":[],"lat":37.50616,"lon":127.03407,"countryCode":"KR"},{"name":"Petra Hotel","asciiName":"Petra Hotel","alternatenames":[],"lat":37.51789,"lon":126.91016,"countryCode":"KR"},{"name":"Gangseo Int Residence","asciiName":"Gangseo Int Residence","alternatenames":[],"lat":37.55355,"lon":126.85048,"countryCode":"KR"},{"name":"Gangnam Chocolate Hotel","asciiName":"Gangnam Chocolate Hotel","alternatenames":[],"lat":37.49722,"lon":127.02931,"countryCode":"KR"},{"name":"Little France Hotel","asciiName":"Little France Hotel","alternatenames":[],"lat":33.24558,"lon":126.56261,"countryCode":"KR"},{"name":"Kensington Jeju Hotel","asciiName":"Kensington Jeju Hotel","alternatenames":[],"lat":33.25255,"lon":126.40803,"countryCode":"KR"},{"name":"Jeju Jungmun Village","asciiName":"Jeju Jungmun Village","alternatenames":[],"lat":33.24279,"lon":126.38517,"countryCode":"KR"},{"name":"Jeju Aria Hotel","asciiName":"Jeju Aria Hotel","alternatenames":[],"lat":33.25581,"lon":126.4151,"countryCode":"KR"},{"name":"Hotel Good Inn","asciiName":"Hotel Good Inn","alternatenames":[],"lat":33.24675,"lon":126.56587,"countryCode":"KR"},{"name":"Feliz Town","asciiName":"Feliz Town","alternatenames":[],"lat":33.47446,"lon":126.90804,"countryCode":"KR"},{"name":"Bareve","asciiName":"Bareve","alternatenames":[],"lat":33.25273,"lon":126.5067,"countryCode":"KR"},{"name":"Orange Tree Hotel & Cafe","asciiName":"Orange Tree Hotel & Cafe","alternatenames":[],"lat":33.51234,"lon":126.52453,"countryCode":"KR"},{"name":"Mj Hotel","asciiName":"Mj Hotel","alternatenames":[],"lat":33.48902,"lon":126.48847,"countryCode":"KR"},{"name":"Goodstay Ej Hotel","asciiName":"Goodstay Ej Hotel","alternatenames":[],"lat":33.48929,"lon":126.48745,"countryCode":"KR"},{"name":"Four Seasons Hotel Jeju","asciiName":"Four Seasons Hotel Jeju","alternatenames":[],"lat":33.4864,"lon":126.48407,"countryCode":"KR"},{"name":"Echae Boutique Hotel Jeju","asciiName":"Echae Boutique Hotel Jeju","alternatenames":[],"lat":33.489,"lon":126.49543,"countryCode":"KR"},{"name":"Dreaming Forest Pension","asciiName":"Dreaming Forest Pension","alternatenames":[],"lat":33.24746,"lon":126.53982,"countryCode":"KR"},{"name":"December Jeju","asciiName":"December Jeju","alternatenames":[],"lat":33.49031,"lon":126.48973,"countryCode":"KR"},{"name":"Boutique Villa De Aewol","asciiName":"Boutique Villa De Aewol","alternatenames":[],"lat":33.47707,"lon":126.36019,"countryCode":"KR"},{"name":"Benikea Marina Tourist","asciiName":"Benikea Marina Tourist","alternatenames":[],"lat":33.49329,"lon":126.4973,"countryCode":"KR"},{"name":"Atnoon Jeju","asciiName":"Atnoon Jeju","alternatenames":[],"lat":33.48936,"lon":126.49506,"countryCode":"KR"},{"name":"Zip Hotel","asciiName":"Zip Hotel","alternatenames":[],"lat":37.47947,"lon":126.95297,"countryCode":"KR"},{"name":"Unique Hotel","asciiName":"Unique Hotel","alternatenames":[],"lat":37.60371,"lon":127.06225,"countryCode":"KR"},{"name":"Tobin Tourist Hotel","asciiName":"Tobin Tourist Hotel","alternatenames":[],"lat":37.56654,"lon":126.97797,"countryCode":"KR"},{"name":"Time Hotel Shinchon","asciiName":"Time Hotel Shinchon","alternatenames":[],"lat":37.55692,"lon":126.94209,"countryCode":"KR"},{"name":"Time Hotel Hwagok","asciiName":"Time Hotel Hwagok","alternatenames":[],"lat":37.52966,"lon":126.84198,"countryCode":"KR"},{"name":"The Hotel Uijengbu","asciiName":"The Hotel Uijengbu","alternatenames":[],"lat":37.737,"lon":127.04157,"countryCode":"KR"},{"name":"The Grand Hotel Myeongdong","asciiName":"The Grand Hotel Myeongdong","alternatenames":[],"lat":37.56162,"lon":126.98714,"countryCode":"KR"},{"name":"Stay In Gam Jongno Hostel","asciiName":"Stay In Gam Jongno Hostel","alternatenames":[],"lat":37.57685,"lon":126.99081,"countryCode":"KR"},{"name":"Sunbee Insadong","asciiName":"Sunbee Insadong","alternatenames":[],"lat":37.57305,"lon":126.98476,"countryCode":"KR"},{"name":"Skypark Dongdaemun I","asciiName":"Skypark Dongdaemun I","alternatenames":[],"lat":37.56415,"lon":127.00208,"countryCode":"KR"},{"name":"Sky Motel Jongno","asciiName":"Sky Motel Jongno","alternatenames":[],"lat":37.57121,"lon":126.9896,"countryCode":"KR"},{"name":"Shinchon S Hotel","asciiName":"Shinchon S Hotel","alternatenames":[],"lat":37.55361,"lon":126.93509,"countryCode":"KR"},{"name":"Shinchon Hostel","asciiName":"Shinchon Hostel","alternatenames":[],"lat":37.55782,"lon":126.94401,"countryCode":"KR"},{"name":"Shinchon Blue Motel","asciiName":"Shinchon Blue Motel","alternatenames":[],"lat":37.55313,"lon":126.93635,"countryCode":"KR"},{"name":"Seoul 53 Hotel","asciiName":"Seoul 53 Hotel","alternatenames":[],"lat":37.57495,"lon":126.98937,"countryCode":"KR"},{"name":"Rainbow Hotel Hwagok","asciiName":"Rainbow Hotel Hwagok","alternatenames":[],"lat":37.52964,"lon":126.84178,"countryCode":"KR"},{"name":"Queen 21 Hotel Sinchon","asciiName":"Queen 21 Hotel Sinchon","alternatenames":[],"lat":37.55635,"lon":126.93765,"countryCode":"KR"},{"name":"Pop Itaewon Guesthouse","asciiName":"Pop Itaewon Guesthouse","alternatenames":[],"lat":37.53369,"lon":126.98941,"countryCode":"KR"},{"name":"Piano Hotel","asciiName":"Piano Hotel","alternatenames":[],"lat":37.56654,"lon":126.97797,"countryCode":"KR"},{"name":"Pencil 5 Hostel","asciiName":"Pencil 5 Hostel","alternatenames":[],"lat":37.61691,"lon":126.92431,"countryCode":"KR"},{"name":"Orange County Sinchon","asciiName":"Orange County Sinchon","alternatenames":[],"lat":37.55664,"lon":126.9395,"countryCode":"KR"},{"name":"Oppa Hostel","asciiName":"Oppa Hostel","alternatenames":[],"lat":37.55766,"lon":126.94364,"countryCode":"KR"},{"name":"Noo Noo Hotel Jongno","asciiName":"Noo Noo Hotel Jongno","alternatenames":[],"lat":37.57092,"lon":126.98983,"countryCode":"KR"},{"name":"New Myeongdong Guesthouse","asciiName":"New Myeongdong Guesthouse","alternatenames":[],"lat":37.55888,"lon":126.98357,"countryCode":"KR"},{"name":"Mvl Hotel Kintex","asciiName":"Mvl Hotel Kintex","alternatenames":[],"lat":37.56654,"lon":126.97797,"countryCode":"KR"},{"name":"Mong Hotel Jongno","asciiName":"Mong Hotel Jongno","alternatenames":[],"lat":37.56882,"lon":126.98861,"countryCode":"KR"},{"name":"Mizo Hotel","asciiName":"Mizo Hotel","alternatenames":[],"lat":37.56156,"lon":126.98541,"countryCode":"KR"},{"name":"Mi House","asciiName":"Mi House","alternatenames":[],"lat":37.57703,"lon":127.02293,"countryCode":"KR"},{"name":"Maru Guesthouse Seoul Station","asciiName":"Maru Guesthouse Seoul Station","alternatenames":[],"lat":37.54975,"lon":126.96921,"countryCode":"KR"},{"name":"Maru Guesthouse Myeongdong","asciiName":"Maru Guesthouse Myeongdong","alternatenames":[],"lat":37.56181,"lon":126.9782,"countryCode":"KR"},{"name":"Lex Tourist Hotel","asciiName":"Lex Tourist Hotel","alternatenames":[],"lat":37.51436,"lon":127.02022,"countryCode":"KR"},{"name":"Lemon Tree Hotel Jongno","asciiName":"Lemon Tree Hotel Jongno","alternatenames":[],"lat":37.57238,"lon":126.99106,"countryCode":"KR"},{"name":"La Nuit Hotel Shinchon","asciiName":"La Nuit Hotel Shinchon","alternatenames":[],"lat":37.55347,"lon":126.93615,"countryCode":"KR"},{"name":"Jongno Cutee Hotel","asciiName":"Jongno Cutee Hotel","alternatenames":[],"lat":37.57191,"lon":126.98956,"countryCode":"KR"},{"name":"Jongno Aubeson Hotel","asciiName":"Jongno Aubeson Hotel","alternatenames":[],"lat":37.5764,"lon":126.98955,"countryCode":"KR"},{"name":"Jelly Hotel Seoul","asciiName":"Jelly Hotel Seoul","alternatenames":[],"lat":37.49991,"lon":127.03186,"countryCode":"KR"},{"name":"J Hill Hotel Myeongdong","asciiName":"J Hill Hotel Myeongdong","alternatenames":[],"lat":37.56371,"lon":126.985,"countryCode":"KR"},{"name":"Imt Hotel 2 Jamsil","asciiName":"Imt Hotel 2 Jamsil","alternatenames":[],"lat":37.53719,"lon":127.1382,"countryCode":"KR"},{"name":"Imt Hotel 1 Jamsil","asciiName":"Imt Hotel 1 Jamsil","alternatenames":[],"lat":37.53767,"lon":127.13822,"countryCode":"KR"},{"name":"Hotelette Seoul Station","asciiName":"Hotelette Seoul Station","alternatenames":[],"lat":37.55465,"lon":126.9738,"countryCode":"KR"},{"name":"Hotel Aropa Namdaemun","asciiName":"Hotel Aropa Namdaemun","alternatenames":[],"lat":37.56297,"lon":126.97807,"countryCode":"KR"},{"name":"Hotel Argo","asciiName":"Hotel Argo","alternatenames":[],"lat":37.53608,"lon":127.13684,"countryCode":"KR"},{"name":"Hip Hotel Shinchon","asciiName":"Hip Hotel Shinchon","alternatenames":[],"lat":37.5569,"lon":126.9413,"countryCode":"KR"},{"name":"Grandprix Motel Shinchon","asciiName":"Grandprix Motel Shinchon","alternatenames":[],"lat":37.55423,"lon":126.93619,"countryCode":"KR"},{"name":"Go Korea Guest House","asciiName":"Go Korea Guest House","alternatenames":[],"lat":37.56101,"lon":127.00312,"countryCode":"KR"},{"name":"Estay Gangnam","asciiName":"Estay Gangnam","alternatenames":[],"lat":37.5012,"lon":127.02432,"countryCode":"KR"},{"name":"Cms-Inn Seoul","asciiName":"Cms-Inn Seoul","alternatenames":[],"lat":37.56654,"lon":126.97797,"countryCode":"KR"},{"name":"City Park Hotel Jongno","asciiName":"City Park Hotel Jongno","alternatenames":[],"lat":37.57686,"lon":126.98991,"countryCode":"KR"},{"name":"Centermark Hotel Seoul","asciiName":"Centermark Hotel Seoul","alternatenames":[],"lat":37.57255,"lon":126.9842,"countryCode":"KR"},{"name":"Cello Hotel Songpa","asciiName":"Cello Hotel Songpa","alternatenames":[],"lat":37.5159,"lon":127.1096,"countryCode":"KR"},{"name":"Cello Hotel Seocho","asciiName":"Cello Hotel Seocho","alternatenames":[],"lat":37.48618,"lon":127.01322,"countryCode":"KR"},{"name":"Benhur Motel Jongno","asciiName":"Benhur Motel Jongno","alternatenames":[],"lat":37.5716,"lon":127.00012,"countryCode":"KR"},{"name":"Banyan Tree Club And Spa","asciiName":"Banyan Tree Club And Spa","alternatenames":[],"lat":37.55078,"lon":127.00098,"countryCode":"KR"},{"name":"Lotte Seoul (Main Wing)","asciiName":"Lotte Seoul (Main Wing)","alternatenames":[],"lat":37.56535,"lon":126.98054,"countryCode":"KR"},{"name":"Novotel Seoul Ambassador Doksan (Exec)","asciiName":"Novotel Seoul Ambassador Doksan (Exec)","alternatenames":[],"lat":37.46753,"lon":126.89835,"countryCode":"KR"},{"name":"Green Grass","asciiName":"Green Grass","alternatenames":[],"lat":37.50576,"lon":127.05018,"countryCode":"KR"},{"name":"Dsbc Seoul","asciiName":"Dsbc Seoul","alternatenames":[],"lat":37.536,"lon":126.902,"countryCode":"KR"},{"name":"Uljiro Co Op Residence (Twin)","asciiName":"Uljiro Co Op Residence (Twin)","alternatenames":[],"lat":37.56625,"lon":127.00545,"countryCode":"KR"},{"name":"Elle Inn Hotel","asciiName":"Elle Inn Hotel","alternatenames":[],"lat":37.54035,"lon":126.97217,"countryCode":"KR"},{"name":"M Biz","asciiName":"M Biz","alternatenames":[],"lat":37.51421,"lon":127.05649,"countryCode":"KR"},{"name":"Hostel Korea Changdeokgung","asciiName":"Hostel Korea Changdeokgung","alternatenames":[],"lat":37.576,"lon":126.99,"countryCode":"KR"},{"name":"Tria Business & Boutique Hotel","asciiName":"Tria Business & Boutique Hotel","alternatenames":[],"lat":37.50283,"lon":127.03938,"countryCode":"KR"},{"name":"Plex Hotel","asciiName":"Plex Hotel","alternatenames":[],"lat":37.51004,"lon":127.08054,"countryCode":"KR"},{"name":"New Hilltop Hotel","asciiName":"New Hilltop Hotel","alternatenames":[],"lat":37.51112,"lon":127.0314,"countryCode":"KR"},{"name":"Fraser Place Namdaemun","asciiName":"Fraser Place Namdaemun","alternatenames":[],"lat":37.56022,"lon":126.97526,"countryCode":"KR"},{"name":"Jj Inn","asciiName":"Jj Inn","alternatenames":[],"lat":35.161,"lon":129.158,"countryCode":"KR"},{"name":"Film 37.2 Hotel","asciiName":"Film 37.2 Hotel","alternatenames":[],"lat":37.55723,"lon":126.97933,"countryCode":"KR"},{"name":"Hotel Foret Haeundae","asciiName":"Hotel Foret Haeundae","alternatenames":[],"lat":35.161,"lon":129.16,"countryCode":"KR"},{"name":"New Island Hotel","asciiName":"New Island Hotel","alternatenames":[],"lat":33.48429,"lon":126.48949,"countryCode":"KR"},{"name":"Jeju Airport Hotel","asciiName":"Jeju Airport Hotel","alternatenames":[],"lat":33.491,"lon":126.489,"countryCode":"KR"},{"name":"Ws","asciiName":"Ws","alternatenames":[],"lat":37.55478,"lon":126.93531,"countryCode":"KR"},{"name":"W Jamsil","asciiName":"W Jamsil","alternatenames":[],"lat":37.51121,"lon":127.08341,"countryCode":"KR"},{"name":"Vole","asciiName":"Vole","alternatenames":[],"lat":37.50694,"lon":127.03325,"countryCode":"KR"},{"name":"Vogue","asciiName":"Vogue","alternatenames":[],"lat":37.55308,"lon":126.93595,"countryCode":"KR"},{"name":"Viv","asciiName":"Viv","alternatenames":[],"lat":37.56949,"lon":127.06941,"countryCode":"KR"},{"name":"Vestin Residence Myeong-Dong Guesthouse","asciiName":"Vestin Residence Myeong-Dong Guesthouse","alternatenames":[],"lat":37.5603,"lon":126.98724,"countryCode":"KR"},{"name":"The View","asciiName":"The View","alternatenames":[],"lat":37.51626,"lon":127.1122,"countryCode":"KR"},{"name":"Stella Boutique 2","asciiName":"Stella Boutique 2","alternatenames":[],"lat":37.50135,"lon":127.04077,"countryCode":"KR"},{"name":"Stay Simple","asciiName":"Stay Simple","alternatenames":[],"lat":37.5871,"lon":127.05236,"countryCode":"KR"},{"name":"Sinchon Y","asciiName":"Sinchon Y","alternatenames":[],"lat":37.55375,"lon":126.93631,"countryCode":"KR"},{"name":"Picasso","asciiName":"Picasso","alternatenames":[],"lat":37.57128,"lon":126.98996,"countryCode":"KR"},{"name":"Oslo Seocho","asciiName":"Oslo Seocho","alternatenames":[],"lat":37.48628,"lon":127.01365,"countryCode":"KR"},{"name":"Nox Hotel","asciiName":"Nox Hotel","alternatenames":[],"lat":37.50268,"lon":127.03977,"countryCode":"KR"},{"name":"Nostalgia","asciiName":"Nostalgia","alternatenames":[],"lat":37.55519,"lon":126.85261,"countryCode":"KR"},{"name":"New Cheonji Hotel","asciiName":"New Cheonji Hotel","alternatenames":[],"lat":37.56523,"lon":126.97805,"countryCode":"KR"},{"name":"Mayfield Suite","asciiName":"Mayfield Suite","alternatenames":[],"lat":37.5474,"lon":126.81945,"countryCode":"KR"},{"name":"Max Hotel","asciiName":"Max Hotel","alternatenames":[],"lat":37.50281,"lon":127.04052,"countryCode":"KR"},{"name":"Mate Songpa","asciiName":"Mate Songpa","alternatenames":[],"lat":37.51611,"lon":127.11271,"countryCode":"KR"},{"name":"Mate Hotel Bundang","asciiName":"Mate Hotel Bundang","alternatenames":[],"lat":37.38593,"lon":127.12042,"countryCode":"KR"},{"name":"Manhattan","asciiName":"Manhattan","alternatenames":[],"lat":37.50279,"lon":127.04006,"countryCode":"KR"},{"name":"Kakao","asciiName":"Kakao","alternatenames":[],"lat":37.51745,"lon":126.91187,"countryCode":"KR"},{"name":"Jbis Tourist Hotel","asciiName":"Jbis Tourist Hotel","alternatenames":[],"lat":37.50493,"lon":127.05299,"countryCode":"KR"},{"name":"Icon Jongno","asciiName":"Icon Jongno","alternatenames":[],"lat":37.57482,"lon":126.98889,"countryCode":"KR"},{"name":"Hotel Star","asciiName":"Hotel Star","alternatenames":[],"lat":37.49952,"lon":127.03542,"countryCode":"KR"},{"name":"Hit Hotel","asciiName":"Hit Hotel","alternatenames":[],"lat":37.51115,"lon":127.07971,"countryCode":"KR"},{"name":"Hill Livingtel Yongsan","asciiName":"Hill Livingtel Yongsan","alternatenames":[],"lat":37.53515,"lon":126.96263,"countryCode":"KR"},{"name":"Happy Tears Amfree","asciiName":"Happy Tears Amfree","alternatenames":[],"lat":37.56919,"lon":127.06916,"countryCode":"KR"},{"name":"Hanliwu Residence","asciiName":"Hanliwu Residence","alternatenames":[],"lat":37.61999,"lon":126.91844,"countryCode":"KR"},{"name":"Goodstay Montblanc","asciiName":"Goodstay Montblanc","alternatenames":[],"lat":37.55305,"lon":126.93619,"countryCode":"KR"},{"name":"Good Time Hotel Seoul","asciiName":"Good Time Hotel Seoul","alternatenames":[],"lat":37.55805,"lon":126.94211,"countryCode":"KR"},{"name":"Fox","asciiName":"Fox","alternatenames":[],"lat":37.53907,"lon":127.12837,"countryCode":"KR"},{"name":"Euro Star","asciiName":"Euro Star","alternatenames":[],"lat":37.46942,"lon":126.89431,"countryCode":"KR"},{"name":"David","asciiName":"David","alternatenames":[],"lat":37.51103,"lon":127.07926,"countryCode":"KR"},{"name":"Daelim Residence","asciiName":"Daelim Residence","alternatenames":[],"lat":37.49873,"lon":126.88231,"countryCode":"KR"},{"name":"Cutee Hotel Coex","asciiName":"Cutee Hotel Coex","alternatenames":[],"lat":37.50619,"lon":127.05275,"countryCode":"KR"},{"name":"Coop Residence Hoegi","asciiName":"Coop Residence Hoegi","alternatenames":[],"lat":37.58955,"lon":127.05646,"countryCode":"KR"},{"name":"Cloud 9 Residence","asciiName":"Cloud 9 Residence","alternatenames":[],"lat":37.51749,"lon":126.91385,"countryCode":"KR"},{"name":"Cf Hotel","asciiName":"Cf Hotel","alternatenames":[],"lat":37.50123,"lon":127.04226,"countryCode":"KR"},{"name":"Cebien Hotel Guro","asciiName":"Cebien Hotel Guro","alternatenames":[],"lat":37.49625,"lon":126.84579,"countryCode":"KR"},{"name":"Cats Hotel","asciiName":"Cats Hotel","alternatenames":[],"lat":37.57304,"lon":126.98886,"countryCode":"KR"},{"name":"Beewon Guest House","asciiName":"Beewon Guest House","alternatenames":[],"lat":37.57591,"lon":126.99024,"countryCode":"KR"},{"name":"Art","asciiName":"Art","alternatenames":[],"lat":37.48663,"lon":127.01296,"countryCode":"KR"},{"name":"Ana","asciiName":"Ana","alternatenames":[],"lat":37.50119,"lon":127.04053,"countryCode":"KR"},{"name":"Alpha Guesthouse","asciiName":"Alpha Guesthouse","alternatenames":[],"lat":37.55262,"lon":126.93606,"countryCode":"KR"},{"name":"Adlige Hotel","asciiName":"Adlige Hotel","alternatenames":[],"lat":37.50088,"lon":127.03892,"countryCode":"KR"},{"name":"Daemyung Resort Danyang","asciiName":"Daemyung Resort Danyang","alternatenames":[],"lat":36.97688,"lon":128.36359,"countryCode":"KR"},{"name":"Lexvill Residence","asciiName":"Lexvill Residence","alternatenames":[],"lat":37.51045,"lon":127.07967,"countryCode":"KR"},{"name":"Park Hyatt Busan","asciiName":"Park Hyatt Busan","alternatenames":[],"lat":35.15745,"lon":129.14292,"countryCode":"KR"},{"name":"Youngjong Tourist","asciiName":"Youngjong Tourist","alternatenames":[],"lat":37.49435,"lon":126.53716,"countryCode":"KR"},{"name":"Winners Tourist","asciiName":"Winners Tourist","alternatenames":[],"lat":37.46192,"lon":126.36906,"countryCode":"KR"},{"name":"Harbor Park Hotel","asciiName":"Harbor Park Hotel","alternatenames":[],"lat":37.45197,"lon":126.4753,"countryCode":"KR"},{"name":"Capital Tourist","asciiName":"Capital Tourist","alternatenames":[],"lat":37.54458,"lon":126.71639,"countryCode":"KR"},{"name":"Kolon Hotel Gyeongju","asciiName":"Kolon Hotel Gyeongju","alternatenames":[],"lat":35.78759,"lon":129.32173,"countryCode":"KR"},{"name":"Sorak Park Hotel & Casino","asciiName":"Sorak Park Hotel & Casino","alternatenames":[],"lat":38.16984,"lon":128.48772,"countryCode":"KR"},{"name":"Holiday Inn Resort Alpensia Pyeongchang","asciiName":"Holiday Inn Resort Alpensia Pyeongchang","alternatenames":[],"lat":37.65841,"lon":128.66913,"countryCode":"KR"},{"name":"Holiday Inn Gwangju Korea","asciiName":"Holiday Inn Gwangju Korea","alternatenames":[],"lat":35.14755,"lon":126.83847,"countryCode":"KR"},{"name":"Skypark Central Myeongdong","asciiName":"Skypark Central Myeongdong","alternatenames":[],"lat":37.56463,"lon":126.98507,"countryCode":"KR"},{"name":"Homers","asciiName":"Homers","alternatenames":[],"lat":35.15349,"lon":129.11786,"countryCode":"KR"},{"name":"Hanwha Resort Jeju","asciiName":"Hanwha Resort Jeju","alternatenames":[],"lat":33.44827,"lon":126.63722,"countryCode":"KR"},{"name":"Seaworld Tourist Hotel","asciiName":"Seaworld Tourist Hotel","alternatenames":[],"lat":37.42714,"lon":126.4211,"countryCode":"KR"},{"name":"Hue Incheon Airport","asciiName":"Hue Incheon Airport","alternatenames":[],"lat":37.42642,"lon":126.4215,"countryCode":"KR"},{"name":"The Palace","asciiName":"The Palace","alternatenames":[],"lat":35.84219,"lon":128.59761,"countryCode":"KR"},{"name":"Samwonjang","asciiName":"Samwonjang","alternatenames":[],"lat":35.0974,"lon":129.03165,"countryCode":"KR"},{"name":"Goodstay Dongrae Oncheon Hotel","asciiName":"Goodstay Dongrae Oncheon Hotel","alternatenames":[],"lat":35.21345,"lon":129.07809,"countryCode":"KR"},{"name":"Aqua Palace","asciiName":"Aqua Palace","alternatenames":[],"lat":35.15417,"lon":129.11882,"countryCode":"KR"},{"name":"Conrad Seoul","asciiName":"Conrad Seoul","alternatenames":[],"lat":37.52514,"lon":126.92688,"countryCode":"KR"},{"name":"Jj House","asciiName":"Jj House","alternatenames":[],"lat":37.5606,"lon":126.99844,"countryCode":"KR"},{"name":"Hyatt Regency Incheon","asciiName":"Hyatt Regency Incheon","alternatenames":[],"lat":37.5666,"lon":126.6166,"countryCode":"KR"},{"name":"Human Starville Yeoksam","asciiName":"Human Starville Yeoksam","alternatenames":[],"lat":37.50645,"lon":127.03374,"countryCode":"KR"},{"name":"The Classic 500","asciiName":"The Classic 500","alternatenames":[],"lat":37.538,"lon":127.071,"countryCode":"KR"},{"name":"Sheraton Grand Walkerhill","asciiName":"Sheraton Grand Walkerhill","alternatenames":[],"lat":37.55523,"lon":127.11017,"countryCode":"KR"},{"name":"Suites Gyeongju","asciiName":"Suites Gyeongju","alternatenames":[],"lat":38.11492,"lon":128.83465,"countryCode":"KR"},{"name":"Vistas Premium Guest House","asciiName":"Vistas Premium Guest House","alternatenames":[],"lat":35.134,"lon":129.102,"countryCode":"KR"},{"name":"The Hotel Silkroad","asciiName":"The Hotel Silkroad","alternatenames":[],"lat":37.26662,"lon":127.02872,"countryCode":"KR"},{"name":"Han Suites Residence","asciiName":"Han Suites Residence","alternatenames":[],"lat":37.56738,"lon":126.97327,"countryCode":"KR"},{"name":"Cheongdam Human Star Ville","asciiName":"Cheongdam Human Star Ville","alternatenames":[],"lat":37.52376,"lon":127.04591,"countryCode":"KR"},{"name":"Lacasa","asciiName":"Lacasa","alternatenames":[],"lat":37.52207,"lon":127.01947,"countryCode":"KR"},{"name":"Karak Tourist Hotel","asciiName":"Karak Tourist Hotel","alternatenames":[],"lat":37.49385,"lon":127.11873,"countryCode":"KR"},{"name":"Courtyard By Marriott Seoul Times Square","asciiName":"Courtyard By Marriott Seoul Times Square","alternatenames":[],"lat":37.51743,"lon":126.90356,"countryCode":"KR"},{"name":"Artnouveau City Residence Iii","asciiName":"Artnouveau City Residence Iii","alternatenames":[],"lat":37.49613,"lon":127.02047,"countryCode":"KR"},{"name":"Toyoko Inn Jungangdong","asciiName":"Toyoko Inn Jungangdong","alternatenames":[],"lat":35.10959,"lon":129.03691,"countryCode":"KR"},{"name":"Lotte City Hotel Guro","asciiName":"Lotte City Hotel Guro","alternatenames":[],"lat":37.485,"lon":126.897,"countryCode":"KR"},{"name":"Mercure Ambassador Gangnam(Superior Dbl)","asciiName":"Mercure Ambassador Gangnam(Superior Dbl)","alternatenames":[],"lat":37.50122,"lon":127.03546,"countryCode":"KR"},{"name":"Mercure Ambassador Gangnam(Standard Dbl)","asciiName":"Mercure Ambassador Gangnam(Standard Dbl)","alternatenames":[],"lat":37.50122,"lon":127.03546,"countryCode":"KR"},{"name":"Holiday Inn Seongbuk","asciiName":"Holiday Inn Seongbuk","alternatenames":[],"lat":37.60097,"lon":127.03322,"countryCode":"KR"},{"name":"Bangbae Renaissance","asciiName":"Bangbae Renaissance","alternatenames":[],"lat":37.49715,"lon":126.9862,"countryCode":"KR"},{"name":"Hotel Factory","asciiName":"Hotel Factory","alternatenames":[],"lat":37.57213,"lon":126.98829,"countryCode":"KR"},{"name":"Street Myeong Dong","asciiName":"Street Myeong Dong","alternatenames":[],"lat":37.56704,"lon":126.99133,"countryCode":"KR"},{"name":"Hotel The Designers Hongdae","asciiName":"Hotel The Designers Hongdae","alternatenames":[],"lat":37.552,"lon":126.918,"countryCode":"KR"},{"name":"Hotel Biz Myeong-Dong","asciiName":"Hotel Biz Myeong-Dong","alternatenames":[],"lat":37.5651,"lon":126.99175,"countryCode":"KR"},{"name":"Hotel Illua","asciiName":"Hotel Illua","alternatenames":[],"lat":35.15995,"lon":129.17536,"countryCode":"KR"},{"name":"Gangnam Serviced Residence (Ex Dormy Inn)","asciiName":"Gangnam Serviced Residence (Ex Dormy Inn)","alternatenames":[],"lat":37.50645,"lon":127.03019,"countryCode":"KR"},{"name":"Ramada Hotel And Suites Seoul Namdaemun","asciiName":"Ramada Hotel And Suites Seoul Namdaemun","alternatenames":[],"lat":37.56251,"lon":126.97061,"countryCode":"KR"},{"name":"Nongshim Hotel & Spa","asciiName":"Nongshim Hotel & Spa","alternatenames":[],"lat":35.21313,"lon":129.06587,"countryCode":"KR"},{"name":"Novotel Seoul Ambassador Gangnam","asciiName":"Novotel Seoul Ambassador Gangnam","alternatenames":[],"lat":37.50526,"lon":127.02883,"countryCode":"KR"},{"name":"Valentine","asciiName":"Valentine","alternatenames":[],"lat":37.47221,"lon":126.89636,"countryCode":"KR"},{"name":"Tiffany Tourist","asciiName":"Tiffany Tourist","alternatenames":[],"lat":37.5214,"lon":127.05685,"countryCode":"KR"},{"name":"Mate Tourist","asciiName":"Mate Tourist","alternatenames":[],"lat":37.52999,"lon":126.84084,"countryCode":"KR"},{"name":"Hotel M","asciiName":"Hotel M","alternatenames":[],"lat":37.52969,"lon":126.91961,"countryCode":"KR"},{"name":"Life Style F Hotel","asciiName":"Life Style F Hotel","alternatenames":[],"lat":37.51721,"lon":126.91167,"countryCode":"KR"},{"name":"Vabien Suite 2 Residence","asciiName":"Vabien Suite 2 Residence","alternatenames":[],"lat":37.57252,"lon":126.97327,"countryCode":"KR"},{"name":"Vabien Suite 1 Residence","asciiName":"Vabien Suite 1 Residence","alternatenames":[],"lat":37.56312,"lon":126.98305,"countryCode":"KR"},{"name":"Ramada Hotel & Suites Seoul Namdaemun","asciiName":"Ramada Hotel & Suites Seoul Namdaemun","alternatenames":[],"lat":37.5813,"lon":126.99888,"countryCode":"KR"},{"name":"Co-Op Residence Ohmokgyo","asciiName":"Co-Op Residence Ohmokgyo","alternatenames":[],"lat":37.52593,"lon":126.91038,"countryCode":"KR"},{"name":"Best Western Niagara","asciiName":"Best Western Niagara","alternatenames":[],"lat":37.5478,"lon":126.87882,"countryCode":"KR"},{"name":"Travellers","asciiName":"Travellers","alternatenames":[],"lat":33.24508,"lon":126.56653,"countryCode":"KR"},{"name":"Incheon Beach","asciiName":"Incheon Beach","alternatenames":[],"lat":37.45114,"lon":126.37165,"countryCode":"KR"},{"name":"Hotel Queen Incheon Airport","asciiName":"Hotel Queen Incheon Airport","alternatenames":[],"lat":37.49451,"lon":126.49159,"countryCode":"KR"},{"name":"Best Western Premier Incheon Airport","asciiName":"Best Western Premier Incheon Airport","alternatenames":[],"lat":37.43859,"lon":126.46026,"countryCode":"KR"},{"name":"Novotel City Center","asciiName":"Novotel City Center","alternatenames":[],"lat":35.87105,"lon":128.59802,"countryCode":"KR"},{"name":"T.H.E Hotel & Vegas Casino Jeju","asciiName":"T.H.E Hotel & Vegas Casino Jeju","alternatenames":[],"lat":33.49012,"lon":126.49399,"countryCode":"KR"},{"name":"Best Western Premier Seoul Gardens Hotel","asciiName":"Best Western Premier Seoul Gardens Hotel","alternatenames":[],"lat":37.54072,"lon":126.94808,"countryCode":"KR"},{"name":"Incheon Airport Hotel June","asciiName":"Incheon Airport Hotel June","alternatenames":[],"lat":37.47526,"lon":126.6381,"countryCode":"KR"},{"name":"Ramada Seoul Dongdaemu Hotel","asciiName":"Ramada Seoul Dongdaemu Hotel","alternatenames":[],"lat":37.56591,"lon":127.00275,"countryCode":"KR"},{"name":"J Hill S","asciiName":"J Hill S","alternatenames":[],"lat":37.56375,"lon":126.98508,"countryCode":"KR"},{"name":"Ibis Ambassador Insadong Double","asciiName":"Ibis Ambassador Insadong Double","alternatenames":[],"lat":37.57437,"lon":126.98944,"countryCode":"KR"},{"name":"Ibis Ambassador Insadong Twin","asciiName":"Ibis Ambassador Insadong Twin","alternatenames":[],"lat":37.57437,"lon":126.98944,"countryCode":"KR"},{"name":"Holiday Inn Resort Alpensia Py","asciiName":"Holiday Inn Resort Alpensia Py","alternatenames":[],"lat":37.65841,"lon":128.66913,"countryCode":"KR"},{"name":"The Suite Place Serviced Residences","asciiName":"The Suite Place Serviced Residences","alternatenames":[],"lat":37.25491,"lon":127.01289,"countryCode":"KR"},{"name":"Korea Tourist Hotel","asciiName":"Korea Tourist Hotel","alternatenames":[],"lat":37.2643,"lon":127.02897,"countryCode":"KR"},{"name":"The Forest Hostel","asciiName":"The Forest Hostel","alternatenames":[],"lat":33.514,"lon":126.527,"countryCode":"KR"},{"name":"Ng Bang Motel","asciiName":"Ng Bang Motel","alternatenames":[],"lat":37.575,"lon":126.984,"countryCode":"KR"},{"name":"Haeundae Glory Condo","asciiName":"Haeundae Glory Condo","alternatenames":[],"lat":35.1595,"lon":129.15794,"countryCode":"KR"},{"name":"Angel Hotel","asciiName":"Angel Hotel","alternatenames":[],"lat":35.15397,"lon":129.06188,"countryCode":"KR"},{"name":"Concorde","asciiName":"Concorde","alternatenames":[],"lat":35.85254,"lon":129.27711,"countryCode":"KR"},{"name":"Casaville Residence Shinchon","asciiName":"Casaville Residence Shinchon","alternatenames":[],"lat":37.50717,"lon":127.06149,"countryCode":"KR"},{"name":"Skypark Myeongdong I","asciiName":"Skypark Myeongdong I","alternatenames":[],"lat":37.56122,"lon":126.9841,"countryCode":"KR"},{"name":"Skypark Myeongdong Iii","asciiName":"Skypark Myeongdong Iii","alternatenames":[],"lat":37.56125,"lon":126.98728,"countryCode":"KR"},{"name":"Blooming House Serviced Residence","asciiName":"Blooming House Serviced Residence","alternatenames":[],"lat":37.5008,"lon":127.03896,"countryCode":"KR"},{"name":"Novotel Ambassador Gangnam Seoul","asciiName":"Novotel Ambassador Gangnam Seoul","alternatenames":[],"lat":37.30189,"lon":127.14378,"countryCode":"KR"},{"name":"Ulji-Ro Co-Op Residence","asciiName":"Ulji-Ro Co-Op Residence","alternatenames":[],"lat":37.56617,"lon":127.00538,"countryCode":"KR"},{"name":"Sinchon Casaville Residence","asciiName":"Sinchon Casaville Residence","alternatenames":[],"lat":37.55457,"lon":126.9356,"countryCode":"KR"},{"name":"Rainbow Itaewon","asciiName":"Rainbow Itaewon","alternatenames":[],"lat":37.54144,"lon":126.97212,"countryCode":"KR"},{"name":"Seogyo","asciiName":"Seogyo","alternatenames":[],"lat":37.55449,"lon":126.92122,"countryCode":"KR"},{"name":"Mare Dongdaemun","asciiName":"Mare Dongdaemun","alternatenames":[],"lat":37.56356,"lon":127.0576,"countryCode":"KR"},{"name":"Fraser Suites Insadong Seoul","asciiName":"Fraser Suites Insadong Seoul","alternatenames":[],"lat":37.57234,"lon":126.98736,"countryCode":"KR"},{"name":"Saerim Hotel Insadong","asciiName":"Saerim Hotel Insadong","alternatenames":[],"lat":37.57337,"lon":126.98467,"countryCode":"KR"},{"name":"2Nd Casa Design Residence","asciiName":"2Nd Casa Design Residence","alternatenames":[],"lat":37.56547,"lon":126.99163,"countryCode":"KR"},{"name":"The Grand Suite Residence Seoul","asciiName":"The Grand Suite Residence Seoul","alternatenames":[],"lat":37.58878,"lon":126.93461,"countryCode":"KR"},{"name":"Fox","asciiName":"Fox","alternatenames":[],"lat":37.48293,"lon":126.95456,"countryCode":"KR"},{"name":"Seven Street Seoul","asciiName":"Seven Street Seoul","alternatenames":[],"lat":37.56861,"lon":126.99089,"countryCode":"KR"},{"name":"Staz Hotel Myeongdong I (Ex) Sutton Hotel","asciiName":"Staz Hotel Myeongdong I (Ex) Sutton Hotel","alternatenames":[],"lat":37.56719,"lon":126.99135,"countryCode":"KR"},{"name":"Manu Namdaemun","asciiName":"Manu Namdaemun","alternatenames":[],"lat":37.5571,"lon":126.97484,"countryCode":"KR"},{"name":"Seocho Artnouveau City Iii","asciiName":"Seocho Artnouveau City Iii","alternatenames":[],"lat":37.49614,"lon":127.02046,"countryCode":"KR"},{"name":"New Cheonji Hotel Seoul","asciiName":"New Cheonji Hotel Seoul","alternatenames":[],"lat":37.56588,"lon":127.00333,"countryCode":"KR"},{"name":"The Designers Coex","asciiName":"The Designers Coex","alternatenames":[],"lat":37.50733,"lon":127.05504,"countryCode":"KR"},{"name":"Hotel Hu Incheon Airport","asciiName":"Hotel Hu Incheon Airport","alternatenames":[],"lat":37.43888,"lon":126.46104,"countryCode":"KR"},{"name":"Hyundai Hotel Ulsan","asciiName":"Hyundai Hotel Ulsan","alternatenames":[],"lat":35.51961,"lon":129.43036,"countryCode":"KR"},{"name":"Vestin Villa Myeong-Dong Guest House","asciiName":"Vestin Villa Myeong-Dong Guest House","alternatenames":[],"lat":37.55767,"lon":126.98514,"countryCode":"KR"},{"name":"Kensington Flora","asciiName":"Kensington Flora","alternatenames":[],"lat":37.37047,"lon":128.38998,"countryCode":"KR"},{"name":"The Kensington Stars Hotel","asciiName":"The Kensington Stars Hotel","alternatenames":[],"lat":38.17829,"lon":128.49707,"countryCode":"KR"},{"name":"Benikea Swiss Rosen","asciiName":"Benikea Swiss Rosen","alternatenames":[],"lat":35.84038,"lon":129.29241,"countryCode":"KR"},{"name":"Pullman Ambassador City 7 Changwon","asciiName":"Pullman Ambassador City 7 Changwon","alternatenames":[],"lat":35.23988,"lon":128.65211,"countryCode":"KR"},{"name":"Suites Hotel Jeju","asciiName":"Suites Hotel Jeju","alternatenames":[],"lat":33.24885,"lon":126.40818,"countryCode":"KR"},{"name":"Skypark Jeju I","asciiName":"Skypark Jeju I","alternatenames":[],"lat":33.48941,"lon":126.49197,"countryCode":"KR"},{"name":"The Central Park Hotel Songdo","asciiName":"The Central Park Hotel Songdo","alternatenames":[],"lat":37.38816,"lon":126.64079,"countryCode":"KR"},{"name":"Hotel Foret Busan Station","asciiName":"Hotel Foret Busan Station","alternatenames":[],"lat":35.17955,"lon":129.07564,"countryCode":"KR"},{"name":"Viv Classic Hotel","asciiName":"Viv Classic Hotel","alternatenames":[],"lat":37.56817,"lon":127.06941,"countryCode":"KR"},{"name":"Ibis Budget Seoul Dongdaemun","asciiName":"Ibis Budget Seoul Dongdaemun","alternatenames":[],"lat":37.56513,"lon":127.0053,"countryCode":"KR"},{"name":"Hotel The Designers Jongno","asciiName":"Hotel The Designers Jongno","alternatenames":[],"lat":37.56955,"lon":126.98924,"countryCode":"KR"},{"name":"Stay B Hotel Myeongdong","asciiName":"Stay B Hotel Myeongdong","alternatenames":[],"lat":37.56325,"lon":126.99279,"countryCode":"KR"},{"name":"Inn The City Serviced Residence Coex","asciiName":"Inn The City Serviced Residence Coex","alternatenames":[],"lat":37.50321,"lon":127.04008,"countryCode":"KR"},{"name":"Brown Suites Seoul","asciiName":"Brown Suites Seoul","alternatenames":[],"lat":37.56112,"lon":126.96804,"countryCode":"KR"},{"name":"Cozy Myoung Dong","asciiName":"Cozy Myoung Dong","alternatenames":[],"lat":37.56077,"lon":126.9794,"countryCode":"KR"},{"name":"Mercure Ambassador Sodowe","asciiName":"Mercure Ambassador Sodowe","alternatenames":[],"lat":37.50122,"lon":127.03546,"countryCode":"KR"},{"name":"Bali Turístico","asciiName":"Bali Turistico","alternatenames":[],"lat":37.52905,"lon":127.13499,"countryCode":"KR"},{"name":"Ip Boutique Hotel Itaewon","asciiName":"Ip Boutique Hotel Itaewon","alternatenames":[],"lat":37.53558,"lon":126.99842,"countryCode":"KR"},{"name":"Coatel Chereville","asciiName":"Coatel Chereville","alternatenames":[],"lat":37.49394,"lon":127.02794,"countryCode":"KR"},{"name":"Staz Myeongdong 1","asciiName":"Staz Myeongdong 1","alternatenames":[],"lat":37.56701,"lon":126.99132,"countryCode":"KR"},{"name":"Seven Stree Seoul","asciiName":"Seven Stree Seoul","alternatenames":[],"lat":37.56857,"lon":126.99072,"countryCode":"KR"},{"name":"Hotel Grammos Seoul","asciiName":"Hotel Grammos Seoul","alternatenames":[],"lat":37.50254,"lon":127.03985,"countryCode":"KR"},{"name":"Yellow Brick Hotel 1","asciiName":"Yellow Brick Hotel 1","alternatenames":[],"lat":37.5746,"lon":126.98946,"countryCode":"KR"},{"name":"The California Hotel Seoul Gangnam","asciiName":"The California Hotel Seoul Gangnam","alternatenames":[],"lat":37.50675,"lon":127.03226,"countryCode":"KR"},{"name":"Yellow Brick 2 Hostel","asciiName":"Yellow Brick 2 Hostel","alternatenames":[],"lat":37.57439,"lon":126.99119,"countryCode":"KR"},{"name":"Golden City Hotel Dongdaemun","asciiName":"Golden City Hotel Dongdaemun","alternatenames":[],"lat":37.562,"lon":127.061,"countryCode":"KR"},{"name":"Novotel Ambassador Suwon","asciiName":"Novotel Ambassador Suwon","alternatenames":[],"lat":37.26856,"lon":126.99925,"countryCode":"KR"},{"name":"Lamer Tourist Hotel","asciiName":"Lamer Tourist Hotel","alternatenames":[],"lat":35.141,"lon":129.062,"countryCode":"KR"},