[{"name":"Fondouk Caïd Lahsene","asciiName":"Fondouk Caid Lahsene","alternatenames":["Fondouk Caid Lahcene","Fondouk Caid Lahsene","Fondouk Caïd Lahcene","Fondouk Caïd Lahsene"],"lat":33.21187,"lon":-7.3108,"countryCode":"MA"},{"name":"Mansour Eddahbi","asciiName":"Mansour Eddahbi","alternatenames":[],"lat":31.62477,"lon":-8.01378,"countryCode":"MA"},{"name":"Sofitel Thalassa Mogador Essaouira","asciiName":"Sofitel Thalassa Mogador Essaouira","alternatenames":[],"lat":31.50864,"lon":-9.76556,"countryCode":"MA"},{"name":"Moevenpick Hotel And Casino","asciiName":"Moevenpick Hotel And Casino","alternatenames":[],"lat":35.78465,"lon":-5.76402,"countryCode":"MA"},{"name":"Atlantic Palace","asciiName":"Atlantic Palace","alternatenames":[],"lat":30.40482,"lon":-9.59557,"countryCode":"MA"},{"name":"Sofitel Diwan Rabat","asciiName":"Sofitel Diwan Rabat","alternatenames":[],"lat":34.0153,"lon":-6.8332,"countryCode":"MA"},{"name":"Sofitel Thalassa Marina Smir","asciiName":"Sofitel Thalassa Marina Smir","alternatenames":[],"lat":35.7512,"lon":-5.3455,"countryCode":"MA"},{"name":"Hotel Tichka Salam Marrakech","asciiName":"Hotel Tichka Salam Marrakech","alternatenames":[],"lat":31.631,"lon":-8.012,"countryCode":"MA"},{"name":"Sofitel Royal Golf El Jadida","asciiName":"Sofitel Royal Golf El Jadida","alternatenames":[],"lat":33.25929,"lon":-8.42265,"countryCode":"MA"},{"name":"Le Meridien N Fis","asciiName":"Le Meridien N Fis","alternatenames":[],"lat":31.62365,"lon":-8.01202,"countryCode":"MA"},{"name":"InterContinental Tangier","asciiName":"InterContinental Tangier","alternatenames":[],"lat":35.77424,"lon":-5.8171,"countryCode":"MA"},{"name":"El Pueblo Tamlelt","asciiName":"El Pueblo Tamlelt","alternatenames":[],"lat":30.4086,"lon":-9.5985,"countryCode":"MA"},{"name":"Sheraton","asciiName":"Sheraton","alternatenames":[],"lat":30.4126,"lon":-9.6023,"countryCode":"MA"},{"name":"Kenzi Farah Europa","asciiName":"Kenzi Farah Europa","alternatenames":[],"lat":30.4173,"lon":-9.60258,"countryCode":"MA"},{"name":"L'Atlas Marrakech","asciiName":"L'Atlas Marrakech","alternatenames":[],"lat":31.62313,"lon":-8.01266,"countryCode":"MA"},{"name":"Crowne Plaza Casablanca","asciiName":"Crowne Plaza Casablanca","alternatenames":[],"lat":33.5333,"lon":-7.6832,"countryCode":"MA"},{"name":"Kenzi Semiramis","asciiName":"Kenzi Semiramis","alternatenames":[],"lat":31.6313,"lon":-8.0124,"countryCode":"MA"},{"name":"Hotel Royal Mansour Meridien","asciiName":"Hotel Royal Mansour Meridien","alternatenames":[],"lat":33.6048,"lon":-7.6157,"countryCode":"MA"},{"name":"Hilton Rabat","asciiName":"Hilton Rabat","alternatenames":[],"lat":34.015,"lon":-6.833,"countryCode":"MA"},{"name":"Casablanca Le Lido Thalasso & Spa","asciiName":"Casablanca Le Lido Thalasso & Spa","alternatenames":[],"lat":33.605,"lon":-7.632,"countryCode":"MA"},{"name":"Kenzi Europa","asciiName":"Kenzi Europa","alternatenames":[],"lat":30.40704,"lon":-9.59757,"countryCode":"MA"},{"name":"Royal Mirage Deluxe Marrakech","asciiName":"Royal Mirage Deluxe Marrakech","alternatenames":[],"lat":31.61817,"lon":-8.01028,"countryCode":"MA"},{"name":"Hyatt Regency Casablanca","asciiName":"Hyatt Regency Casablanca","alternatenames":[],"lat":33.5965,"lon":-7.6201,"countryCode":"MA"},{"name":"Sheraton Casablanca Hotel Twrs","asciiName":"Sheraton Casablanca Hotel Twrs","alternatenames":[],"lat":33.5971,"lon":-7.6313,"countryCode":"MA"},{"name":"Palmeraie Village Apart'Hotel","asciiName":"Palmeraie Village Apart'Hotel","alternatenames":[],"lat":31.6649,"lon":-8.0036,"countryCode":"MA"},{"name":"Hotel Rif and Spa","asciiName":"Hotel Rif and Spa","alternatenames":[],"lat":35.7858,"lon":-5.8064,"countryCode":"MA"},{"name":"Golden Tulip Hotel des Arts","asciiName":"Golden Tulip Hotel des Arts","alternatenames":[],"lat":33.6029,"lon":-7.6127,"countryCode":"MA"},{"name":"Coralia Club Agadir La Kasbah","asciiName":"Coralia Club Agadir La Kasbah","alternatenames":[],"lat":30.40184,"lon":-9.59912,"countryCode":"MA"},{"name":"Golden Tulip Farah Safi","asciiName":"Golden Tulip Farah Safi","alternatenames":[],"lat":32.29573,"lon":-9.2388,"countryCode":"MA"},{"name":"Hotel Medina & Spa","asciiName":"Hotel Medina & Spa","alternatenames":[],"lat":31.631,"lon":-8.012,"countryCode":"MA"},{"name":"Hotel Atlas Asni","asciiName":"Hotel Atlas Asni","alternatenames":[],"lat":31.62285,"lon":-8.01275,"countryCode":"MA"},{"name":"Hotel Sofia","asciiName":"Hotel Sofia","alternatenames":[],"lat":34.04031,"lon":-5.00228,"countryCode":"MA"},{"name":"Hotel Idou Tiznit","asciiName":"Hotel Idou Tiznit","alternatenames":[],"lat":30.413,"lon":-9.602,"countryCode":"MA"},{"name":"Hotel Tafoukt","asciiName":"Hotel Tafoukt","alternatenames":[],"lat":30.41693,"lon":-9.60385,"countryCode":"MA"},{"name":"Barcelo Casablanca Hotel","asciiName":"Barcelo Casablanca Hotel","alternatenames":[],"lat":33.59119,"lon":-7.63684,"countryCode":"MA"},{"name":"Hotel Zaki","asciiName":"Hotel Zaki","alternatenames":[],"lat":33.904,"lon":-5.5576,"countryCode":"MA"},{"name":"Zalagh Parc Palace","asciiName":"Zalagh Parc Palace","alternatenames":[],"lat":34.044,"lon":-4.996,"countryCode":"MA"},{"name":"Hotel Amine","asciiName":"Hotel Amine","alternatenames":[],"lat":31.64579,"lon":-8.01883,"countryCode":"MA"},{"name":"Hotel Mounia","asciiName":"Hotel Mounia","alternatenames":[],"lat":34.044,"lon":-4.996,"countryCode":"MA"},{"name":"Villa Maroc","asciiName":"Villa Maroc","alternatenames":[],"lat":30.0348,"lon":-8.1155,"countryCode":"MA"},{"name":"Hotel Residence Farah","asciiName":"Hotel Residence Farah","alternatenames":[],"lat":30.413,"lon":-9.602,"countryCode":"MA"},{"name":"Golden Tulip Farah Casablanca","asciiName":"Golden Tulip Farah Casablanca","alternatenames":[],"lat":33.605,"lon":-7.632,"countryCode":"MA"},{"name":"Riad Mimouna","asciiName":"Riad Mimouna","alternatenames":[],"lat":31.515,"lon":-9.765,"countryCode":"MA"},{"name":"Hotel Wassim","asciiName":"Hotel Wassim","alternatenames":[],"lat":34.044,"lon":-4.996,"countryCode":"MA"},{"name":"Tghat","asciiName":"Tghat","alternatenames":[],"lat":34.044,"lon":-4.996,"countryCode":"MA"},{"name":"El Andalous","asciiName":"El Andalous","alternatenames":[],"lat":31.6209,"lon":-8.0074,"countryCode":"MA"},{"name":"Jnan Palace","asciiName":"Jnan Palace","alternatenames":[],"lat":34.044,"lon":-4.996,"countryCode":"MA"},{"name":"Riad Des Golfs","asciiName":"Riad Des Golfs","alternatenames":[],"lat":29.9166,"lon":-9.2666,"countryCode":"MA"},{"name":"Jnane Tamsna","asciiName":"Jnane Tamsna","alternatenames":[],"lat":31.6333,"lon":-8,"countryCode":"MA"},{"name":"Hotel Suisse","asciiName":"Hotel Suisse","alternatenames":[],"lat":33.605,"lon":-7.632,"countryCode":"MA"},{"name":"Hotel Sud Bahia","asciiName":"Hotel Sud Bahia","alternatenames":[],"lat":30.42253,"lon":-9.60291,"countryCode":"MA"},{"name":"Riad El Zohar","asciiName":"Riad El Zohar","alternatenames":[],"lat":31.6333,"lon":-8,"countryCode":"MA"},{"name":"Golden Tulip Farah","asciiName":"Golden Tulip Farah","alternatenames":[],"lat":32.89,"lon":-6.907,"countryCode":"MA"},{"name":"Ryad Mogador Essaouira","asciiName":"Ryad Mogador Essaouira","alternatenames":[],"lat":31.49448,"lon":-9.75976,"countryCode":"MA"},{"name":"Riyad El Mezouar","asciiName":"Riyad El Mezouar","alternatenames":[],"lat":31.6333,"lon":-8,"countryCode":"MA"},{"name":"Hotel El Morabitine","asciiName":"Hotel El Morabitine","alternatenames":[],"lat":33.2565,"lon":-8.5075,"countryCode":"MA"},{"name":"Riads Passion","asciiName":"Riads Passion","alternatenames":[],"lat":31.6275,"lon":-7.9989,"countryCode":"MA"},{"name":"Hotel Club Al Moggar Garden Beach","asciiName":"Hotel Club Al Moggar Garden Beach","alternatenames":[],"lat":30.42288,"lon":-9.60923,"countryCode":"MA"},{"name":"Golden Tulip Farah Marrakech","asciiName":"Golden Tulip Farah Marrakech","alternatenames":[],"lat":31.62591,"lon":-8.00957,"countryCode":"MA"},{"name":"Hivernage Hotel And Spa","asciiName":"Hivernage Hotel And Spa","alternatenames":[],"lat":31.6242,"lon":-8.0038,"countryCode":"MA"},{"name":"Golden Tulip Farah Rabat","asciiName":"Golden Tulip Farah Rabat","alternatenames":[],"lat":34.015,"lon":-6.833,"countryCode":"MA"},{"name":"Es Saadi Gardens & Resort","asciiName":"Es Saadi Gardens & Resort","alternatenames":[],"lat":31.631,"lon":-8.012,"countryCode":"MA"},{"name":"Apathotel Igoudar","asciiName":"Apathotel Igoudar","alternatenames":[],"lat":30.24,"lon":-9.36,"countryCode":"MA"},{"name":"Ryad Mogador Marrakech","asciiName":"Ryad Mogador Marrakech","alternatenames":[],"lat":31.63848,"lon":-7.99843,"countryCode":"MA"},{"name":"Hotel Anezi","asciiName":"Hotel Anezi","alternatenames":[],"lat":30.41988,"lon":-9.60426,"countryCode":"MA"},{"name":"Le Zenith Hotel","asciiName":"Le Zenith Hotel","alternatenames":[],"lat":33.605,"lon":-7.632,"countryCode":"MA"},{"name":"Ramada Les Almohades","asciiName":"Ramada Les Almohades","alternatenames":[],"lat":33.6029,"lon":-7.6127,"countryCode":"MA"},{"name":"Atlas Amadil Beach","asciiName":"Atlas Amadil Beach","alternatenames":[],"lat":30.40323,"lon":-9.59997,"countryCode":"MA"},{"name":"Agadir Beach Club Hotel","asciiName":"Agadir Beach Club Hotel","alternatenames":[],"lat":30.41019,"lon":-9.60125,"countryCode":"MA"},{"name":"Hotel Tachfine","asciiName":"Hotel Tachfine","alternatenames":[],"lat":31.631,"lon":-8.012,"countryCode":"MA"},{"name":"Tagadirt Hotel","asciiName":"Tagadirt Hotel","alternatenames":[],"lat":30.41465,"lon":-9.60102,"countryCode":"MA"},{"name":"Hotel Palais des Roses","asciiName":"Hotel Palais des Roses","alternatenames":[],"lat":30.39498,"lon":-9.59663,"countryCode":"MA"},{"name":"Hotel Imperial Borj","asciiName":"Hotel Imperial Borj","alternatenames":[],"lat":31.6275,"lon":-7.9989,"countryCode":"MA"},{"name":"Ramada Les Almohades","asciiName":"Ramada Les Almohades","alternatenames":[],"lat":35.7858,"lon":-5.8064,"countryCode":"MA"},{"name":"Al Mounia Hotel","asciiName":"Al Mounia Hotel","alternatenames":[],"lat":33.605,"lon":-7.632,"countryCode":"MA"},{"name":"Hotel Argana","asciiName":"Hotel Argana","alternatenames":[],"lat":30.41345,"lon":-9.59811,"countryCode":"MA"},{"name":"Kenzi Club Oasis","asciiName":"Kenzi Club Oasis","alternatenames":[],"lat":31.6313,"lon":-8.0124,"countryCode":"MA"},{"name":"Hotel Azur","asciiName":"Hotel Azur","alternatenames":[],"lat":33.59519,"lon":-7.67692,"countryCode":"MA"},{"name":"Hotel Ayoub","asciiName":"Hotel Ayoub","alternatenames":[],"lat":31.633,"lon":-8.00042,"countryCode":"MA"},{"name":"Hotel Des Iles","asciiName":"Hotel Des Iles","alternatenames":[],"lat":31.51131,"lon":-9.7704,"countryCode":"MA"},{"name":"Le Tivoli","asciiName":"Le Tivoli","alternatenames":[],"lat":30.40778,"lon":-9.59609,"countryCode":"MA"},{"name":"Hotel Oudaya","asciiName":"Hotel Oudaya","alternatenames":[],"lat":31.63895,"lon":-8.02019,"countryCode":"MA"},{"name":"Ryad Mogador Al Madina Palace","asciiName":"Ryad Mogador Al Madina Palace","alternatenames":[],"lat":30.41111,"lon":-9.59903,"countryCode":"MA"},{"name":"Crown Palace","asciiName":"Crown Palace","alternatenames":[],"lat":34.04354,"lon":-4.99647,"countryCode":"MA"},{"name":"Ramada Resort Les Almohades","asciiName":"Ramada Resort Les Almohades","alternatenames":[],"lat":30.41299,"lon":-9.60073,"countryCode":"MA"},{"name":"Club Val D Anfa","asciiName":"Club Val D Anfa","alternatenames":[],"lat":33.59183,"lon":-7.67831,"countryCode":"MA"},{"name":"Imperial Holiday","asciiName":"Imperial Holiday","alternatenames":[],"lat":31.37,"lon":-8,"countryCode":"MA"},{"name":"Riad Dar Mimouna","asciiName":"Riad Dar Mimouna","alternatenames":[],"lat":31.6275,"lon":-7.9989,"countryCode":"MA"},{"name":"Le Tikida Garden","asciiName":"Le Tikida Garden","alternatenames":[],"lat":31.6275,"lon":-7.9989,"countryCode":"MA"},{"name":"Royal Mirage Agadir","asciiName":"Royal Mirage Agadir","alternatenames":[],"lat":30.41935,"lon":-9.60394,"countryCode":"MA"},{"name":"Hotel Rivoli","asciiName":"Hotel Rivoli","alternatenames":[],"lat":33.605,"lon":-7.632,"countryCode":"MA"},{"name":"Kenzi Basma","asciiName":"Kenzi Basma","alternatenames":[],"lat":33.6029,"lon":-7.6127,"countryCode":"MA"},{"name":"Sofitel Palais Jamai Fes","asciiName":"Sofitel Palais Jamai Fes","alternatenames":[],"lat":34.0441,"lon":-4.9954,"countryCode":"MA"},{"name":"Kenzi Farah","asciiName":"Kenzi Farah","alternatenames":[],"lat":31.62245,"lon":-8.00749,"countryCode":"MA"},{"name":"Coralia Club Marrakech Palmariva","asciiName":"Coralia Club Marrakech Palmariva","alternatenames":[],"lat":31.63,"lon":-8.01,"countryCode":"MA"},{"name":"Sofitel Agadir","asciiName":"Sofitel Agadir","alternatenames":[],"lat":30.39331,"lon":-9.59709,"countryCode":"MA"},{"name":"Palmeraie Golf Palace","asciiName":"Palmeraie Golf Palace","alternatenames":[],"lat":31.6313,"lon":-8.0124,"countryCode":"MA"},{"name":"Melia Palais Salam","asciiName":"Melia Palais Salam","alternatenames":[],"lat":30.41578,"lon":-9.60191,"countryCode":"MA"},{"name":"Hotel Amanjena","asciiName":"Hotel Amanjena","alternatenames":[],"lat":31.60831,"lon":-7.93387,"countryCode":"MA"},{"name":"Les Merinides","asciiName":"Les Merinides","alternatenames":[],"lat":34.0333,"lon":-4.9833,"countryCode":"MA"},{"name":"La Tour Hassan","asciiName":"La Tour Hassan","alternatenames":[],"lat":34.0333,"lon":-6.8333,"countryCode":"MA"},{"name":"Sheraton Fes Hotel","asciiName":"Sheraton Fes Hotel","alternatenames":[],"lat":34.0333,"lon":-4.9833,"countryCode":"MA"},{"name":"La Mamounia","asciiName":"La Mamounia","alternatenames":[],"lat":31.6333,"lon":-8,"countryCode":"MA"},{"name":"Idou Anfa Hotel","asciiName":"Idou Anfa Hotel","alternatenames":[],"lat":33.59264,"lon":-7.6329,"countryCode":"MA"},{"name":"Riad Catalina","asciiName":"Riad Catalina","alternatenames":[],"lat":31.6333,"lon":-8,"countryCode":"MA"},{"name":"Mansour Eddahbi  And Palais De","asciiName":"Mansour Eddahbi  And Palais De","alternatenames":[],"lat":31.62472,"lon":-8.01365,"countryCode":"MA"},{"name":"Le Pavillon Du Golf","asciiName":"Le Pavillon Du Golf","alternatenames":[],"lat":31.6333,"lon":-8,"countryCode":"MA"},{"name":"Dar Shama","asciiName":"Dar Shama","alternatenames":[],"lat":31.6333,"lon":-8,"countryCode":"MA"},{"name":"Ibis Moussafir Ouarzazate","asciiName":"Ibis Moussafir Ouarzazate","alternatenames":[],"lat":30.92087,"lon":-6.90474,"countryCode":"MA"},{"name":"Les Jardins D Ines","asciiName":"Les Jardins D Ines","alternatenames":[],"lat":31.6333,"lon":-8,"countryCode":"MA"},{"name":"Domaine Des Remparts Hotel Spa","asciiName":"Domaine Des Remparts Hotel Spa","alternatenames":[],"lat":31.6333,"lon":-8,"countryCode":"MA"},{"name":"Villa Mandarine Guest House","asciiName":"Villa Mandarine Guest House","alternatenames":[],"lat":34.0333,"lon":-6.8333,"countryCode":"MA"},{"name":"Ibis Casablanca Sidi Maarouf","asciiName":"Ibis Casablanca Sidi Maarouf","alternatenames":[],"lat":33.5833,"lon":-7.6,"countryCode":"MA"},{"name":"Maison Arabo Andalouse","asciiName":"Maison Arabo Andalouse","alternatenames":[],"lat":31.6333,"lon":-8,"countryCode":"MA"},{"name":"Palais Sebban","asciiName":"Palais Sebban","alternatenames":[],"lat":31.6333,"lon":-8,"countryCode":"MA"},{"name":"La Bergerie Atlas Mountains","asciiName":"La Bergerie Atlas Mountains","alternatenames":[],"lat":31.6333,"lon":-8,"countryCode":"MA"},{"name":"Terre Resort And Spa","asciiName":"Terre Resort And Spa","alternatenames":[],"lat":31.6333,"lon":-8,"countryCode":"MA"},{"name":"Villa Vanille","asciiName":"Villa Vanille","alternatenames":[],"lat":31.6333,"lon":-8,"countryCode":"MA"},{"name":"Rembrandt","asciiName":"REMBRANDT","alternatenames":[],"lat":35.7833,"lon":-5.8,"countryCode":"MA"},{"name":"Habiba","asciiName":"Habiba","alternatenames":[],"lat":31.6333,"lon":-8,"countryCode":"MA"},{"name":"Agdal","asciiName":"Agdal","alternatenames":[],"lat":31.6333,"lon":-8,"countryCode":"MA"},{"name":"Riad Amira","asciiName":"Riad Amira","alternatenames":[],"lat":31.6333,"lon":-8,"countryCode":"MA"},{"name":"Palais D Hotes","asciiName":"Palais D Hotes","alternatenames":[],"lat":34.0333,"lon":-4.9833,"countryCode":"MA"},{"name":"Villa Des Palmiers","asciiName":"Villa Des Palmiers","alternatenames":[],"lat":31.6333,"lon":-8,"countryCode":"MA"},{"name":"Riad Watier","asciiName":"RIAD WATIER","alternatenames":[],"lat":31.5,"lon":-9.7666,"countryCode":"MA"},{"name":"Riad Laora","asciiName":"Riad Laora","alternatenames":[],"lat":31.6333,"lon":-8,"countryCode":"MA"},{"name":"Riad Dar Karma","asciiName":"Riad Dar Karma","alternatenames":[],"lat":31.6333,"lon":-8,"countryCode":"MA"},{"name":"Riad Talaa 12","asciiName":"Riad Talaa 12","alternatenames":[],"lat":31.6333,"lon":-8,"countryCode":"MA"},{"name":"Riad Fes Baraka","asciiName":"Riad Fes Baraka","alternatenames":[],"lat":34.0333,"lon":-4.9833,"countryCode":"MA"},{"name":"Riad Ayadina","asciiName":"Riad Ayadina","alternatenames":[],"lat":31.6333,"lon":-8,"countryCode":"MA"},{"name":"Riad Casa Lila","asciiName":"RIAD CASA LILA","alternatenames":[],"lat":31.5,"lon":-9.7666,"countryCode":"MA"},{"name":"La Villa Des Orangers","asciiName":"La Villa Des Orangers","alternatenames":[],"lat":31.6333,"lon":-8,"countryCode":"MA"},{"name":"Clementine","asciiName":"Clementine","alternatenames":[],"lat":31.6333,"lon":-8,"countryCode":"MA"},{"name":"Riad La Maison Rouge","asciiName":"Riad La Maison Rouge","alternatenames":[],"lat":31.6333,"lon":-8,"countryCode":"MA"},{"name":"Riad Dar Ilham","asciiName":"Riad Dar Ilham","alternatenames":[],"lat":31.6333,"lon":-8,"countryCode":"MA"},{"name":"Riad Tinmel","asciiName":"Riad Tinmel","alternatenames":[],"lat":31.6333,"lon":-8,"countryCode":"MA"},{"name":"Villa Dar El Kanoun","asciiName":"Villa Dar El Kanoun","alternatenames":[],"lat":31.6333,"lon":-8,"countryCode":"MA"},{"name":"Relais Maresca","asciiName":"Relais Maresca","alternatenames":[],"lat":30.0348,"lon":-8.1155,"countryCode":"MA"},{"name":"Riad Safar","asciiName":"Riad Safar","alternatenames":[],"lat":31.6333,"lon":-8,"countryCode":"MA"},{"name":"Les Jardins De Mouassine","asciiName":"Les Jardins De Mouassine","alternatenames":[],"lat":31.6333,"lon":-8,"countryCode":"MA"},{"name":"Dar Rhizlane","asciiName":"Dar Rhizlane","alternatenames":[],"lat":31.6333,"lon":-8,"countryCode":"MA"},{"name":"Dar El Fen","asciiName":"Dar El Fen","alternatenames":[],"lat":30.9166,"lon":-6.9166,"countryCode":"MA"},{"name":"Riyad El Cadi","asciiName":"Riyad El Cadi","alternatenames":[],"lat":31.6333,"lon":-8,"countryCode":"MA"},{"name":"Ryad Mogador Opera","asciiName":"Ryad Mogador Opera","alternatenames":[],"lat":31.62856,"lon":-8.0156,"countryCode":"MA"},{"name":"Riad Lydines","asciiName":"Riad Lydines","alternatenames":[],"lat":31.6333,"lon":-8,"countryCode":"MA"},{"name":"Dar Tinmel","asciiName":"Dar Tinmel","alternatenames":[],"lat":31.6333,"lon":-8,"countryCode":"MA"},{"name":"Dar Tamsna","asciiName":"Dar Tamsna","alternatenames":[],"lat":31.6333,"lon":-8,"countryCode":"MA"},{"name":"Sublime Ailleurs","asciiName":"Sublime Ailleurs","alternatenames":[],"lat":31.6333,"lon":-8,"countryCode":"MA"},{"name":"La Maison Bleue","asciiName":"La Maison Bleue","alternatenames":[],"lat":34.0333,"lon":-4.9833,"countryCode":"MA"},{"name":"Palais Mehdi","asciiName":"Palais Mehdi","alternatenames":[],"lat":31.6333,"lon":-8,"countryCode":"MA"},{"name":"El Oumnia Puerto","asciiName":"EL OUMNIA PUERTO","alternatenames":[],"lat":35.7833,"lon":-5.8,"countryCode":"MA"},{"name":"Mansour Eddahbi","asciiName":"Mansour Eddahbi","alternatenames":[],"lat":31.62465,"lon":-8.01386,"countryCode":"MA"},{"name":"Royal Mirage Fes","asciiName":"Royal Mirage Fes","alternatenames":[],"lat":34.0333,"lon":-4.9833,"countryCode":"MA"},{"name":"La Maison Arabe","asciiName":"La Maison Arabe","alternatenames":[],"lat":31.6333,"lon":-8,"countryCode":"MA"},{"name":"Dar Atta","asciiName":"Dar Atta","alternatenames":[],"lat":31.6333,"lon":-8,"countryCode":"MA"},{"name":"Atel Hotel Diwane","asciiName":"Atel Hotel Diwane","alternatenames":[],"lat":31.6333,"lon":-8,"countryCode":"MA"},{"name":"La Sultana Marrakech","asciiName":"La Sultana Marrakech","alternatenames":[],"lat":31.6333,"lon":-8,"countryCode":"MA"},{"name":"Ksar Char-Bagh","asciiName":"Ksar Char-Bagh","alternatenames":[],"lat":31.6333,"lon":-8,"countryCode":"MA"},{"name":"Kasbah Agafay Hotel And Spa","asciiName":"Kasbah Agafay Hotel And Spa","alternatenames":[],"lat":31.6333,"lon":-8,"countryCode":"MA"},{"name":"Hotel Koutoubia","asciiName":"Hotel Koutoubia","alternatenames":[],"lat":31.62608,"lon":-7.99194,"countryCode":"MA"},{"name":"Les Borjs de la Kasbah","asciiName":"Les Borjs de la Kasbah","alternatenames":[],"lat":31.61336,"lon":-7.9861,"countryCode":"MA"},{"name":"Hôtel les Dunes d'Or","asciiName":"Hotel les Dunes d'Or","alternatenames":[],"lat":30.40552,"lon":-9.6,"countryCode":"MA"},{"name":"Hôtel Royal Atlas","asciiName":"Hotel Royal Atlas","alternatenames":[],"lat":30.41158,"lon":-9.59619,"countryCode":"MA"},{"name":"Le Tazarkount","asciiName":"Le Tazarkount","alternatenames":[],"lat":32.21761,"lon":-6.53255,"countryCode":"MA"},{"name":"Hôtel Bin el Ouidane","asciiName":"Hotel Bin el Ouidane","alternatenames":[],"lat":32.10769,"lon":-6.42641,"countryCode":"MA"},{"name":"Hôtel Rose M'Gouna","asciiName":"Hotel Rose M'Gouna","alternatenames":[],"lat":31.23987,"lon":-6.1313,"countryCode":"MA"},{"name":"Iberostar Waves Founty Beach","asciiName":"Iberostar Waves Founty Beach","alternatenames":[],"lat":30.39668,"lon":-9.59733,"countryCode":"MA"},{"name":"Hôtel Tikida Beach","asciiName":"Hotel Tikida Beach","alternatenames":[],"lat":30.40251,"lon":-9.59885,"countryCode":"MA"},{"name":"Hôtel Tikida Dunas","asciiName":"Hotel Tikida Dunas","alternatenames":[],"lat":30.39853,"lon":-9.59834,"countryCode":"MA"},{"name":"Hôtel Timoulay","asciiName":"Hotel Timoulay","alternatenames":[],"lat":30.39656,"lon":-9.59382,"countryCode":"MA"},{"name":"Hôtel Talborjt","asciiName":"Hotel Talborjt","alternatenames":[],"lat":30.42248,"lon":-9.59764,"countryCode":"MA"},{"name":"Hôtel les Palmiers","asciiName":"Hotel les Palmiers","alternatenames":[],"lat":30.41925,"lon":-9.59959,"countryCode":"MA"},{"name":"Hôtel Ayour","asciiName":"Hotel Ayour","alternatenames":[],"lat":30.42164,"lon":-9.59537,"countryCode":"MA"},{"name":"Hôtel Cinq Parties du Monde","asciiName":"Hotel Cinq Parties du Monde","alternatenames":[],"lat":30.41096,"lon":-9.5909,"countryCode":"MA"},{"name":"Hôtel Al Mountassir","asciiName":"Hotel Al Mountassir","alternatenames":["ex Hotel Aladin","ex Hôtel Aladin"],"lat":30.41873,"lon":-9.59938,"countryCode":"MA"},{"name":"Tikida Golf Palace","asciiName":"Tikida Golf Palace","alternatenames":[],"lat":30.35818,"lon":-9.56143,"countryCode":"MA"},{"name":"Hôtel Agador Tamlelt","asciiName":"Hotel Agador Tamlelt","alternatenames":[],"lat":30.4098,"lon":-9.59708,"countryCode":"MA"},{"name":"Hôtel Miramar","asciiName":"Hotel Miramar","alternatenames":[],"lat":30.42522,"lon":-9.61297,"countryCode":"MA"},{"name":"Hotel Transatlantique","asciiName":"Hotel Transatlantique","alternatenames":[],"lat":33.60352,"lon":-7.63793,"countryCode":"MA"},{"name":"Hôtel Omayades","asciiName":"Hotel Omayades","alternatenames":[],"lat":30.407,"lon":-9.59504,"countryCode":"MA"},{"name":"Hôtel Riad Karam","asciiName":"Hotel Riad Karam","alternatenames":[],"lat":30.39883,"lon":-9.59167,"countryCode":"MA"},{"name":"Dar el Ghalia","asciiName":"Dar el Ghalia","alternatenames":[],"lat":34.06293,"lon":-4.97261,"countryCode":"MA"},{"name":"Batha","asciiName":"Batha","alternatenames":[],"lat":34.03924,"lon":-5.00826,"countryCode":"MA"},{"name":"Dar Bensouda","asciiName":"Dar Bensouda","alternatenames":[],"lat":34.04348,"lon":-4.99553,"countryCode":"MA"},{"name":"Riad  Ibn Khaldoun","asciiName":"Riad  Ibn Khaldoun","alternatenames":[],"lat":34.06452,"lon":-4.97556,"countryCode":"MA"},{"name":"Moulay Yacoub","asciiName":"Moulay Yacoub","alternatenames":[],"lat":34.04024,"lon":-4.99549,"countryCode":"MA"},{"name":"Diamant Vert","asciiName":"Diamant Vert","alternatenames":[],"lat":33.99991,"lon":-5.0123,"countryCode":"MA"},{"name":"Menzeh Fes","asciiName":"Menzeh Fes","alternatenames":[],"lat":34.04097,"lon":-4.99487,"countryCode":"MA"},{"name":"Riad Elamine Fes","asciiName":"Riad Elamine Fes","alternatenames":[],"lat":34.05703,"lon":-4.97417,"countryCode":"MA"},{"name":"Hotel De la corniche","asciiName":"Hotel De la corniche","alternatenames":[],"lat":33.59163,"lon":-7.67774,"countryCode":"MA"},{"name":"Kenzi Tower Hotel","asciiName":"Kenzi Tower Hotel","alternatenames":[],"lat":33.58668,"lon":-7.63239,"countryCode":"MA"},{"name":"Ryad Mogador Menzah","asciiName":"Ryad Mogador Menzah","alternatenames":[],"lat":31.6239,"lon":-8.01282,"countryCode":"MA"},{"name":"Ryad Mogador Gueliz","asciiName":"Ryad Mogador Gueliz","alternatenames":[],"lat":31.63123,"lon":-8.01224,"countryCode":"MA"},{"name":"Hotel Mont Gueliz","asciiName":"Hotel Mont Gueliz","alternatenames":[],"lat":31.63743,"lon":-8.0177,"countryCode":"MA"},{"name":"Ryad Mogador Kasbah","asciiName":"Ryad Mogador Kasbah","alternatenames":[],"lat":31.62171,"lon":-7.99948,"countryCode":"MA"},{"name":"Ryad Mogador Agdal","asciiName":"Ryad Mogador Agdal","alternatenames":[],"lat":31.61454,"lon":-8.00561,"countryCode":"MA"},{"name":"Ryad Mogador Menara","asciiName":"Ryad Mogador Menara","alternatenames":[],"lat":31.62394,"lon":-8.01273,"countryCode":"MA"},{"name":"Imperial Plaza","asciiName":"Imperial Plaza","alternatenames":[],"lat":31.64637,"lon":-8.01665,"countryCode":"MA"},{"name":"Assounfou","asciiName":"Assounfou","alternatenames":[],"lat":31.63461,"lon":-8.00661,"countryCode":"MA"},{"name":"Amalay","asciiName":"Amalay","alternatenames":[],"lat":31.63313,"lon":-8.00934,"countryCode":"MA"},{"name":"Riad Taylor","asciiName":"Riad Taylor","alternatenames":[],"lat":31.6392,"lon":-7.98904,"countryCode":"MA"},{"name":"Moroccan House","asciiName":"Moroccan House","alternatenames":[],"lat":31.63512,"lon":-8.00981,"countryCode":"MA"},{"name":"Kasbah du Toubkal","asciiName":"Kasbah du Toubkal","alternatenames":[],"lat":31.13232,"lon":-7.91898,"countryCode":"MA"},{"name":"Kasbah Ennasra","asciiName":"Kasbah Ennasra","alternatenames":[],"lat":31.28915,"lon":-4.29402,"countryCode":"MA"},{"name":"Atlas Rif & Spa","asciiName":"Atlas Rif & Spa","alternatenames":[],"lat":35.77735,"lon":-5.80487,"countryCode":"MA"},{"name":"Chellah","asciiName":"Chellah","alternatenames":[],"lat":35.79253,"lon":-5.82688,"countryCode":"MA"},{"name":"Riad Daria","asciiName":"Riad Daria","alternatenames":[],"lat":31.61252,"lon":-7.98702,"countryCode":"MA"},{"name":"Residence Ezzahia","asciiName":"Residence Ezzahia","alternatenames":[],"lat":31.63,"lon":-8.00889,"countryCode":"MA"},{"name":"Le Diwan Rabat By MGallery","asciiName":"Le Diwan Rabat By MGallery","alternatenames":[],"lat":34.015,"lon":-6.833,"countryCode":"MA"},{"name":"Riad Hibiscus","asciiName":"Riad Hibiscus","alternatenames":[],"lat":31.62844,"lon":-7.98971,"countryCode":"MA"},{"name":"Sofitel Tour Blanche","asciiName":"Sofitel Tour Blanche","alternatenames":[],"lat":33.59801,"lon":-7.61383,"countryCode":"MA"},{"name":"Sofitel Tour Blanche Superior","asciiName":"Sofitel Tour Blanche Superior","alternatenames":[],"lat":33.59801,"lon":-7.61383,"countryCode":"MA"},{"name":"Sofitel Tour Blanche Luxury","asciiName":"Sofitel Tour Blanche Luxury","alternatenames":[],"lat":33.59801,"lon":-7.61383,"countryCode":"MA"},{"name":"Caribbean Village Agador","asciiName":"Caribbean Village Agador","alternatenames":[],"lat":30.41214,"lon":-9.59713,"countryCode":"MA"},{"name":"Dar Sohane","asciiName":"Dar Sohane","alternatenames":[],"lat":31.62063,"lon":-7.9855,"countryCode":"MA"},{"name":"Riad Altair","asciiName":"Riad Altair","alternatenames":[],"lat":31.6311,"lon":-7.99665,"countryCode":"MA"},{"name":"Riad Aladdin","asciiName":"Riad Aladdin","alternatenames":[],"lat":31.61905,"lon":-7.98574,"countryCode":"MA"},{"name":"La Renaissance Hotel And Restaurant","asciiName":"La Renaissance Hotel And Restaurant","alternatenames":[],"lat":31.6365,"lon":-8.0147,"countryCode":"MA"},{"name":"Kenzi Menara Palace All Inclusive Premium","asciiName":"Kenzi Menara Palace All Inclusive Premium","alternatenames":[],"lat":31.58742,"lon":-7.98599,"countryCode":"MA"},{"name":"Hotel La Maison Des Oliviers","asciiName":"Hotel La Maison Des Oliviers","alternatenames":[],"lat":31.56485,"lon":-7.98004,"countryCode":"MA"},{"name":"Al Ksar Riad And Spa","asciiName":"Al Ksar Riad And Spa","alternatenames":[],"lat":31.62051,"lon":-7.98207,"countryCode":"MA"},{"name":"Dellarosa Hotel Suites And Spa","asciiName":"Dellarosa Hotel Suites And Spa","alternatenames":[],"lat":31.6283,"lon":-8.00629,"countryCode":"MA"},{"name":"Kenzi Club Agdal Medina","asciiName":"Kenzi Club Agdal Medina","alternatenames":[],"lat":31.61445,"lon":-8.00559,"countryCode":"MA"},{"name":"Le Caspien Hotel","asciiName":"Le Caspien Hotel","alternatenames":[],"lat":31.63023,"lon":-8.00313,"countryCode":"MA"},{"name":"Riad Villa Harmonie","asciiName":"Riad Villa Harmonie","alternatenames":[],"lat":31.61902,"lon":-7.9863,"countryCode":"MA"},{"name":"Ibis Marrakech Centre Gare","asciiName":"Ibis Marrakech Centre Gare","alternatenames":[],"lat":31.62973,"lon":-8.01837,"countryCode":"MA"},{"name":"Las Palmeras","asciiName":"Las Palmeras","alternatenames":[],"lat":31.63291,"lon":-7.8937,"countryCode":"MA"},{"name":"Ushuaia Clubbing Hotel","asciiName":"Ushuaia Clubbing Hotel","alternatenames":[],"lat":31.62757,"lon":-7.99899,"countryCode":"MA"},{"name":"Golden Tulip Andalucia Golf Tanger","asciiName":"Golden Tulip Andalucia Golf Tanger","alternatenames":[],"lat":35.77533,"lon":-5.85245,"countryCode":"MA"},{"name":"Hotel Solazur Business & Spa","asciiName":"Hotel Solazur Business & Spa","alternatenames":[],"lat":35.77831,"lon":-5.79872,"countryCode":"MA"},{"name":"El Minzah","asciiName":"El Minzah","alternatenames":[],"lat":35.78229,"lon":-5.81247,"countryCode":"MA"},{"name":"El Minzah Deluxe","asciiName":"El Minzah Deluxe","alternatenames":[],"lat":35.78192,"lon":-5.81229,"countryCode":"MA"},{"name":"Golden Tulip Rawabi Marrakech","asciiName":"Golden Tulip Rawabi Marrakech","alternatenames":[],"lat":31.59616,"lon":-7.98746,"countryCode":"MA"},{"name":"Murano Resort Marrakech","asciiName":"Murano Resort Marrakech","alternatenames":[],"lat":31.6747,"lon":-7.95742,"countryCode":"MA"},{"name":"Riad Abhar","asciiName":"Riad Abhar","alternatenames":[],"lat":31.62835,"lon":-7.9867,"countryCode":"MA"},{"name":"Marrakech Garden Hotel","asciiName":"Marrakech Garden Hotel","alternatenames":[],"lat":31.67166,"lon":-8.00704,"countryCode":"MA"},{"name":"Helnan Chellah","asciiName":"Helnan Chellah","alternatenames":[],"lat":34.01458,"lon":-6.83178,"countryCode":"MA"},{"name":"Tulip Inn Oasis Agadir","asciiName":"Tulip Inn Oasis Agadir","alternatenames":[],"lat":30.42287,"lon":-9.60677,"countryCode":"MA"},{"name":"Pullman Marrakech Palmerai Resort & Spa","asciiName":"Pullman Marrakech Palmerai Resort & Spa","alternatenames":[],"lat":31.66133,"lon":-7.93327,"countryCode":"MA"},{"name":"Moroccan House Hotel Casablanca","asciiName":"Moroccan House Hotel Casablanca","alternatenames":[],"lat":33.59584,"lon":-7.60909,"countryCode":"MA"},{"name":"Eden Andalou Aquapark & Spa","asciiName":"Eden Andalou Aquapark & Spa","alternatenames":[],"lat":31.54529,"lon":-8.04728,"countryCode":"MA"},{"name":"Hotel Riu Tikida Palmeraie","asciiName":"Hotel Riu Tikida Palmeraie","alternatenames":[],"lat":31.64881,"lon":-7.92631,"countryCode":"MA"},{"name":"Riad Dar Saba","asciiName":"Riad Dar Saba","alternatenames":[],"lat":31.6334,"lon":-7.99326,"countryCode":"MA"},{"name":"Ibis Moussafir Tanger Free Zone","asciiName":"Ibis Moussafir Tanger Free Zone","alternatenames":[],"lat":35.71732,"lon":-5.90447,"countryCode":"MA"},{"name":"La Perle De Mogador","asciiName":"La Perle De Mogador","alternatenames":[],"lat":31.51314,"lon":-9.77053,"countryCode":"MA"},{"name":"Le Diwan Rabat By Mgallery Collection","asciiName":"Le Diwan Rabat By Mgallery Collection","alternatenames":[],"lat":34.01845,"lon":-6.82828,"countryCode":"MA"},{"name":"Couleurs Berberes","asciiName":"Couleurs Berberes","alternatenames":[],"lat":31.36459,"lon":-8.17115,"countryCode":"MA"},{"name":"Dar Justo","asciiName":"Dar Justo","alternatenames":[],"lat":31.63219,"lon":-7.98981,"countryCode":"MA"},{"name":"Palais Soltan Riad & Spa","asciiName":"Palais Soltan Riad & Spa","alternatenames":[],"lat":31.59491,"lon":-7.99169,"countryCode":"MA"},{"name":"Boutique La Renaissance","asciiName":"Boutique La Renaissance","alternatenames":[],"lat":31.63593,"lon":-8.0146,"countryCode":"MA"},{"name":"Tildi","asciiName":"Tildi","alternatenames":[],"lat":30.42337,"lon":-9.60657,"countryCode":"MA"},{"name":"Palais Des Remparts","asciiName":"Palais Des Remparts","alternatenames":[],"lat":31.5134,"lon":-9.77195,"countryCode":"MA"},{"name":"Dellarosa Hotel Suites & Spa","asciiName":"Dellarosa Hotel Suites & Spa","alternatenames":[],"lat":31.61999,"lon":-8.01414,"countryCode":"MA"},{"name":"Atlas Targa & Resort","asciiName":"Atlas Targa & Resort","alternatenames":[],"lat":31.67004,"lon":-8.0674,"countryCode":"MA"},{"name":"De Foucauld","asciiName":"De Foucauld","alternatenames":[],"lat":31.62433,"lon":-7.99103,"countryCode":"MA"},{"name":"Meriem","asciiName":"Meriem","alternatenames":[],"lat":31.62908,"lon":-8.00234,"countryCode":"MA"},{"name":"Opale","asciiName":"Opale","alternatenames":[],"lat":31.61882,"lon":-7.98182,"countryCode":"MA"},{"name":"Ibis Moussafir Casablanca City Center","asciiName":"Ibis Moussafir Casablanca City Center","alternatenames":[],"lat":33.59847,"lon":-7.61289,"countryCode":"MA"},{"name":"Palm Plaza Hotel & Spa","asciiName":"Palm Plaza Hotel & Spa","alternatenames":[],"lat":31.60778,"lon":-7.98912,"countryCode":"MA"},{"name":"Ibis Moussafir El Jadida","asciiName":"Ibis Moussafir El Jadida","alternatenames":[],"lat":33.24473,"lon":-8.49007,"countryCode":"MA"},{"name":"Ibis Moussafir Oujda","asciiName":"Ibis Moussafir Oujda","alternatenames":[],"lat":34.694,"lon":-1.918,"countryCode":"MA"},{"name":"Novotel Casablanca City Center","asciiName":"Novotel Casablanca City Center","alternatenames":[],"lat":33.59838,"lon":-7.61435,"countryCode":"MA"},{"name":"Pullman Mazagan Royal Golf & Spa","asciiName":"Pullman Mazagan Royal Golf & Spa","alternatenames":[],"lat":33.25917,"lon":-8.42353,"countryCode":"MA"},{"name":"Ibis Moussafir Casa Sidi Maarouf","asciiName":"Ibis Moussafir Casa Sidi Maarouf","alternatenames":[],"lat":33.53889,"lon":-7.64087,"countryCode":"MA"},{"name":"Mercure Rabat Sheherazade","asciiName":"Mercure Rabat Sheherazade","alternatenames":[],"lat":34.01874,"lon":-6.82291,"countryCode":"MA"},{"name":"Ibis Moussafir Fnideq","asciiName":"Ibis Moussafir Fnideq","alternatenames":[],"lat":35.856,"lon":-5.347,"countryCode":"MA"},{"name":"Ibis Casa Voyageurs","asciiName":"Ibis Casa Voyageurs","alternatenames":[],"lat":33.5904,"lon":-7.59068,"countryCode":"MA"},{"name":"Atlas Les Almohades Casablanca","asciiName":"Atlas Les Almohades Casablanca","alternatenames":[],"lat":33.59307,"lon":-7.6234,"countryCode":"MA"},{"name":"Novotel Casa City Centre","asciiName":"Novotel Casa City Centre","alternatenames":[],"lat":33.5982,"lon":-7.61349,"countryCode":"MA"},{"name":"Splendid","asciiName":"Splendid","alternatenames":[],"lat":34.03788,"lon":-5.00054,"countryCode":"MA"},{"name":"Ibis Fez","asciiName":"Ibis Fez","alternatenames":[],"lat":34.04661,"lon":-5.00428,"countryCode":"MA"},{"name":"Barcelo","asciiName":"Barcelo","alternatenames":[],"lat":34.04359,"lon":-4.99715,"countryCode":"MA"},{"name":"Menzeh Zalagh","asciiName":"Menzeh Zalagh","alternatenames":[],"lat":34.04144,"lon":-4.99435,"countryCode":"MA"},{"name":"Palm's Club","asciiName":"Palm's Club","alternatenames":[],"lat":31.429,"lon":-4.236,"countryCode":"MA"},{"name":"Ksar Assalassil","asciiName":"Ksar Assalassil","alternatenames":[],"lat":31.40894,"lon":-4.25083,"countryCode":"MA"},{"name":"Jnane La Kasbha","asciiName":"Jnane La Kasbha","alternatenames":[],"lat":31.40895,"lon":-4.25083,"countryCode":"MA"},{"name":"Bab Rimal","asciiName":"Bab Rimal","alternatenames":[],"lat":30.08574,"lon":-6.87332,"countryCode":"MA"},{"name":"Bivouac Les Dunes De Tinfou","asciiName":"Bivouac Les Dunes De Tinfou","alternatenames":[],"lat":30.31806,"lon":-5.82827,"countryCode":"MA"},{"name":"Kasbah Oulad Othmane","asciiName":"Kasbah Oulad Othmane","alternatenames":[],"lat":30.60463,"lon":-6.16791,"countryCode":"MA"},{"name":"Auberge Bivouac La Belle Etoile","asciiName":"Auberge Bivouac La Belle Etoile","alternatenames":[],"lat":31.09917,"lon":-4.01167,"countryCode":"MA"},{"name":"Hotel Kasbah Kanz Erremal","asciiName":"Hotel Kasbah Kanz Erremal","alternatenames":[],"lat":31.11,"lon":-3.97,"countryCode":"MA"},{"name":"Iberostar Waves Saïdia","asciiName":"Iberostar Waves Saidia","alternatenames":[],"lat":35.10166,"lon":-2.28228,"countryCode":"MA"},{"name":"Riad Kaiss","asciiName":"Riad Kaiss","alternatenames":[],"lat":31.62181,"lon":-7.98621,"countryCode":"MA"},{"name":"Tropicana Hotel","asciiName":"Tropicana Hotel","alternatenames":[],"lat":31.63,"lon":-8.0118,"countryCode":"MA"},{"name":"Chez Momo","asciiName":"Chez Momo","alternatenames":[],"lat":31.63438,"lon":-7.99908,"countryCode":"MA"},{"name":"Riad Lotus Privilege","asciiName":"Riad Lotus Privilege","alternatenames":[],"lat":31.63391,"lon":-7.99269,"countryCode":"MA"},{"name":"Hicham Hotel","asciiName":"Hicham Hotel","alternatenames":[],"lat":31.63,"lon":-8.0118,"countryCode":"MA"},{"name":"The Pearl Marrakech","asciiName":"The Pearl Marrakech","alternatenames":[],"lat":31.62466,"lon":-8.00238,"countryCode":"MA"},{"name":"Palais Noor El Jena","asciiName":"Palais Noor El Jena","alternatenames":[],"lat":31.629,"lon":-7.992,"countryCode":"MA"},{"name":"Cesar Resort & Spa","asciiName":"Cesar Resort & Spa","alternatenames":[],"lat":31.16878,"lon":-7.98655,"countryCode":"MA"},{"name":"Angsana Riads Collection","asciiName":"Angsana Riads Collection","alternatenames":[],"lat":31.62757,"lon":-7.99899,"countryCode":"MA"},{"name":"Riad La Maison Des Oliviers","asciiName":"Riad La Maison Des Oliviers","alternatenames":[],"lat":31.60427,"lon":-7.99255,"countryCode":"MA"},{"name":"Hotel El Hadna","asciiName":"Hotel El Hadna","alternatenames":[],"lat":31.63879,"lon":-8.0179,"countryCode":"MA"},{"name":"Riad Moullaoud","asciiName":"Riad Moullaoud","alternatenames":[],"lat":31.63204,"lon":-7.98631,"countryCode":"MA"},{"name":"Riad Dar Loula","asciiName":"Riad Dar Loula","alternatenames":[],"lat":31.62319,"lon":-7.98464,"countryCode":"MA"},{"name":"Riad Sidi Mimoun","asciiName":"Riad Sidi Mimoun","alternatenames":[],"lat":31.63,"lon":-8.0118,"countryCode":"MA"},{"name":"Palais Targa","asciiName":"Palais Targa","alternatenames":[],"lat":31.63256,"lon":-8.00895,"countryCode":"MA"},{"name":"Riad Zayane","asciiName":"Riad Zayane","alternatenames":[],"lat":31.63385,"lon":-8.00008,"countryCode":"MA"},{"name":"Palais Calipau Marrakech","asciiName":"Palais Calipau Marrakech","alternatenames":[],"lat":31.62985,"lon":-7.98929,"countryCode":"MA"},{"name":"Four Seasons","asciiName":"Four Seasons","alternatenames":[],"lat":31.60957,"lon":-8.01393,"countryCode":"MA"},{"name":"Riad Zolah","asciiName":"Riad Zolah","alternatenames":[],"lat":31.6376,"lon":-7.98466,"countryCode":"MA"},{"name":"Riad Le Nid De La Colombe","asciiName":"Riad Le Nid De La Colombe","alternatenames":[],"lat":31.63601,"lon":-7.99101,"countryCode":"MA"},{"name":"Hotel Ryads Naoura Barriere","asciiName":"Hotel Ryads Naoura Barriere","alternatenames":[],"lat":31.62417,"lon":-7.99469,"countryCode":"MA"},{"name":"Villa Al Assala Palmeraie","asciiName":"Villa Al Assala Palmeraie","alternatenames":[],"lat":31.65,"lon":-7.926,"countryCode":"MA"},{"name":"Sabah","asciiName":"Sabah","alternatenames":[],"lat":31.61406,"lon":-7.98756,"countryCode":"MA"},{"name":"Riad Chennaoui","asciiName":"Riad Chennaoui","alternatenames":[],"lat":31.622,"lon":-7.981,"countryCode":"MA"},{"name":"Hostal Equity Point Marrakech","asciiName":"Hostal Equity Point Marrakech","alternatenames":[],"lat":31.63472,"lon":-7.98634,"countryCode":"MA"},{"name":"Sofitel Marrakech Lounge And Spa","asciiName":"Sofitel Marrakech Lounge And Spa","alternatenames":[],"lat":31.62139,"lon":-8.00214,"countryCode":"MA"},{"name":"Riad El Fenn","asciiName":"Riad El Fenn","alternatenames":[],"lat":31.63695,"lon":-8.01056,"countryCode":"MA"},{"name":"Dar Ayniwen Villa","asciiName":"Dar Ayniwen Villa","alternatenames":[],"lat":31.67335,"lon":-7.95656,"countryCode":"MA"},{"name":"Riad Dar Bounouar","asciiName":"Riad Dar Bounouar","alternatenames":[],"lat":31.63093,"lon":-7.9858,"countryCode":"MA"},{"name":"Riad Nerja","asciiName":"Riad Nerja","alternatenames":[],"lat":31.62757,"lon":-7.99899,"countryCode":"MA"},{"name":"Riad Little Paradise Palais _ Spa","asciiName":"Riad Little Paradise Palais _ Spa","alternatenames":[],"lat":31.65185,"lon":-7.97929,"countryCode":"MA"},{"name":"Riad Palais Sebban","asciiName":"Riad Palais Sebban","alternatenames":[],"lat":31.63,"lon":-8.0118,"countryCode":"MA"},{"name":"Douar Al Hana Resort & Spa","asciiName":"Douar Al Hana Resort & Spa","alternatenames":[],"lat":31.64794,"lon":-7.92255,"countryCode":"MA"},{"name":"Club Sangho Privilege","asciiName":"Club Sangho Privilege","alternatenames":[],"lat":31.631,"lon":-8.012,"countryCode":"MA"},{"name":"Ryads Park & Spa","asciiName":"Ryads Park & Spa","alternatenames":[],"lat":31.63132,"lon":-8.01248,"countryCode":"MA"},{"name":"Red Hotel","asciiName":"Red Hotel","alternatenames":[],"lat":31.63146,"lon":-8.81633,"countryCode":"MA"},{"name":"Pullman Marrakech Hotel And Spa","asciiName":"Pullman Marrakech Hotel And Spa","alternatenames":[],"lat":31.56918,"lon":-8.00903,"countryCode":"MA"},{"name":"Riad Dar Cherif","asciiName":"Riad Dar Cherif","alternatenames":[],"lat":31.65303,"lon":-7.97209,"countryCode":"MA"},{"name":"Riad Les Oliviers","asciiName":"Riad Les Oliviers","alternatenames":[],"lat":31.63,"lon":-8.0118,"countryCode":"MA"},{"name":"Riad Itrane","asciiName":"Riad Itrane","alternatenames":[],"lat":31.625,"lon":-7.989,"countryCode":"MA"},{"name":"Riad Les Ammonites","asciiName":"Riad Les Ammonites","alternatenames":[],"lat":31.62872,"lon":-7.98513,"countryCode":"MA"},{"name":"Riad Alma","asciiName":"Riad Alma","alternatenames":[],"lat":31.51614,"lon":-9.76587,"countryCode":"MA"},{"name":"Nassim Hotel","asciiName":"Nassim Hotel","alternatenames":[],"lat":31.63,"lon":-8.0118,"countryCode":"MA"},{"name":"Myriem 'S Hotel","asciiName":"Myriem 'S Hotel","alternatenames":[],"lat":31.63,"lon":-8.0118,"countryCode":"MA"},{"name":"Dar Souihla Les Dars D Orient","asciiName":"Dar Souihla Les Dars D Orient","alternatenames":[],"lat":31.6335,"lon":-8.01188,"countryCode":"MA"},{"name":"Riad Demeures D'orient","asciiName":"Riad Demeures D'orient","alternatenames":[],"lat":31.63535,"lon":-7.98934,"countryCode":"MA"},{"name":"Pick Albatros (Ex Royal Mirage Hotel)","asciiName":"Pick Albatros (Ex Royal Mirage Hotel)","alternatenames":[],"lat":31.6174,"lon":-8.00957,"countryCode":"MA"},{"name":"Riad Vendome & Spa","asciiName":"Riad Vendome & Spa","alternatenames":[],"lat":31.62729,"lon":-7.9926,"countryCode":"MA"},{"name":"Dar Baya","asciiName":"Dar Baya","alternatenames":[],"lat":31.63519,"lon":-7.99574,"countryCode":"MA"},{"name":"Sofitel Marrakech Palais Imperial","asciiName":"Sofitel Marrakech Palais Imperial","alternatenames":[],"lat":31.62144,"lon":-8.00155,"countryCode":"MA"},{"name":"Riad Hcekarram","asciiName":"Riad Hcekarram","alternatenames":[],"lat":31.62971,"lon":-7.99873,"countryCode":"MA"},{"name":"Dar Catalina","asciiName":"Dar Catalina","alternatenames":[],"lat":31.63,"lon":-8.0118,"countryCode":"MA"},{"name":"Hotel Ibis Moussafir Marrakech Centre Gare","asciiName":"Hotel Ibis Moussafir Marrakech Centre Gare","alternatenames":[],"lat":31.63026,"lon":-8.0181,"countryCode":"MA"},{"name":"Riad Calista","asciiName":"Riad Calista","alternatenames":[],"lat":31.6189,"lon":-7.987,"countryCode":"MA"},{"name":"Minotel Riad Mandalay","asciiName":"Minotel Riad Mandalay","alternatenames":[],"lat":31.61387,"lon":-7.98501,"countryCode":"MA"},{"name":"Palais Jena _ Spa","asciiName":"Palais Jena _ Spa","alternatenames":[],"lat":31.5918,"lon":-7.98557,"countryCode":"MA"},{"name":"Red Hotel Marrakech","asciiName":"Red Hotel Marrakech","alternatenames":[],"lat":31.62896,"lon":-8.01598,"countryCode":"MA"},{"name":"Riad Zenith Marrakech","asciiName":"Riad Zenith Marrakech","alternatenames":[],"lat":31.62252,"lon":-7.98192,"countryCode":"MA"},{"name":"Hotel Almas","asciiName":"Hotel Almas","alternatenames":[],"lat":31.63,"lon":-8.0118,"countryCode":"MA"},{"name":"Riad Villa Des Trois Golfs","asciiName":"Riad Villa Des Trois Golfs","alternatenames":[],"lat":31.66875,"lon":-7.95854,"countryCode":"MA"},{"name":"Villa Du Lac","asciiName":"Villa Du Lac","alternatenames":[],"lat":31.33649,"lon":-8.11924,"countryCode":"MA"},{"name":"Johenna","asciiName":"Johenna","alternatenames":[],"lat":31.62661,"lon":-7.98649,"countryCode":"MA"},{"name":"Riad Shemsi","asciiName":"Riad Shemsi","alternatenames":[],"lat":31.61443,"lon":-7.98637,"countryCode":"MA"},{"name":"Riad Alida","asciiName":"Riad Alida","alternatenames":[],"lat":31.6313,"lon":-7.99402,"countryCode":"MA"},{"name":"Ksar Catalina Marrakech Hotel","asciiName":"Ksar Catalina Marrakech Hotel","alternatenames":[],"lat":31.63132,"lon":-8.01248,"countryCode":"MA"},{"name":"Exclusive Hotel Dar Rhizlane","asciiName":"Exclusive Hotel Dar Rhizlane","alternatenames":[],"lat":31.63132,"lon":-8.01248,"countryCode":"MA"},{"name":"Dar Nabila","asciiName":"Dar Nabila","alternatenames":[],"lat":31.6393,"lon":-7.99465,"countryCode":"MA"},{"name":"Riad Batoul","asciiName":"Riad Batoul","alternatenames":[],"lat":31.62595,"lon":-7.98886,"countryCode":"MA"},{"name":"Hotel Les Jardins De La Medina","asciiName":"Hotel Les Jardins De La Medina","alternatenames":[],"lat":31.61276,"lon":-7.98727,"countryCode":"MA"},{"name":"Atlas Targa And Resort","asciiName":"Atlas Targa And Resort","alternatenames":[],"lat":31.66586,"lon":-8.06688,"countryCode":"MA"},{"name":"Bled Al Fassia","asciiName":"Bled Al Fassia","alternatenames":[],"lat":31.634,"lon":-7.996,"countryCode":"MA"},{"name":"Kech Boutique Hotel & Spa","asciiName":"Kech Boutique Hotel & Spa","alternatenames":[],"lat":31.58092,"lon":-7.98443,"countryCode":"MA"},{"name":"Ryad Amiran","asciiName":"Ryad Amiran","alternatenames":[],"lat":31.63818,"lon":-7.99942,"countryCode":"MA"},{"name":"Ibis Moussafir Palmeraie","asciiName":"Ibis Moussafir Palmeraie","alternatenames":[],"lat":31.63132,"lon":-8.01247,"countryCode":"MA"},{"name":"Dar Les Cigognes","asciiName":"Dar Les Cigognes","alternatenames":[],"lat":31.63333,"lon":-7.98374,"countryCode":"MA"},{"name":"Les Terres M'barka","asciiName":"Les Terres M'barka","alternatenames":[],"lat":31.47091,"lon":-8.11921,"countryCode":"MA"},{"name":"Riad Azukar","asciiName":"Riad Azukar","alternatenames":[],"lat":31.62775,"lon":-7.98752,"countryCode":"MA"},{"name":"Riad Viva","asciiName":"Riad Viva","alternatenames":[],"lat":31.62018,"lon":-7.99551,"countryCode":"MA"},{"name":"Hotel Adam Park And Spa","asciiName":"Hotel Adam Park And Spa","alternatenames":[],"lat":31.59517,"lon":-7.98987,"countryCode":"MA"},{"name":"Riad Houda","asciiName":"Riad Houda","alternatenames":[],"lat":33.93881,"lon":-5.5426,"countryCode":"MA"},{"name":"Hotel Menzeh Dalia","asciiName":"Hotel Menzeh Dalia","alternatenames":[],"lat":33.85737,"lon":-5.58676,"countryCode":"MA"},{"name":"Bab Mansour","asciiName":"Bab Mansour","alternatenames":[],"lat":33.8982,"lon":-5.54455,"countryCode":"MA"},{"name":"Hotel Ibis Moussafir Meknes","asciiName":"Hotel Ibis Moussafir Meknes","alternatenames":[],"lat":33.89568,"lon":-5.55352,"countryCode":"MA"},{"name":"La Perle Du Sud Hotel","asciiName":"La Perle Du Sud Hotel","alternatenames":[],"lat":30.9193,"lon":-6.8921,"countryCode":"MA"},{"name":"Riad Tigmi El Janoub","asciiName":"Riad Tigmi El Janoub","alternatenames":[],"lat":31.05292,"lon":-7.14644,"countryCode":"MA"},{"name":"Auberges Des Gorges Du Dades","asciiName":"Auberges Des Gorges Du Dades","alternatenames":[],"lat":31.37456,"lon":-5.9924,"countryCode":"MA"},{"name":"Auberge Kasbah Meteorites","asciiName":"Auberge Kasbah Meteorites","alternatenames":[],"lat":31.11089,"lon":-5.17373,"countryCode":"MA"},{"name":"Nadia","asciiName":"Nadia","alternatenames":[],"lat":30.91909,"lon":-6.90382,"countryCode":"MA"},{"name":"Tichka Salam","asciiName":"Tichka Salam","alternatenames":[],"lat":30.91988,"lon":-6.89353,"countryCode":"MA"},{"name":"Palmeraie","asciiName":"Palmeraie","alternatenames":[],"lat":30.91987,"lon":-6.89354,"countryCode":"MA"},{"name":"Kasbah Ait Ben Damiette","asciiName":"Kasbah Ait Ben Damiette","alternatenames":[],"lat":31.04251,"lon":-6.56433,"countryCode":"MA"},{"name":"Le Vieux Chateau De Dades","asciiName":"Le Vieux Chateau De Dades","alternatenames":[],"lat":31.37456,"lon":-5.9924,"countryCode":"MA"},{"name":"Club Hanane","asciiName":"Club Hanane","alternatenames":[],"lat":30.919,"lon":-6.904,"countryCode":"MA"},{"name":"Hotel Le Fint","asciiName":"Hotel Le Fint","alternatenames":[],"lat":30.921,"lon":-6.898,"countryCode":"MA"},{"name":"Le Petit Riad","asciiName":"Le Petit Riad","alternatenames":[],"lat":31.62737,"lon":-7.98957,"countryCode":"MA"},{"name":"Riad Salam","asciiName":"Riad Salam","alternatenames":[],"lat":30.91988,"lon":-6.89353,"countryCode":"MA"},{"name":"Dar Lorkam","asciiName":"Dar Lorkam","alternatenames":[],"lat":31.09936,"lon":-6.58408,"countryCode":"MA"},{"name":"Dar Panorama","asciiName":"Dar Panorama","alternatenames":[],"lat":31.06342,"lon":-6.54984,"countryCode":"MA"},{"name":"Riad Ksar Ighnda","asciiName":"Riad Ksar Ighnda","alternatenames":[],"lat":31.06616,"lon":-7.1434,"countryCode":"MA"},{"name":"Defat Kasba","asciiName":"Defat Kasba","alternatenames":[],"lat":31.02705,"lon":-7.12205,"countryCode":"MA"},{"name":"Belere","asciiName":"Belere","alternatenames":[],"lat":34.01505,"lon":-6.83271,"countryCode":"MA"},{"name":"Hotel Texuda","asciiName":"Hotel Texuda","alternatenames":[],"lat":34.01421,"lon":-6.83392,"countryCode":"MA"},{"name":"M'gallery Diwan Rabat","asciiName":"M'gallery Diwan Rabat","alternatenames":[],"lat":34.01821,"lon":-6.82341,"countryCode":"MA"},{"name":"Riad Dar El Kebira","asciiName":"Riad Dar El Kebira","alternatenames":[],"lat":34.028,"lon":-6.835,"countryCode":"MA"},{"name":"Dar Eddaya","asciiName":"Dar Eddaya","alternatenames":[],"lat":34.01422,"lon":-6.83392,"countryCode":"MA"},{"name":"Hotel Oumlil","asciiName":"Hotel Oumlil","alternatenames":[],"lat":33.9633,"lon":-6.9619,"countryCode":"MA"},{"name":"Hotel Mercure Shehrazade","asciiName":"Hotel Mercure Shehrazade","alternatenames":[],"lat":34.01928,"lon":-6.82284,"countryCode":"MA"},{"name":"Bouregreg","asciiName":"Bouregreg","alternatenames":[],"lat":34.03,"lon":-6.825,"countryCode":"MA"},{"name":"Hotel Belere Rabat","asciiName":"Hotel Belere Rabat","alternatenames":[],"lat":34.01439,"lon":-6.83662,"countryCode":"MA"},{"name":"Sultana Htl_Spa Oualidia","asciiName":"Sultana Htl_Spa Oualidia","alternatenames":[],"lat":32.73619,"lon":-9.02947,"countryCode":"MA"},{"name":"Hotel Al Khaima","asciiName":"Hotel Al Khaima","alternatenames":[],"lat":35.3421,"lon":-5.2117,"countryCode":"MA"},{"name":"Hotel Atlas Chaouen","asciiName":"Hotel Atlas Chaouen","alternatenames":[],"lat":30.3317,"lon":-5.8504,"countryCode":"MA"},{"name":"Madrid","asciiName":"Madrid","alternatenames":[],"lat":35.17201,"lon":-5.25826,"countryCode":"MA"},{"name":"Ibis (Tangier)","asciiName":"Ibis (Tangier)","alternatenames":[],"lat":35.71483,"lon":-5.90437,"countryCode":"MA"},{"name":"Atlas Hospitality Tanger","asciiName":"Atlas Hospitality Tanger","alternatenames":[],"lat":35.78584,"lon":-5.80645,"countryCode":"MA"},{"name":"Hotel Moevenpick Malabata","asciiName":"Hotel Moevenpick Malabata","alternatenames":[],"lat":35.7844,"lon":-5.8178,"countryCode":"MA"},{"name":"Tanjah Flandria","asciiName":"Tanjah Flandria","alternatenames":[],"lat":35.779,"lon":-5.808,"countryCode":"MA"},{"name":"Hotel Atlas Almohades Tanger","asciiName":"Hotel Atlas Almohades Tanger","alternatenames":[],"lat":35.7844,"lon":-5.8178,"countryCode":"MA"},{"name":"Dar Nilam","asciiName":"Dar Nilam","alternatenames":[],"lat":35.77222,"lon":-5.77952,"countryCode":"MA"},{"name":"Hotel Atlas Rif & Spa","asciiName":"Hotel Atlas Rif & Spa","alternatenames":[],"lat":35.7844,"lon":-5.8178,"countryCode":"MA"},{"name":"Chellah (Tangier)","asciiName":"Chellah (Tangier)","alternatenames":[],"lat":35.77834,"lon":-5.8109,"countryCode":"MA"},{"name":"Continental","asciiName":"Continental","alternatenames":[],"lat":35.787,"lon":-5.809,"countryCode":"MA"},{"name":"Golden Tulip Andalucia Golf Tanger","asciiName":"Golden Tulip Andalucia Golf Tanger","alternatenames":[],"lat":31.63,"lon":-8.0118,"countryCode":"MA"},{"name":"Tarik","asciiName":"Tarik","alternatenames":[],"lat":35.751,"lon":-5.828,"countryCode":"MA"},{"name":"Riad Tafilag","asciiName":"Riad Tafilag","alternatenames":[],"lat":30.46558,"lon":-8.8726,"countryCode":"MA"},{"name":"Kabila","asciiName":"Kabila","alternatenames":[],"lat":35.72861,"lon":-5.33986,"countryCode":"MA"},{"name":"El Yacouta","asciiName":"El Yacouta","alternatenames":[],"lat":35.59869,"lon":-5.33713,"countryCode":"MA"},{"name":"Barcelo Marina Smir","asciiName":"Barcelo Marina Smir","alternatenames":[],"lat":35.56109,"lon":-5.37042,"countryCode":"MA"},{"name":"Hotel Michlifen Ifrane Suites & Spa","asciiName":"Hotel Michlifen Ifrane Suites & Spa","alternatenames":[],"lat":31.03373,"lon":-5.7006,"countryCode":"MA"},{"name":"Riad Al Pacha","asciiName":"Riad Al Pacha","alternatenames":[],"lat":34.064,"lon":-4.982,"countryCode":"MA"},{"name":"La Perle De La Medina","asciiName":"La Perle De La Medina","alternatenames":[],"lat":34.05902,"lon":-4.97902,"countryCode":"MA"},{"name":"Riad Myra","asciiName":"Riad Myra","alternatenames":[],"lat":34.046,"lon":-4.997,"countryCode":"MA"},{"name":"Menzeh Zalagh Ii","asciiName":"Menzeh Zalagh Ii","alternatenames":[],"lat":34.0413,"lon":-4.9944,"countryCode":"MA"},{"name":"Riad Fez Yamanda","asciiName":"Riad Fez Yamanda","alternatenames":[],"lat":34.045,"lon":-4.999,"countryCode":"MA"},{"name":"Sofitel Palais Jamais","asciiName":"Sofitel Palais Jamais","alternatenames":[],"lat":34.06883,"lon":-4.97394,"countryCode":"MA"},{"name":"Riad Damia","asciiName":"Riad Damia","alternatenames":[],"lat":34.05754,"lon":-4.97824,"countryCode":"MA"},{"name":"Riad Palais Ommeyad","asciiName":"Riad Palais Ommeyad","alternatenames":[],"lat":34.07086,"lon":-5.07568,"countryCode":"MA"},{"name":"Ametis Nouzha","asciiName":"Ametis Nouzha","alternatenames":[],"lat":34.05904,"lon":-4.9728,"countryCode":"MA"},{"name":"Palais Al Firdaus","asciiName":"Palais Al Firdaus","alternatenames":[],"lat":34.04417,"lon":-4.99542,"countryCode":"MA"},{"name":"Le Medina Essaouira Hotel Thalassa Sea & Spa Mgallery","asciiName":"Le Medina Essaouira Hotel Thalassa Sea & Spa Mgallery","alternatenames":[],"lat":31.5084,"lon":-9.76597,"countryCode":"MA"},{"name":"Riad Al Zahia Essaouira","asciiName":"Riad Al Zahia Essaouira","alternatenames":[],"lat":31.51307,"lon":-9.76971,"countryCode":"MA"},{"name":"Hotel Lemechouar","asciiName":"Hotel Lemechouar","alternatenames":[],"lat":31.51183,"lon":-9.76891,"countryCode":"MA"},{"name":"Atlas Essaouira & Spa","asciiName":"Atlas Essaouira & Spa","alternatenames":[],"lat":31.50173,"lon":-9.76217,"countryCode":"MA"},{"name":"Riad Mumtaz Mahal","asciiName":"Riad Mumtaz Mahal","alternatenames":[],"lat":31.51134,"lon":-9.77016,"countryCode":"MA"},{"name":"Riad Villa Damonte","asciiName":"Riad Villa Damonte","alternatenames":[],"lat":31.46415,"lon":-9.78265,"countryCode":"MA"},{"name":"Ocean Vagabond","asciiName":"Ocean Vagabond","alternatenames":[],"lat":31.51622,"lon":-9.76685,"countryCode":"MA"},{"name":"Dar Liouba","asciiName":"Dar Liouba","alternatenames":[],"lat":31.5133,"lon":-9.7668,"countryCode":"MA"},{"name":"Les Iles Hotel","asciiName":"Les Iles Hotel","alternatenames":[],"lat":31.5157,"lon":-9.7674,"countryCode":"MA"},{"name":"Villa Maroc","asciiName":"Villa Maroc","alternatenames":[],"lat":31.51196,"lon":-9.77164,"countryCode":"MA"},{"name":"Les Terrasses D'essaouira","asciiName":"Les Terrasses D'essaouira","alternatenames":[],"lat":31.51424,"lon":-9.76946,"countryCode":"MA"},{"name":"Riad Al Madina","asciiName":"Riad Al Madina","alternatenames":[],"lat":31.51,"lon":-9.76,"countryCode":"MA"},{"name":"Riad Almadina","asciiName":"Riad Almadina","alternatenames":[],"lat":31.512,"lon":-9.771,"countryCode":"MA"},{"name":"Mazagan Beach Resort","asciiName":"Mazagan Beach Resort","alternatenames":[],"lat":33.26776,"lon":-8.39727,"countryCode":"MA"},{"name":"Art Suites El Jadida","asciiName":"Art Suites El Jadida","alternatenames":[],"lat":33.25651,"lon":-8.50761,"countryCode":"MA"},{"name":"Ajiad Hotel","asciiName":"Ajiad Hotel","alternatenames":[],"lat":33.5684,"lon":-7.5028,"countryCode":"MA"},{"name":"Enasma","asciiName":"Enasma","alternatenames":[],"lat":33.58978,"lon":-7.61395,"countryCode":"MA"},{"name":"Mercure Les Almohades","asciiName":"Mercure Les Almohades","alternatenames":[],"lat":33.596,"lon":-7.62403,"countryCode":"MA"},{"name":"Hotel Toubkal","asciiName":"Hotel Toubkal","alternatenames":[],"lat":33.60059,"lon":-7.61906,"countryCode":"MA"},{"name":"Ibis Moussafir Casablanca Gare","asciiName":"Ibis Moussafir Casablanca Gare","alternatenames":[],"lat":33.59103,"lon":-7.58948,"countryCode":"MA"},{"name":"Hotel Ibis Casablanca Sidi Maarouf","asciiName":"Hotel Ibis Casablanca Sidi Maarouf","alternatenames":[],"lat":33.53867,"lon":-7.64081,"countryCode":"MA"},{"name":"Le Royal Mansour Meridien","asciiName":"Le Royal Mansour Meridien","alternatenames":[],"lat":33.5963,"lon":-7.60868,"countryCode":"MA"},{"name":"Casablanca Appart'hotel","asciiName":"Casablanca Appart'hotel","alternatenames":[],"lat":33.58402,"lon":-7.62897,"countryCode":"MA"},{"name":"Gite Nadia","asciiName":"Gite Nadia","alternatenames":[],"lat":33.5176,"lon":-7.68811,"countryCode":"MA"},{"name":"Salim","asciiName":"Salim","alternatenames":[],"lat":33.56033,"lon":-7.57937,"countryCode":"MA"},{"name":"Hotel Moroccan House Casablanca","asciiName":"Hotel Moroccan House Casablanca","alternatenames":[],"lat":33.5684,"lon":-7.5028,"countryCode":"MA"},{"name":"Prince De Paris Hotel","asciiName":"Prince De Paris Hotel","alternatenames":[],"lat":33.59113,"lon":-7.61372,"countryCode":"MA"},{"name":"Oum Palace Hotel","asciiName":"Oum Palace Hotel","alternatenames":[],"lat":33.5684,"lon":-7.5028,"countryCode":"MA"},{"name":"Hotel Al Bassatine","asciiName":"Hotel Al Bassatine","alternatenames":[],"lat":32.3464,"lon":-6.3587,"countryCode":"MA"},{"name":"Mohammed V","asciiName":"Mohammed V","alternatenames":[],"lat":35.2493,"lon":-3.93711,"countryCode":"MA"},{"name":"Hotel Sofitel Royal Bay Agadir","asciiName":"Hotel Sofitel Royal Bay Agadir","alternatenames":[],"lat":30.39323,"lon":-9.59669,"countryCode":"MA"},{"name":"Residence Flathotel","asciiName":"Residence Flathotel","alternatenames":[],"lat":30.415,"lon":-9.6084,"countryCode":"MA"},{"name":"Residence Chem's","asciiName":"Residence Chem's","alternatenames":[],"lat":30.401,"lon":-9.598,"countryCode":"MA"},{"name":"Tildi Hotel Agadir","asciiName":"Tildi Hotel Agadir","alternatenames":[],"lat":30.411,"lon":-9.596,"countryCode":"MA"},{"name":"Appart Hotel Igoudar","asciiName":"Appart Hotel Igoudar","alternatenames":[],"lat":30.415,"lon":-9.6084,"countryCode":"MA"},{"name":"Marhaba","asciiName":"Marhaba","alternatenames":[],"lat":30.4153,"lon":-9.59447,"countryCode":"MA"},{"name":"Appart-Hotel Founty Beach","asciiName":"Appart-Hotel Founty Beach","alternatenames":[],"lat":30.41488,"lon":-9.60067,"countryCode":"MA"},{"name":"Residence Intouriste","asciiName":"Residence Intouriste","alternatenames":[],"lat":30.412,"lon":-9.601,"countryCode":"MA"},{"name":"Decameron Tafoukt Beach Resort","asciiName":"Decameron Tafoukt Beach Resort","alternatenames":[],"lat":30.41728,"lon":-9.60389,"countryCode":"MA"},{"name":"Hotel Riu Tikida Beach","asciiName":"Hotel Riu Tikida Beach","alternatenames":[],"lat":30.40223,"lon":-9.59945,"countryCode":"MA"},{"name":"Club Almoggar Garden Beach","asciiName":"Club Almoggar Garden Beach","alternatenames":[],"lat":30.42381,"lon":-9.61046,"countryCode":"MA"},{"name":"Hotel Residence Golden Beach","asciiName":"Hotel Residence Golden Beach","alternatenames":[],"lat":30.415,"lon":-9.6084,"countryCode":"MA"},{"name":"Le Dorint Hotel","asciiName":"Le Dorint Hotel","alternatenames":[],"lat":30.415,"lon":-9.6084,"countryCode":"MA"},{"name":"Atlas Almohades Agadir","asciiName":"Atlas Almohades Agadir","alternatenames":[],"lat":30.415,"lon":-9.6084,"countryCode":"MA"},{"name":"Hotel El Pueblo Tamlet","asciiName":"Hotel El Pueblo Tamlet","alternatenames":[],"lat":30.415,"lon":-9.6084,"countryCode":"MA"},{"name":"Atlas Marina Beach","asciiName":"Atlas Marina Beach","alternatenames":[],"lat":30.42205,"lon":-9.61789,"countryCode":"MA"},{"name":"Residence Yasmina","asciiName":"Residence Yasmina","alternatenames":[],"lat":30.43211,"lon":-9.6227,"countryCode":"MA"},{"name":"Studiotel Afoud","asciiName":"Studiotel Afoud","alternatenames":[],"lat":30.417,"lon":-9.595,"countryCode":"MA"},{"name":"Odyssee Park Agadir Hotel","asciiName":"Odyssee Park Agadir Hotel","alternatenames":[],"lat":30.415,"lon":-9.6084,"countryCode":"MA"},{"name":"Residence Fleurie","asciiName":"Residence Fleurie","alternatenames":[],"lat":30.418,"lon":-9.594,"countryCode":"MA"},{"name":"Hotel Club Almoggar","asciiName":"Hotel Club Almoggar","alternatenames":[],"lat":30.41576,"lon":-9.58523,"countryCode":"MA"},{"name":"G Tulip Desarts","asciiName":"G Tulip Desarts","alternatenames":[],"lat":33.5326,"lon":-7.8246,"countryCode":"MA"},{"name":"Cesar And Spa","asciiName":"Cesar And Spa","alternatenames":[],"lat":35.77625,"lon":-5.77801,"countryCode":"MA"},{"name":"Hotel Oscar","asciiName":"Hotel Oscar","alternatenames":[],"lat":33.96059,"lon":-6.88697,"countryCode":"MA"},{"name":"Le Littoral Hotel","asciiName":"Le Littoral Hotel","alternatenames":[],"lat":33.93182,"lon":-6.95491,"countryCode":"MA"},{"name":"Ibis Rabat","asciiName":"Ibis Rabat","alternatenames":[],"lat":34.00072,"lon":-6.85521,"countryCode":"MA"},{"name":"Sofitel Rabat Jardin Des Roses Luxury","asciiName":"Sofitel Rabat Jardin Des Roses Luxury","alternatenames":[],"lat":33.99036,"lon":-6.83721,"countryCode":"MA"},{"name":"La Tour Hassan Superior Garden View","asciiName":"La Tour Hassan Superior Garden View","alternatenames":[],"lat":34.01928,"lon":-6.83028,"countryCode":"MA"},{"name":"Islane Hotel","asciiName":"Islane Hotel","alternatenames":[],"lat":31.63398,"lon":-8.02259,"countryCode":"MA"},{"name":"Jm Suites Hotel","asciiName":"Jm Suites Hotel","alternatenames":[],"lat":33.59,"lon":-7.65,"countryCode":"MA"},{"name":"Business","asciiName":"Business","alternatenames":[],"lat":33.58345,"lon":-7.6234,"countryCode":"MA"},{"name":"Residence Rihab Hotel","asciiName":"Residence Rihab Hotel","alternatenames":[],"lat":30.41029,"lon":-9.60059,"countryCode":"MA"},{"name":"New Farah Hotel","asciiName":"New Farah Hotel","alternatenames":[],"lat":30.41792,"lon":-9.59525,"countryCode":"MA"},{"name":"Adrar Hotel","asciiName":"Adrar Hotel","alternatenames":[],"lat":30.41956,"lon":-9.60389,"countryCode":"MA"},{"name":"Golden Beach Agadir Aparthotel","asciiName":"Golden Beach Agadir Aparthotel","alternatenames":[],"lat":30.40046,"lon":-9.59764,"countryCode":"MA"},{"name":"Lti Agadir Beach Club Hotel","asciiName":"Lti Agadir Beach Club Hotel","alternatenames":[],"lat":30.4108,"lon":-9.6012,"countryCode":"MA"},{"name":"Hotel And Spa Le Doge Relais","asciiName":"Hotel And Spa Le Doge Relais","alternatenames":[],"lat":33.59281,"lon":-7.62341,"countryCode":"MA"},{"name":"Riad Mille Et Une Nuits Hotel","asciiName":"Riad Mille Et Une Nuits Hotel","alternatenames":[],"lat":31.62981,"lon":-7.99489,"countryCode":"MA"},{"name":"Intouriste Hotel Agadir","asciiName":"Intouriste Hotel Agadir","alternatenames":[],"lat":30.41277,"lon":-9.60119,"countryCode":"MA"},{"name":"Riad Shaloma","asciiName":"Riad Shaloma","alternatenames":[],"lat":31.61804,"lon":-7.98226,"countryCode":"MA"},{"name":"Riad Karmela","asciiName":"Riad Karmela","alternatenames":[],"lat":31.63036,"lon":-7.98464,"countryCode":"MA"},{"name":"Blue Sea Hotel Marrakech Ryads Parc & Spa","asciiName":"Blue Sea Hotel Marrakech Ryads Parc & Spa","alternatenames":[],"lat":31.68718,"lon":-7.99209,"countryCode":"MA"},{"name":"Appart Hotel Assounfou","asciiName":"Appart Hotel Assounfou","alternatenames":[],"lat":31.63487,"lon":-8.00671,"countryCode":"MA"},{"name":"La Tour Hassan Meridien Hotel","asciiName":"La Tour Hassan Meridien Hotel","alternatenames":[],"lat":33.9633,"lon":-6.9619,"countryCode":"MA"},{"name":"Noramed","asciiName":"Noramed","alternatenames":[],"lat":31.04251,"lon":-6.56433,"countryCode":"MA"},{"name":"Karam Hotel","asciiName":"Karam Hotel","alternatenames":[],"lat":30.9193,"lon":-6.8921,"countryCode":"MA"},{"name":"Ryad Lora & Kenza","asciiName":"Ryad Lora & Kenza","alternatenames":[],"lat":31.63,"lon":-8.0118,"countryCode":"MA"},{"name":"Albatros Club","asciiName":"Albatros Club","alternatenames":[],"lat":31.61782,"lon":-8.00829,"countryCode":"MA"},{"name":"Riad Laila","asciiName":"Riad Laila","alternatenames":[],"lat":31.63897,"lon":-7.99216,"countryCode":"MA"},{"name":"Residence Des Golfs","asciiName":"Residence Des Golfs","alternatenames":[],"lat":31.64021,"lon":-8.02114,"countryCode":"MA"},{"name":"Riad Golfame","asciiName":"Riad Golfame","alternatenames":[],"lat":31.63132,"lon":-8.01248,"countryCode":"MA"},{"name":"Lorsya","asciiName":"Lorsya","alternatenames":[],"lat":31.63468,"lon":-7.98642,"countryCode":"MA"},{"name":"Terre Romance And Spa","asciiName":"Terre Romance And Spa","alternatenames":[],"lat":31.70371,"lon":-8.01725,"countryCode":"MA"},{"name":"Suites Appart Hotel Atlassia","asciiName":"Suites Appart Hotel Atlassia","alternatenames":[],"lat":31.63132,"lon":-8.01248,"countryCode":"MA"},{"name":"Riad Amazighen","asciiName":"Riad Amazighen","alternatenames":[],"lat":31.63132,"lon":-8.01248,"countryCode":"MA"},{"name":"Bluebay Marrakech","asciiName":"Bluebay Marrakech","alternatenames":[],"lat":31.71296,"lon":-7.99506,"countryCode":"MA"},{"name":"Le Littoral Hotel Temara","asciiName":"Le Littoral Hotel Temara","alternatenames":[],"lat":33.9633,"lon":-6.9619,"countryCode":"MA"},{"name":"Hotel Royal Decameron Issil","asciiName":"Hotel Royal Decameron Issil","alternatenames":[],"lat":31.65369,"lon":-7.97403,"countryCode":"MA"},{"name":"Hotel Royal Decameron Tafoukt","asciiName":"Hotel Royal Decameron Tafoukt","alternatenames":[],"lat":30.41086,"lon":-9.59641,"countryCode":"MA"},{"name":"Riad Eva","asciiName":"Riad Eva","alternatenames":[],"lat":31.62844,"lon":-7.98531,"countryCode":"MA"},{"name":"Hotel Ouzoud","asciiName":"Hotel Ouzoud","alternatenames":[],"lat":32.32215,"lon":-6.3803,"countryCode":"MA"},{"name":"Kenzi Tower (Junior Suite)","asciiName":"Kenzi Tower (Junior Suite)","alternatenames":[],"lat":33.58653,"lon":-7.63238,"countryCode":"MA"},{"name":"Sofitel Thalassa Sea And Spa","asciiName":"Sofitel Thalassa Sea And Spa","alternatenames":[],"lat":30.39272,"lon":-9.59755,"countryCode":"MA"},{"name":"Michlifen Ifrane Suites & Spa","asciiName":"Michlifen Ifrane Suites & Spa","alternatenames":[],"lat":33.53459,"lon":-5.10707,"countryCode":"MA"},{"name":"Be Live Grand Saidia","asciiName":"Be Live Grand Saidia","alternatenames":[],"lat":35.09987,"lon":-2.27447,"countryCode":"MA"},{"name":"Atlas Terminus Oujda","asciiName":"Atlas Terminus Oujda","alternatenames":[],"lat":34.68,"lon":-1.92,"countryCode":"MA"},{"name":"Bivouac Palmeras","asciiName":"Bivouac Palmeras","alternatenames":[],"lat":31.09917,"lon":-4.01167,"countryCode":"MA"},{"name":"Domaine De La Roseraie","asciiName":"Domaine De La Roseraie","alternatenames":[],"lat":31.17787,"lon":-8.07292,"countryCode":"MA"},{"name":"Villa De L'o","asciiName":"Villa De L'o","alternatenames":[],"lat":31.5127,"lon":-9.76616,"countryCode":"MA"},{"name":"Miramar","asciiName":"Miramar","alternatenames":[],"lat":31.50795,"lon":-9.76556,"countryCode":"MA"},{"name":"Kenzi Belere Hotel","asciiName":"Kenzi Belere Hotel","alternatenames":[],"lat":31.4379,"lon":-4.2396,"countryCode":"MA"},{"name":"Riad Salam","asciiName":"Riad Salam","alternatenames":[],"lat":31.42905,"lon":-4.23697,"countryCode":"MA"},{"name":"El Ati Hotel","asciiName":"El Ati Hotel","alternatenames":[],"lat":31.4379,"lon":-4.2396,"countryCode":"MA"},{"name":"Ibis Casablanca Nearshor","asciiName":"Ibis Casablanca Nearshor","alternatenames":[],"lat":33.52657,"lon":-7.63949,"countryCode":"MA"},{"name":"Husa Casablanca Plaza","asciiName":"Husa Casablanca Plaza","alternatenames":[],"lat":33.5333,"lon":-7.6832,"countryCode":"MA"},{"name":"Alwalid","asciiName":"Alwalid","alternatenames":[],"lat":33.5905,"lon":-7.59297,"countryCode":"MA"},{"name":"Park Suites Hotel & Spa","asciiName":"Park Suites Hotel & Spa","alternatenames":[],"lat":33.58895,"lon":-7.61962,"countryCode":"MA"},{"name":"Residence Agyad","asciiName":"Residence Agyad","alternatenames":[],"lat":30.4,"lon":-9.591,"countryCode":"MA"},{"name":"Bo Hotel & Spa","asciiName":"Bo Hotel & Spa","alternatenames":[],"lat":30.39601,"lon":-9.5945,"countryCode":"MA"},{"name":"Omega","asciiName":"Omega","alternatenames":[],"lat":30.39628,"lon":-9.59446,"countryCode":"MA"},{"name":"Tildi Hotel & Spa Agadir","asciiName":"Tildi Hotel & Spa Agadir","alternatenames":[],"lat":30.411,"lon":-9.596,"countryCode":"MA"},{"name":"Littoral Auberge","asciiName":"Littoral Auberge","alternatenames":[],"lat":30.508,"lon":-9.672,"countryCode":"MA"},{"name":"Ibis Tanger City Center","asciiName":"Ibis Tanger City Center","alternatenames":[],"lat":35.77233,"lon":-5.78323,"countryCode":"MA"},{"name":"Suites Hotel Mohammed V","asciiName":"Suites Hotel Mohammed V","alternatenames":[],"lat":35.24571,"lon":-3.92852,"countryCode":"MA"},{"name":"Cesar Boutique & Spa","asciiName":"Cesar Boutique & Spa","alternatenames":[],"lat":31.57964,"lon":-7.9827,"countryCode":"MA"},{"name":"Fibule Du Draa","asciiName":"Fibule Du Draa","alternatenames":[],"lat":30.30591,"lon":-5.82087,"countryCode":"MA"},{"name":"Pullman Marrakech Palmeraie Resort & Spa Hotel","asciiName":"Pullman Marrakech Palmeraie Resort & Spa Hotel","alternatenames":[],"lat":31.66131,"lon":-7.93323,"countryCode":"MA"},{"name":"L' Arganier D'or","asciiName":"L' Arganier D'or","alternatenames":[],"lat":30.54832,"lon":-8.69324,"countryCode":"MA"},{"name":"Ramada Encore Tangier","asciiName":"Ramada Encore Tangier","alternatenames":[],"lat":35.77339,"lon":-5.77986,"countryCode":"MA"},{"name":"Grand Mogador Tanger","asciiName":"Grand Mogador Tanger","alternatenames":[],"lat":35.78716,"lon":-5.76104,"countryCode":"MA"},{"name":"Kenzi Bougafer Hotel","asciiName":"Kenzi Bougafer Hotel","alternatenames":[],"lat":30.9193,"lon":-6.8921,"countryCode":"MA"},{"name":"Azoul","asciiName":"Azoul","alternatenames":[],"lat":30.91909,"lon":-6.90382,"countryCode":"MA"},{"name":"Kasbah Hajja","asciiName":"Kasbah Hajja","alternatenames":[],"lat":31.02705,"lon":-7.12205,"countryCode":"MA"},{"name":"Riad 34","asciiName":"Riad 34","alternatenames":[],"lat":31.62144,"lon":-7.98362,"countryCode":"MA"},{"name":"Al Maaden Villa Hotel & Spa","asciiName":"Al Maaden Villa Hotel & Spa","alternatenames":[],"lat":31.60626,"lon":-7.95385,"countryCode":"MA"},{"name":"Riad Lena","asciiName":"Riad Lena","alternatenames":[],"lat":31.63,"lon":-8.0118,"countryCode":"MA"},{"name":"Le Domaine De L'ourika","asciiName":"Le Domaine De L'ourika","alternatenames":[],"lat":31.54877,"lon":-7.94226,"countryCode":"MA"},{"name":"Domaine Du Douar","asciiName":"Domaine Du Douar","alternatenames":[],"lat":31.59213,"lon":-7.84948,"countryCode":"MA"},{"name":"Medina Garden Adults Only","asciiName":"Medina Garden Adults Only","alternatenames":[],"lat":31.62806,"lon":-7.9953,"countryCode":"MA"},{"name":"Riad Tchina","asciiName":"Riad Tchina","alternatenames":[],"lat":31.63132,"lon":-8.01248,"countryCode":"MA"},{"name":"Riad Le Perroquet Bleu","asciiName":"Riad Le Perroquet Bleu","alternatenames":[],"lat":31.62714,"lon":-7.97455,"countryCode":"MA"},{"name":"Riad Origines","asciiName":"Riad Origines","alternatenames":[],"lat":31.63653,"lon":-7.99367,"countryCode":"MA"},{"name":"Le Nid Des Cigognes","asciiName":"Le Nid Des Cigognes","alternatenames":[],"lat":31.62016,"lon":-7.98292,"countryCode":"MA"},{"name":"Riad Plein Sud","asciiName":"Riad Plein Sud","alternatenames":[],"lat":31.6362,"lon":-7.99431,"countryCode":"MA"},{"name":"Riad Amin","asciiName":"Riad Amin","alternatenames":[],"lat":31.61719,"lon":-7.98973,"countryCode":"MA"},{"name":"Riads Lotus Collection","asciiName":"Riads Lotus Collection","alternatenames":[],"lat":31.62636,"lon":-7.99091,"countryCode":"MA"},{"name":"Tigmiza Suites & Pavillions","asciiName":"Tigmiza Suites & Pavillions","alternatenames":[],"lat":31.66557,"lon":-7.90277,"countryCode":"MA"},{"name":"Palais El Miria","asciiName":"Palais El Miria","alternatenames":[],"lat":31.70534,"lon":-7.99886,"countryCode":"MA"},{"name":"Riad La Croix Berbere De Luxe","asciiName":"Riad La Croix Berbere De Luxe","alternatenames":[],"lat":31.62665,"lon":-7.99161,"countryCode":"MA"},{"name":"Riad Hamdane & Spa","asciiName":"Riad Hamdane & Spa","alternatenames":[],"lat":31.62377,"lon":-7.98843,"countryCode":"MA"},{"name":"Zalagh Kasbah Hotel & Spa","asciiName":"Zalagh Kasbah Hotel & Spa","alternatenames":[],"lat":31.63,"lon":-8.0118,"countryCode":"MA"},{"name":"In Club Palmeraie Resort","asciiName":"In Club Palmeraie Resort","alternatenames":[],"lat":31.68751,"lon":-7.97035,"countryCode":"MA"},{"name":"Riad Amira Victoria & Spa","asciiName":"Riad Amira Victoria & Spa","alternatenames":[],"lat":31.63541,"lon":-7.98543,"countryCode":"MA"},{"name":"Appart Hotel Amina","asciiName":"Appart Hotel Amina","alternatenames":[],"lat":31.62269,"lon":-8.00955,"countryCode":"MA"},{"name":"Sahara Palace Marrakech","asciiName":"Sahara Palace Marrakech","alternatenames":[],"lat":31.66419,"lon":-7.8774,"countryCode":"MA"},{"name":"Riad Les Clefs Du Sud","asciiName":"Riad Les Clefs Du Sud","alternatenames":[],"lat":31.64081,"lon":-7.99446,"countryCode":"MA"},{"name":"Palais Al Bahja Hotel & Spa","asciiName":"Palais Al Bahja Hotel & Spa","alternatenames":[],"lat":31.62715,"lon":-8.01808,"countryCode":"MA"},{"name":"Dar Jellouna Maison D Hotel Spa","asciiName":"Dar Jellouna Maison D Hotel Spa","alternatenames":[],"lat":31.50842,"lon":-7.9288,"countryCode":"MA"},{"name":"Riad Dar Foundouk & Spa","asciiName":"Riad Dar Foundouk & Spa","alternatenames":[],"lat":31.63301,"lon":-7.98464,"countryCode":"MA"},{"name":"La Maison Nomade","asciiName":"La Maison Nomade","alternatenames":[],"lat":31.63708,"lon":-7.99125,"countryCode":"MA"},{"name":"Riad Sougtani","asciiName":"Riad Sougtani","alternatenames":[],"lat":31.42331,"lon":-8.07514,"countryCode":"MA"},{"name":"Eldorador","asciiName":"Eldorador","alternatenames":[],"lat":31.629,"lon":-7.992,"countryCode":"MA"},{"name":"Riad Nashira & Spa","asciiName":"Riad Nashira & Spa","alternatenames":[],"lat":31.63417,"lon":-7.98854,"countryCode":"MA"},{"name":"Riad Slitine","asciiName":"Riad Slitine","alternatenames":[],"lat":31.6231,"lon":-7.98564,"countryCode":"MA"},{"name":"Les Jardins De Zyriab","asciiName":"Les Jardins De Zyriab","alternatenames":[],"lat":31.49885,"lon":-7.92221,"countryCode":"MA"},{"name":"Riad Mabrouk & Spa","asciiName":"Riad Mabrouk & Spa","alternatenames":[],"lat":31.6239,"lon":-7.98957,"countryCode":"MA"},{"name":"Majorelle Hotel","asciiName":"Majorelle Hotel","alternatenames":[],"lat":31.63,"lon":-8.0118,"countryCode":"MA"},{"name":"Riad L'oiseau Du Paradis","asciiName":"Riad L'oiseau Du Paradis","alternatenames":[],"lat":31.62738,"lon":-7.98183,"countryCode":"MA"},{"name":"Riad Dar Dmana","asciiName":"Riad Dar Dmana","alternatenames":[],"lat":34.05725,"lon":-4.9697,"countryCode":"MA"},{"name":"Residence La Perle Orientale","asciiName":"Residence La Perle Orientale","alternatenames":[],"lat":35.0914,"lon":-2.2453,"countryCode":"MA"},{"name":"Golden Tulip Anezi Agadir","asciiName":"Golden Tulip Anezi Agadir","alternatenames":[],"lat":30.41874,"lon":-9.6054,"countryCode":"MA"},{"name":"Ahlen","asciiName":"Ahlen","alternatenames":[],"lat":35.753,"lon":-5.852,"countryCode":"MA"},{"name":"Idou","asciiName":"Idou","alternatenames":[],"lat":29.69257,"lon":-9.72587,"countryCode":"MA"},{"name":"Mercure Sheherazate","asciiName":"Mercure Sheherazate","alternatenames":[],"lat":34.01876,"lon":-6.82327,"countryCode":"MA"},{"name":"Ibis Moussafir","asciiName":"Ibis Moussafir","alternatenames":[],"lat":34.00124,"lon":-6.8558,"countryCode":"MA"},{"name":"Bab Hotel","asciiName":"Bab Hotel","alternatenames":[],"lat":31.63418,"lon":-8.01506,"countryCode":"MA"},{"name":"Berbere Palace","asciiName":"Berbere Palace","alternatenames":[],"lat":30.92609,"lon":-6.88157,"countryCode":"MA"},{"name":"Kenzi Azghor","asciiName":"Kenzi Azghor","alternatenames":[],"lat":30.94159,"lon":-6.9307,"countryCode":"MA"},{"name":"Al Jasira","asciiName":"Al Jasira","alternatenames":[],"lat":31.50984,"lon":-9.76541,"countryCode":"MA"},{"name":"Kenzi Rissani","asciiName":"Kenzi Rissani","alternatenames":[],"lat":31.93533,"lon":-4.42139,"countryCode":"MA"},{"name":"Kasbah Tizimi","asciiName":"Kasbah Tizimi","alternatenames":[],"lat":31.4295,"lon":-4.24582,"countryCode":"MA"},{"name":"Best Western Toubka","asciiName":"Best Western Toubka","alternatenames":[],"lat":33.59827,"lon":-7.61349,"countryCode":"MA"},{"name":"Sofitel Agadir Thalassa Sea &","asciiName":"Sofitel Agadir Thalassa Sea &","alternatenames":[],"lat":30.3927,"lon":-9.59719,"countryCode":"MA"},{"name":"Beach Albatros","asciiName":"Beach Albatros","alternatenames":[],"lat":30.41937,"lon":-9.60399,"countryCode":"MA"},{"name":"Best Western Odyssee Park","asciiName":"Best Western Odyssee Park","alternatenames":[],"lat":30.41861,"lon":-9.60216,"countryCode":"MA"},{"name":"Le Coralia Club La Kasbah","asciiName":"Le Coralia Club La Kasbah","alternatenames":[],"lat":30.4199,"lon":-9.60413,"countryCode":"MA"},{"name":"Ibis Moussafir","asciiName":"Ibis Moussafir","alternatenames":[],"lat":30.41046,"lon":-9.58302,"countryCode":"MA"},{"name":"Palais Faraj","asciiName":"Palais Faraj","alternatenames":[],"lat":34.05729,"lon":-4.9763,"countryCode":"MA"},{"name":"Riad Litzy Marrakech","asciiName":"Riad Litzy Marrakech","alternatenames":[],"lat":31.62252,"lon":-7.98192,"countryCode":"MA"},{"name":"Littoral","asciiName":"Littoral","alternatenames":[],"lat":33.593,"lon":-7.673,"countryCode":"MA"},{"name":"Riad Sable Chaud","asciiName":"Riad Sable Chaud","alternatenames":[],"lat":31.64131,"lon":-8.00756,"countryCode":"MA"},{"name":"Villa Zagora","asciiName":"Villa Zagora","alternatenames":[],"lat":30.31928,"lon":-5.82771,"countryCode":"MA"},{"name":"Riad Azenzer","asciiName":"Riad Azenzer","alternatenames":[],"lat":31.63205,"lon":-7.98157,"countryCode":"MA"},{"name":"Riad Nomades","asciiName":"Riad Nomades","alternatenames":[],"lat":31.63366,"lon":-7.98927,"countryCode":"MA"},{"name":"Riad Soumia","asciiName":"Riad Soumia","alternatenames":[],"lat":31.62649,"lon":-7.98706,"countryCode":"MA"},{"name":"Atlantic Palm Beach","asciiName":"Atlantic Palm Beach","alternatenames":[],"lat":30.40129,"lon":-9.59056,"countryCode":"MA"},{"name":"Riad Chbanate","asciiName":"Riad Chbanate","alternatenames":[],"lat":31.5142,"lon":-9.76548,"countryCode":"MA"},{"name":"Palais Bahia Fes","asciiName":"Palais Bahia Fes","alternatenames":[],"lat":34.0658,"lon":-4.96464,"countryCode":"MA"},{"name":"Palais Du Calif","asciiName":"Palais Du Calif","alternatenames":[],"lat":35.78771,"lon":-5.75893,"countryCode":"MA"},{"name":"Riad Zahraa","asciiName":"Riad Zahraa","alternatenames":[],"lat":33.90396,"lon":-5.55764,"countryCode":"MA"},{"name":"Riad Dar Baya","asciiName":"Riad Dar Baya","alternatenames":[],"lat":31.634,"lon":-7.996,"countryCode":"MA"},{"name":"Sultana Hotel & Spa Marrakech","asciiName":"Sultana Hotel & Spa Marrakech","alternatenames":[],"lat":31.6169,"lon":-7.98894,"countryCode":"MA"},{"name":"Sirayane Boutique Hotel & Spa","asciiName":"Sirayane Boutique Hotel & Spa","alternatenames":[],"lat":31.59143,"lon":-8.01206,"countryCode":"MA"},{"name":"Palais Jena Hotel & Spa","asciiName":"Palais Jena Hotel & Spa","alternatenames":[],"lat":31.62708,"lon":-8.00011,"countryCode":"MA"},{"name":"Albatros Club Marrakech","asciiName":"Albatros Club Marrakech","alternatenames":[],"lat":31.61905,"lon":-8.00627,"countryCode":"MA"},{"name":"Le Zat","asciiName":"Le Zat","alternatenames":[],"lat":30.927,"lon":-6.893,"countryCode":"MA"},{"name":"Anfa Port","asciiName":"Anfa Port","alternatenames":[],"lat":33.6056,"lon":-7.61951,"countryCode":"MA"},{"name":"Sheraton Casablanca (Tower)","asciiName":"Sheraton Casablanca (Tower)","alternatenames":[],"lat":33.59637,"lon":-7.61226,"countryCode":"MA"},{"name":"La Corniche","asciiName":"La Corniche","alternatenames":[],"lat":35.8437,"lon":-5.35414,"countryCode":"MA"},{"name":"Riad Dar Fatna","asciiName":"Riad Dar Fatna","alternatenames":[],"lat":32.01404,"lon":-6.71883,"countryCode":"MA"},{"name":"Palais Oumensour","asciiName":"Palais Oumensour","alternatenames":[],"lat":30.47277,"lon":-8.88088,"countryCode":"MA"},{"name":"L'orangeraie Dyar Shemsi","asciiName":"L'orangeraie Dyar Shemsi","alternatenames":[],"lat":30.42775,"lon":-9.59811,"countryCode":"MA"},{"name":"Royal Rabat","asciiName":"Royal Rabat","alternatenames":[],"lat":34.02071,"lon":-6.83566,"countryCode":"MA"},{"name":"Ksar Elkabbaba","asciiName":"Ksar Elkabbaba","alternatenames":[],"lat":31.07908,"lon":-6.56586,"countryCode":"MA"},{"name":"Kasbah Essalam","asciiName":"Kasbah Essalam","alternatenames":[],"lat":31.07357,"lon":-6.56281,"countryCode":"MA"},{"name":"Hotel Central","asciiName":"Hotel Central","alternatenames":[],"lat":33.59997,"lon":-7.61717,"countryCode":"MA"},{"name":"Robinson Club Agadir","asciiName":"Robinson Club Agadir","alternatenames":[],"lat":30.38824,"lon":-9.59276,"countryCode":"MA"},{"name":"Villa Azur Surf Camp","asciiName":"Villa Azur Surf Camp","alternatenames":[],"lat":30.51452,"lon":-9.683,"countryCode":"MA"},{"name":"La Perle Du Draa","asciiName":"La Perle Du Draa","alternatenames":[],"lat":30.30639,"lon":-5.81318,"countryCode":"MA"},{"name":"Ryad Alya","asciiName":"Ryad Alya","alternatenames":[],"lat":34.05985,"lon":-4.98138,"countryCode":"MA"},{"name":"Riad Le Sucrier De Fes","asciiName":"Riad Le Sucrier De Fes","alternatenames":[],"lat":34.03323,"lon":-4.99896,"countryCode":"MA"},{"name":"Riad Borj Dhab","asciiName":"Riad Borj Dhab","alternatenames":[],"lat":34.05827,"lon":-4.97494,"countryCode":"MA"},{"name":"Dar Victoria","asciiName":"Dar Victoria","alternatenames":[],"lat":34.0602,"lon":-4.97114,"countryCode":"MA"},{"name":"Riad La Parenthase","asciiName":"Riad La Parenthase","alternatenames":[],"lat":31.63127,"lon":-7.99444,"countryCode":"MA"},{"name":"Riad Le Rubis","asciiName":"Riad Le Rubis","alternatenames":[],"lat":31.62681,"lon":-7.99014,"countryCode":"MA"},{"name":"Riad Mahjouba","asciiName":"Riad Mahjouba","alternatenames":[],"lat":31.63612,"lon":-7.99539,"countryCode":"MA"},{"name":"Riad Inaya","asciiName":"Riad Inaya","alternatenames":[],"lat":31.6115,"lon":-7.9887,"countryCode":"MA"},{"name":"Riad Inaka","asciiName":"Riad Inaka","alternatenames":[],"lat":31.61207,"lon":-7.98888,"countryCode":"MA"},{"name":"Riad Ilayka","asciiName":"Riad Ilayka","alternatenames":[],"lat":31.62715,"lon":-7.98916,"countryCode":"MA"},{"name":"Riad Nora","asciiName":"Riad Nora","alternatenames":[],"lat":31.62246,"lon":-7.98295,"countryCode":"MA"},{"name":"The Great Palace","asciiName":"The Great Palace","alternatenames":[],"lat":31.6181,"lon":-7.9832,"countryCode":"MA"},{"name":"Villart","asciiName":"Villart","alternatenames":[],"lat":31.62277,"lon":-8.00765,"countryCode":"MA"},{"name":"Riad Dari","asciiName":"Riad Dari","alternatenames":[],"lat":31.6289,"lon":-7.99447,"countryCode":"MA"},{"name":"Riad Attika","asciiName":"Riad Attika","alternatenames":[],"lat":31.62245,"lon":-7.98398,"countryCode":"MA"},{"name":"Riad Assalam","asciiName":"Riad Assalam","alternatenames":[],"lat":31.61927,"lon":-7.9855,"countryCode":"MA"},{"name":"Riad Alwachma","asciiName":"Riad Alwachma","alternatenames":[],"lat":31.62576,"lon":-7.98878,"countryCode":"MA"},{"name":"Riad Agdim","asciiName":"Riad Agdim","alternatenames":[],"lat":31.62704,"lon":-7.98974,"countryCode":"MA"},{"name":"Nzaha","asciiName":"Nzaha","alternatenames":[],"lat":31.36262,"lon":-7.94658,"countryCode":"MA"},{"name":"Maison Bahia","asciiName":"Maison Bahia","alternatenames":[],"lat":31.62607,"lon":-7.98517,"countryCode":"MA"},{"name":"Le Clos Des Oliviers","asciiName":"Le Clos Des Oliviers","alternatenames":[],"lat":31.63416,"lon":-7.8774,"countryCode":"MA"},{"name":"La Villa Kacy","asciiName":"La Villa Kacy","alternatenames":[],"lat":31.57409,"lon":-8.01908,"countryCode":"MA"},{"name":"Hotel Sangho Club Marrakech","asciiName":"Hotel Sangho Club Marrakech","alternatenames":[],"lat":31.71254,"lon":-7.9955,"countryCode":"MA"},{"name":"Dar Narjis","asciiName":"Dar Narjis","alternatenames":[],"lat":31.63407,"lon":-7.99212,"countryCode":"MA"},{"name":"Dar Kaotar","asciiName":"Dar Kaotar","alternatenames":[],"lat":31.62883,"lon":-7.97616,"countryCode":"MA"},{"name":"Dar Jirane","asciiName":"Dar Jirane","alternatenames":[],"lat":31.6262,"lon":-7.99401,"countryCode":"MA"},{"name":"Dar Jaguar","asciiName":"Dar Jaguar","alternatenames":[],"lat":31.6298,"lon":-7.98722,"countryCode":"MA"},{"name":"Sofitel Essaouira Mogador Golf & Spa","asciiName":"Sofitel Essaouira Mogador Golf & Spa","alternatenames":[],"lat":31.50875,"lon":-9.7659,"countryCode":"MA"},{"name":"Ibis Moussafir Marrakesh Centre Gare Hotel","asciiName":"Ibis Moussafir Marrakesh Centre Gare Hotel","alternatenames":[],"lat":31.6298,"lon":-8.0183,"countryCode":"MA"},{"name":"Ibis Moussafir Casa Voyageurs Casablanca Hotel","asciiName":"Ibis Moussafir Casa Voyageurs Casablanca Hotel","alternatenames":[],"lat":33.59055,"lon":-7.59055,"countryCode":"MA"},{"name":"Dar Sabra","asciiName":"Dar Sabra","alternatenames":[],"lat":31.67635,"lon":-7.95794,"countryCode":"MA"},{"name":"Hotel Karam Palace","asciiName":"Hotel Karam Palace","alternatenames":[],"lat":30.91989,"lon":-6.90474,"countryCode":"MA"},{"name":"Riad Bleu Du Sud","asciiName":"Riad Bleu Du Sud","alternatenames":[],"lat":31.62385,"lon":-7.98451,"countryCode":"MA"},{"name":"Hotel Reda Zagora","asciiName":"Hotel Reda Zagora","alternatenames":[],"lat":30.31999,"lon":-5.83661,"countryCode":"MA"},{"name":"Le Palace D'anfa","asciiName":"Le Palace D'anfa","alternatenames":[],"lat":33.59119,"lon":-7.63528,"countryCode":"MA"},{"name":"Riad Rcif","asciiName":"Riad Rcif","alternatenames":[],"lat":34.06011,"lon":-4.9727,"countryCode":"MA"},{"name":"Blue Sea Le Tivoli","asciiName":"Blue Sea Le Tivoli","alternatenames":[],"lat":30.40858,"lon":-9.5951,"countryCode":"MA"},{"name":"Imperial Casablanca","asciiName":"Imperial Casablanca","alternatenames":[],"lat":33.59383,"lon":-7.60592,"countryCode":"MA"},{"name":"Golden Tulip Farah Tanger","asciiName":"Golden Tulip Farah Tanger","alternatenames":[],"lat":35.79273,"lon":-5.75393,"countryCode":"MA"},{"name":"Ibis Moussafir Rabat","asciiName":"Ibis Moussafir Rabat","alternatenames":[],"lat":34.00126,"lon":-6.85587,"countryCode":"MA"},{"name":"Zahrat Al Jabal","asciiName":"Zahrat Al Jabal","alternatenames":[],"lat":34.03525,"lon":-4.99857,"countryCode":"MA"},{"name":"Suite Novotel Marrakech Hotel","asciiName":"Suite Novotel Marrakech Hotel","alternatenames":[],"lat":31.62247,"lon":-8.00239,"countryCode":"MA"},{"name":"Imperial Holiday Hotel","asciiName":"Imperial Holiday Hotel","alternatenames":[],"lat":31.63287,"lon":-8.01418,"countryCode":"MA"},{"name":"Balima","asciiName":"Balima","alternatenames":[],"lat":34.01822,"lon":-6.83535,"countryCode":"MA"},{"name":"Novotel Casablaca City Center","asciiName":"Novotel Casablaca City Center","alternatenames":[],"lat":33.59842,"lon":-7.61392,"countryCode":"MA"},{"name":"Riad Lotus Perle","asciiName":"Riad Lotus Perle","alternatenames":[],"lat":31.63226,"lon":-7.99697,"countryCode":"MA"},{"name":"Riad Lotus Ambre","asciiName":"Riad Lotus Ambre","alternatenames":[],"lat":31.64784,"lon":-8.01776,"countryCode":"MA"},{"name":"Shems Moon Suites & Spa","asciiName":"Shems Moon Suites & Spa","alternatenames":[],"lat":31.51603,"lon":-8.06225,"countryCode":"MA"},{"name":"Kech Boutique Hotel And Spa","asciiName":"Kech Boutique Hotel And Spa","alternatenames":[],"lat":31.58754,"lon":-7.98902,"countryCode":"MA"},{"name":"Hotel The Red House","asciiName":"Hotel The Red House","alternatenames":[],"lat":31.62522,"lon":-8.00149,"countryCode":"MA"},{"name":"Douar Al Hana Resort And Spa","asciiName":"Douar Al Hana Resort And Spa","alternatenames":[],"lat":31.67449,"lon":-7.82856,"countryCode":"MA"},{"name":"Ryad Mogador Tanger","asciiName":"Ryad Mogador Tanger","alternatenames":[],"lat":35.78674,"lon":-5.76062,"countryCode":"MA"},{"name":"Ibis Casa Gare","asciiName":"Ibis Casa Gare","alternatenames":[],"lat":33.59044,"lon":-7.59069,"countryCode":"MA"},{"name":"Sofitel Casablanca Tour Blanche Hotel","asciiName":"Sofitel Casablanca Tour Blanche Hotel","alternatenames":[],"lat":33.59803,"lon":-7.61366,"countryCode":"MA"},{"name":"Eden Andalou 5 Aquapark & Spa","asciiName":"Eden Andalou 5 Aquapark & Spa","alternatenames":[],"lat":31.54537,"lon":-8.04724,"countryCode":"MA"},{"name":"Tigmiza Suites & Pavillons","asciiName":"Tigmiza Suites & Pavillons","alternatenames":[],"lat":31.66557,"lon":-7.90277,"countryCode":"MA"},{"name":"Kasbah Igoudar","asciiName":"Kasbah Igoudar","alternatenames":[],"lat":31.36,"lon":-8.164,"countryCode":"MA"},{"name":"Riad Armelle","asciiName":"Riad Armelle","alternatenames":[],"lat":31.63301,"lon":-7.99852,"countryCode":"MA"},{"name":"Atlas Terminus & Spa Oujda","asciiName":"Atlas Terminus & Spa Oujda","alternatenames":[],"lat":34.66667,"lon":-1.89999,"countryCode":"MA"},{"name":"Riad Hala","asciiName":"Riad Hala","alternatenames":[],"lat":34.06264,"lon":-4.98217,"countryCode":"MA"},{"name":"Riad Attarine","asciiName":"Riad Attarine","alternatenames":[],"lat":34.05796,"lon":-4.97458,"countryCode":"MA"},{"name":"Palais Amani","asciiName":"Palais Amani","alternatenames":[],"lat":34.06722,"lon":-4.97207,"countryCode":"MA"},{"name":"Riad Sidi Magdoul","asciiName":"Riad Sidi Magdoul","alternatenames":[],"lat":31.51293,"lon":-9.76582,"countryCode":"MA"},{"name":"Riad Orange Cannelle","asciiName":"Riad Orange Cannelle","alternatenames":[],"lat":31.51515,"lon":-9.76654,"countryCode":"MA"},{"name":"Riad Hotel Emeraude","asciiName":"Riad Hotel Emeraude","alternatenames":[],"lat":31.51267,"lon":-9.76503,"countryCode":"MA"},{"name":"Riad Asmitou","asciiName":"Riad Asmitou","alternatenames":[],"lat":31.51366,"lon":-9.77009,"countryCode":"MA"},{"name":"Dar Zayna","asciiName":"Dar Zayna","alternatenames":[],"lat":31.5123,"lon":-9.76724,"countryCode":"MA"},{"name":"Dar Ness","asciiName":"Dar Ness","alternatenames":[],"lat":31.51241,"lon":-9.77193,"countryCode":"MA"},{"name":"Rial Elsagaya","asciiName":"Rial Elsagaya","alternatenames":[],"lat":31.63505,"lon":-7.9945,"countryCode":"MA"},{"name":"Riad Utopia Suites & Spa Marrakech","asciiName":"Riad Utopia Suites & Spa Marrakech","alternatenames":[],"lat":31.63348,"lon":-7.99328,"countryCode":"MA"},{"name":"Riad Picolina","asciiName":"Riad Picolina","alternatenames":[],"lat":31.63178,"lon":-7.99574,"countryCode":"MA"},{"name":"Riad Omar","asciiName":"Riad Omar","alternatenames":[],"lat":31.62258,"lon":-7.98985,"countryCode":"MA"},{"name":"Riad Magellan","asciiName":"Riad Magellan","alternatenames":[],"lat":31.62975,"lon":-7.98889,"countryCode":"MA"},{"name":"Riad Lorsya","asciiName":"Riad Lorsya","alternatenames":[],"lat":31.62913,"lon":-7.98947,"countryCode":"MA"},{"name":"Riad Les Trois Palmiers El Bacha","asciiName":"Riad Les Trois Palmiers El Bacha","alternatenames":[],"lat":31.63262,"lon":-7.99107,"countryCode":"MA"},{"name":"Riad Les 5 Soeurs","asciiName":"Riad Les 5 Soeurs","alternatenames":[],"lat":31.62928,"lon":-7.97661,"countryCode":"MA"},{"name":"Riad Le Coq Fou","asciiName":"Riad Le Coq Fou","alternatenames":[],"lat":31.63286,"lon":-7.98952,"countryCode":"MA"},{"name":"Riad Le Coq Berbere","asciiName":"Riad Le Coq Berbere","alternatenames":[],"lat":31.63286,"lon":-7.98976,"countryCode":"MA"},{"name":"Riad La Rose Dorient","asciiName":"Riad La Rose Dorient","alternatenames":[],"lat":31.63199,"lon":-7.97867,"countryCode":"MA"},{"name":"Riad Karim","asciiName":"Riad Karim","alternatenames":[],"lat":31.61524,"lon":-7.98758,"countryCode":"MA"},{"name":"Riad Jona","asciiName":"Riad Jona","alternatenames":[],"lat":31.62123,"lon":-7.98577,"countryCode":"MA"},{"name":"Riad Jomana","asciiName":"Riad Jomana","alternatenames":[],"lat":31.63051,"lon":-7.99478,"countryCode":"MA"},{"name":"Riad Hadika Maria","asciiName":"Riad Hadika Maria","alternatenames":[],"lat":31.63093,"lon":-7.98255,"countryCode":"MA"},{"name":"Riad Habib","asciiName":"Riad Habib","alternatenames":[],"lat":31.62946,"lon":-7.99267,"countryCode":"MA"},{"name":"Riad Granvilier","asciiName":"Riad Granvilier","alternatenames":[],"lat":31.6258,"lon":-7.98438,"countryCode":"MA"},{"name":"Riad Flam","asciiName":"Riad Flam","alternatenames":[],"lat":31.62362,"lon":-7.98488,"countryCode":"MA"},{"name":"Riad Fatinat Marrakech","asciiName":"Riad Fatinat Marrakech","alternatenames":[],"lat":31.63226,"lon":-7.99652,"countryCode":"MA"},{"name":"Riad Farnatchi","asciiName":"Riad Farnatchi","alternatenames":[],"lat":31.6311,"lon":-7.98558,"countryCode":"MA"},{"name":"Riad El Mansour","asciiName":"Riad El Mansour","alternatenames":[],"lat":31.63571,"lon":-7.99698,"countryCode":"MA"},{"name":"Riad El Grably","asciiName":"Riad El Grably","alternatenames":[],"lat":31.6218,"lon":-7.98388,"countryCode":"MA"},{"name":"Riad El Faran","asciiName":"Riad El Faran","alternatenames":[],"lat":31.63666,"lon":-7.99351,"countryCode":"MA"},{"name":"Riad Du Petit Prince","asciiName":"Riad Du Petit Prince","alternatenames":[],"lat":31.63454,"lon":-7.98064,"countryCode":"MA"},{"name":"Riad Douceur Mandarine","asciiName":"Riad Douceur Mandarine","alternatenames":[],"lat":31.62279,"lon":-7.98161,"countryCode":"MA"},{"name":"Riad Djemanna","asciiName":"Riad Djemanna","alternatenames":[],"lat":31.63146,"lon":-7.99303,"countryCode":"MA"},{"name":"Riad Des Epices","asciiName":"Riad Des Epices","alternatenames":[],"lat":31.6302,"lon":-7.98444,"countryCode":"MA"},{"name":"Riad De Vinci","asciiName":"Riad De Vinci","alternatenames":[],"lat":31.63523,"lon":-7.99262,"countryCode":"MA"},{"name":"Riad Dar Tuscia","asciiName":"Riad Dar Tuscia","alternatenames":[],"lat":31.63885,"lon":-7.99434,"countryCode":"MA"},{"name":"Riad Dar Sholmes","asciiName":"Riad Dar Sholmes","alternatenames":[],"lat":31.6336,"lon":-8.01366,"countryCode":"MA"},{"name":"Riad Dar Nael","asciiName":"Riad Dar Nael","alternatenames":[],"lat":31.63409,"lon":-7.98525,"countryCode":"MA"},{"name":"Riad Dar Ftouma","asciiName":"Riad Dar Ftouma","alternatenames":[],"lat":31.6322,"lon":-7.9906,"countryCode":"MA"},{"name":"Riad Dar El Aila Marrakech","asciiName":"Riad Dar El Aila Marrakech","alternatenames":[],"lat":31.63548,"lon":-7.99212,"countryCode":"MA"},{"name":"Riad Dar Beldia","asciiName":"Riad Dar Beldia","alternatenames":[],"lat":31.62589,"lon":-7.98938,"countryCode":"MA"},{"name":"Riad Dalia","asciiName":"Riad Dalia","alternatenames":[],"lat":31.63284,"lon":-7.99923,"countryCode":"MA"},{"name":"Riad Cannelle","asciiName":"Riad Cannelle","alternatenames":[],"lat":31.63513,"lon":-7.99049,"countryCode":"MA"},{"name":"Riad Ben Youssef","asciiName":"Riad Ben Youssef","alternatenames":[],"lat":31.63201,"lon":-7.98554,"countryCode":"MA"},{"name":"Riad Bamaga","asciiName":"Riad Bamaga","alternatenames":[],"lat":31.63415,"lon":-7.99335,"countryCode":"MA"},{"name":"Riad Azoulay","asciiName":"Riad Azoulay","alternatenames":[],"lat":31.61971,"lon":-7.98335,"countryCode":"MA"},{"name":"Riad Aubrac","asciiName":"Riad Aubrac","alternatenames":[],"lat":31.62947,"lon":-7.98337,"countryCode":"MA"},{"name":"Riad Aliya","asciiName":"Riad Aliya","alternatenames":[],"lat":31.61809,"lon":-7.98861,"countryCode":"MA"},{"name":"Riad Al Tainam","asciiName":"Riad Al Tainam","alternatenames":[],"lat":31.62688,"lon":-7.97962,"countryCode":"MA"},{"name":"Riad Al Mamoune","asciiName":"Riad Al Mamoune","alternatenames":[],"lat":31.62859,"lon":-7.9869,"countryCode":"MA"},{"name":"Riad Abaka","asciiName":"Riad Abaka","alternatenames":[],"lat":31.62845,"lon":-7.991,"countryCode":"MA"},{"name":"Palais Medali Hotel & Spa","asciiName":"Palais Medali Hotel & Spa","alternatenames":[],"lat":31.54813,"lon":-8.04367,"countryCode":"MA"},{"name":"Oatlas","asciiName":"Oatlas","alternatenames":[],"lat":31.47546,"lon":-7.88231,"countryCode":"MA"},{"name":"Monriad","asciiName":"Monriad","alternatenames":[],"lat":31.62265,"lon":-7.98534,"countryCode":"MA"},{"name":"Kasbah Chwiter","asciiName":"Kasbah Chwiter","alternatenames":[],"lat":31.60637,"lon":-7.82543,"countryCode":"MA"},{"name":"Hotel El Kennaria","asciiName":"Hotel El Kennaria","alternatenames":[],"lat":31.62622,"lon":-7.9864,"countryCode":"MA"},{"name":"Hotel Ali","asciiName":"Hotel Ali","alternatenames":[],"lat":31.6246,"lon":-7.98994,"countryCode":"MA"},{"name":"Dar Rmane","asciiName":"Dar Rmane","alternatenames":[],"lat":31.62946,"lon":-7.99267,"countryCode":"MA"},{"name":"Dar Massai","asciiName":"Dar Massai","alternatenames":[],"lat":31.61685,"lon":-7.98854,"countryCode":"MA"},{"name":"Dar Ihssane","asciiName":"Dar Ihssane","alternatenames":[],"lat":31.62907,"lon":-7.99042,"countryCode":"MA"},{"name":"Dar Choumissa","asciiName":"Dar Choumissa","alternatenames":[],"lat":31.62197,"lon":-7.98903,"countryCode":"MA"},{"name":"Dar Asam","asciiName":"Dar Asam","alternatenames":[],"lat":31.62963,"lon":-7.98483,"countryCode":"MA"},{"name":"Casa Lalla","asciiName":"Casa Lalla","alternatenames":[],"lat":31.62396,"lon":-7.98611,"countryCode":"MA"},{"name":"Ibis Casablanca Nearshore","asciiName":"Ibis Casablanca Nearshore","alternatenames":[],"lat":33.52632,"lon":-7.63947,"countryCode":"MA"},{"name":"Hotel Club Eldorador Palmeraie","asciiName":"Hotel Club Eldorador Palmeraie","alternatenames":[],"lat":31.6631,"lon":-7.89805,"countryCode":"MA"},{"name":"Fellah","asciiName":"Fellah","alternatenames":[],"lat":31.51038,"lon":-7.92689,"countryCode":"MA"},{"name":"Across Hotels & Spa","asciiName":"Across Hotels & Spa","alternatenames":[],"lat":34.04142,"lon":-4.99697,"countryCode":"MA"},{"name":"Les Jardins De Villa Maroc","asciiName":"Les Jardins De Villa Maroc","alternatenames":[],"lat":31.50976,"lon":-9.76787,"countryCode":"MA"},{"name":"Riad Jnane Agdal & Spa","asciiName":"Riad Jnane Agdal & Spa","alternatenames":[],"lat":31.62223,"lon":-7.98049,"countryCode":"MA"},{"name":"Pestana Casablanca Suites And Residences","asciiName":"Pestana Casablanca Suites And Residences","alternatenames":[],"lat":33.53333,"lon":-7.58333,"countryCode":"MA"},{"name":"Es Saadi And Casino De Marrakech","asciiName":"Es Saadi And Casino De Marrakech","alternatenames":[],"lat":31.63658,"lon":-8.01538,"countryCode":"MA"},{"name":"Dar Catalina Marrakech Hotel","asciiName":"Dar Catalina Marrakech Hotel","alternatenames":[],"lat":31.6282,"lon":-7.9929,"countryCode":"MA"},{"name":"Grace Marrakech","asciiName":"Grace Marrakech","alternatenames":[],"lat":31.48255,"lon":-8.0686,"countryCode":"MA"},{"name":"Avanti Mohammedia","asciiName":"Avanti Mohammedia","alternatenames":[],"lat":33.68432,"lon":-7.39766,"countryCode":"MA"},{"name":"Riad Swaka","asciiName":"Riad Swaka","alternatenames":[],"lat":31.62156,"lon":-7.98349,"countryCode":"MA"},{"name":"Riad Pachavana","asciiName":"Riad Pachavana","alternatenames":[],"lat":31.63414,"lon":-7.99508,"countryCode":"MA"},