[{"name":"The Linden Suites Manila","asciiName":"The Linden Suites Manila","alternatenames":[],"lat":14.5812,"lon":121.0588,"countryCode":"PH"},{"name":"Days Hotel Cebu-Airport","asciiName":"Days Hotel Cebu-Airport","alternatenames":[],"lat":10.3247,"lon":123.9837,"countryCode":"PH"},{"name":"The Peninsula Manila","asciiName":"The Peninsula Manila","alternatenames":[],"lat":14.5547,"lon":121.0252,"countryCode":"PH"},{"name":"Traders Hotel - Manila","asciiName":"Traders Hotel - Manila","alternatenames":[],"lat":14.5599,"lon":120.9853,"countryCode":"PH"},{"name":"Marriott Cebu City","asciiName":"Marriott Cebu City","alternatenames":[],"lat":10.3092,"lon":123.9029,"countryCode":"PH"},{"name":"Makati Shangri-la Hotel, Manila","asciiName":"Makati Shangri-la Hotel, Manila","alternatenames":[],"lat":14.5556,"lon":121.0223,"countryCode":"PH"},{"name":"Edsa Shangri-La, Manila","asciiName":"Edsa Shangri-La, Manila","alternatenames":[],"lat":14.5816,"lon":121.0522,"countryCode":"PH"},{"name":"Days Inn Tagaytay","asciiName":"Days Inn Tagaytay","alternatenames":[],"lat":14.0927,"lon":120.9748,"countryCode":"PH"},{"name":"Renaissance Makati Hotel","asciiName":"Renaissance Makati Hotel","alternatenames":[],"lat":14.5527,"lon":121.0207,"countryCode":"PH"},{"name":"Days Hotel Batangas","asciiName":"Days Hotel Batangas","alternatenames":[],"lat":13.7518,"lon":121.0655,"countryCode":"PH"},{"name":"Heritage Hotel - Manila","asciiName":"Heritage Hotel - Manila","alternatenames":[],"lat":14.5346,"lon":120.9959,"countryCode":"PH"},{"name":"Hotel Philippine Plaza","asciiName":"Hotel Philippine Plaza","alternatenames":[],"lat":14.5568,"lon":120.9783,"countryCode":"PH"},{"name":"The Copa Businessmans Hotel","asciiName":"The Copa Businessmans Hotel","alternatenames":[],"lat":13,"lon":120.8,"countryCode":"PH"},{"name":"Khimsar Fort","asciiName":"Khimsar Fort","alternatenames":[],"lat":13.2333,"lon":123.9499,"countryCode":"PH"},{"name":"Somerset Olympia","asciiName":"SOMERSET OLYMPIA","alternatenames":[],"lat":13.2333,"lon":123.9499,"countryCode":"PH"},{"name":"Shangri-la's Mactan Resort & Spa","asciiName":"Shangri-la's Mactan Resort & Spa","alternatenames":[],"lat":10.324,"lon":124.0354,"countryCode":"PH"},{"name":"Hilton Cebu Resort and Spa","asciiName":"Hilton Cebu Resort and Spa","alternatenames":[],"lat":10.3131,"lon":124.0251,"countryCode":"PH"},{"name":"Cordova Reef Village Resort","asciiName":"Cordova Reef Village Resort","alternatenames":[],"lat":10.2549,"lon":123.9569,"countryCode":"PH"},{"name":"Boracay Hills","asciiName":"Boracay Hills","alternatenames":[],"lat":11.9526,"lon":121.9387,"countryCode":"PH"},{"name":"Mandala Spa   Villas Boracay","asciiName":"Mandala Spa   Villas Boracay","alternatenames":[],"lat":11.8999,"lon":121.9166,"countryCode":"PH"},{"name":"Orchids Resort","asciiName":"Orchids Resort","alternatenames":[],"lat":11.9501,"lon":121.9342,"countryCode":"PH"},{"name":"El Nido Resorts Lagen Island","asciiName":"El Nido Resorts Lagen Island","alternatenames":[],"lat":11.0933,"lon":119.3891,"countryCode":"PH"},{"name":"Marco Vincent Resort","asciiName":"Marco Vincent Resort","alternatenames":["pueruto・garera","プエルト・ガレラ"],"lat":13.5072,"lon":120.9019,"countryCode":"PH"},{"name":"Discovery Suites","asciiName":"Discovery Suites","alternatenames":[],"lat":14.5871,"lon":121.0594,"countryCode":"PH"},{"name":"Fernandina 88 Suites Hotel","asciiName":"Fernandina 88 Suites Hotel","alternatenames":[],"lat":14.6178,"lon":121.0566,"countryCode":"PH"},{"name":"Oxford Suites Makati","asciiName":"Oxford Suites Makati","alternatenames":[],"lat":14.5654,"lon":121.0268,"countryCode":"PH"},{"name":"Mandarin Oriental Manila","asciiName":"Mandarin Oriental Manila","alternatenames":[],"lat":14.562,"lon":121.0253,"countryCode":"PH"},{"name":"Microtel Inn Suites Batangas","asciiName":"Microtel Inn Suites Batangas","alternatenames":[],"lat":13.75,"lon":121.05,"countryCode":"PH"},{"name":"Somerset Millennium","asciiName":"SOMERSET MILLENNIUM","alternatenames":[],"lat":15.8564,"lon":121.1311,"countryCode":"PH"},{"name":"Saint Illians Inn","asciiName":"Saint Illians Inn","alternatenames":[],"lat":13,"lon":120.8,"countryCode":"PH"},{"name":"Insular Century Hotel Davao","asciiName":"Insular Century Hotel Davao","alternatenames":[],"lat":7.0666,"lon":125.6,"countryCode":"PH"},{"name":"Marco Polo Davao","asciiName":"Marco Polo Davao","alternatenames":[],"lat":7.0666,"lon":125.6,"countryCode":"PH"},{"name":"Mercure Hotel Davao","asciiName":"Mercure Hotel Davao","alternatenames":[],"lat":7.0666,"lon":125.6,"countryCode":"PH"},{"name":"Manila Pavilion Hotel And Casin","asciiName":"Manila Pavilion Hotel And Casin","alternatenames":[],"lat":10.3,"lon":123.8833,"countryCode":"PH"},{"name":"Richmonde Hotel","asciiName":"Richmonde Hotel","alternatenames":[],"lat":14.5833,"lon":121.0833,"countryCode":"PH"},{"name":"Manila Diamond Hotel","asciiName":"Manila Diamond Hotel","alternatenames":[],"lat":14.6096,"lon":121,"countryCode":"PH"},{"name":"Days Hotel Iloilo City","asciiName":"Days Hotel Iloilo City","alternatenames":[],"lat":10.6999,"lon":122.5666,"countryCode":"PH"},{"name":"Shangri La Mactan Resort Spa","asciiName":"Shangri La Mactan Resort Spa","alternatenames":[],"lat":10.3,"lon":123.8999,"countryCode":"PH"},{"name":"Dusit Hotel Nikko","asciiName":"Dusit Hotel Nikko","alternatenames":[],"lat":13,"lon":120.8,"countryCode":"PH"},{"name":"Microtel Boracay Island","asciiName":"MICROTEL BORACAY ISLAND","alternatenames":[],"lat":15.8564,"lon":121.1311,"countryCode":"PH"},{"name":"Waterfront Cebu City Hotel   Ca","asciiName":"Waterfront Cebu City Hotel   Ca","alternatenames":[],"lat":10.3,"lon":123.8999,"countryCode":"PH"},{"name":"The Ananyana","asciiName":"The Ananyana","alternatenames":[],"lat":9.5833,"lon":123.75,"countryCode":"PH"},{"name":"Somerset Salcedo","asciiName":"SOMERSET SALCEDO","alternatenames":[],"lat":13.2333,"lon":123.9499,"countryCode":"PH"},{"name":"Pura Vida Beach And Dive Resort","asciiName":"Pura Vida Beach And Dive Resort","alternatenames":[],"lat":9.2,"lon":123.2666,"countryCode":"PH"},{"name":"Waterfront Airport Hotel   Casi","asciiName":"Waterfront Airport Hotel   Casi","alternatenames":[],"lat":10.3,"lon":123.8999,"countryCode":"PH"},{"name":"Private Residence Resort","asciiName":"PRIVATE RESIDENCE RESORT","alternatenames":[],"lat":15.8564,"lon":121.1311,"countryCode":"PH"},{"name":"Blue Mango Inn","asciiName":"Blue Mango Inn","alternatenames":[],"lat":11.8999,"lon":121.9166,"countryCode":"PH"},{"name":"Halfmoon Lodge","asciiName":"HALFMOON LODGE","alternatenames":[],"lat":15.8564,"lon":121.1311,"countryCode":"PH"},{"name":"Best Western Astor Htl Makati","asciiName":"Best Western Astor Htl Makati","alternatenames":[],"lat":13,"lon":120.8,"countryCode":"PH"},{"name":"Dave S Straw Hat Inn","asciiName":"Dave S Straw Hat Inn","alternatenames":[],"lat":13.7166,"lon":120.8833,"countryCode":"PH"},{"name":"El Dorado Beach Resort","asciiName":"EL DORADO BEACH RESORT","alternatenames":[],"lat":15.8564,"lon":121.1311,"countryCode":"PH"},{"name":"The Bellevue Hotel Manila","asciiName":"The Bellevue Hotel Manila","alternatenames":[],"lat":14.6096,"lon":121,"countryCode":"PH"},{"name":"Leisure Coast Resort","asciiName":"Leisure Coast Resort","alternatenames":[],"lat":16.05,"lon":120.3333,"countryCode":"PH"},{"name":"Microtel Inn Suites Baguio","asciiName":"Microtel Inn Suites Baguio","alternatenames":[],"lat":16.4166,"lon":120.6,"countryCode":"PH"},{"name":"Fraser Place Serviced Residence","asciiName":"Fraser Place Serviced Residence","alternatenames":[],"lat":14.6096,"lon":121,"countryCode":"PH"},{"name":"Microtel Inn Suites Eagleridge","asciiName":"Microtel Inn Suites Eagleridge","alternatenames":[],"lat":14.4803,"lon":120.8936,"countryCode":"PH"},{"name":"The Garden Plaza Hotel & Suites","asciiName":"The Garden Plaza Hotel & Suites","alternatenames":[],"lat":14.5793,"lon":120.9861,"countryCode":"PH"},{"name":"The Pearl Manila Hotel","asciiName":"The Pearl Manila Hotel","alternatenames":[],"lat":14.5815,"lon":120.9852,"countryCode":"PH"},{"name":"Hyatt Hotel and Casino Manila","asciiName":"Hyatt Hotel and Casino Manila","alternatenames":[],"lat":14.5753,"lon":120.9809,"countryCode":"PH"},{"name":"Best Western Hotel La Corona","asciiName":"Best Western Hotel La Corona","alternatenames":[],"lat":14.5791,"lon":120.9803,"countryCode":"PH"},{"name":"Pan Pacific Hotel Manila","asciiName":"Pan Pacific Hotel Manila","alternatenames":[],"lat":14.5725,"lon":120.9827,"countryCode":"PH"},{"name":"Caimito Beach Hotel","asciiName":"Caimito Beach Hotel","alternatenames":["Caimito","Caimito Beach","Caimito Hotel"],"lat":10.115,"lon":124.895,"countryCode":"PH"},{"name":"Naty’s Tourist Lodge","asciiName":"Naty's Tourist Lodge","alternatenames":[],"lat":14.36537,"lon":121.05164,"countryCode":"PH"},{"name":"Mariche Apartelle","asciiName":"Mariche Apartelle","alternatenames":[],"lat":14.44619,"lon":120.95241,"countryCode":"PH"},{"name":"Town and Country Inn","asciiName":"Town and Country Inn","alternatenames":[],"lat":14.5979,"lon":121.01701,"countryCode":"PH"},{"name":"Somerset Millennium","asciiName":"Somerset Millennium","alternatenames":[],"lat":14.5527,"lon":121.01789,"countryCode":"PH"},{"name":"San Remigio Beach Club","asciiName":"San Remigio Beach Club","alternatenames":[],"lat":10.97869,"lon":123.93874,"countryCode":"PH"},{"name":"Island And Sun","asciiName":"Island And Sun","alternatenames":[],"lat":10.3097,"lon":123.9905,"countryCode":"PH"},{"name":"Blue Sky Sea","asciiName":"Blue Sky Sea","alternatenames":[],"lat":9.56919,"lon":123.81444,"countryCode":"PH"},{"name":"Flushing Meadows","asciiName":"Flushing Meadows","alternatenames":[],"lat":9.56509,"lon":123.81055,"countryCode":"PH"},{"name":"Amorita Resort","asciiName":"Amorita Resort","alternatenames":[],"lat":9.54927,"lon":123.77626,"countryCode":"PH"},{"name":"Eskaya Beach Resort And Spa","asciiName":"Eskaya Beach Resort And Spa","alternatenames":[],"lat":9.55877,"lon":123.80412,"countryCode":"PH"},{"name":"Alona Palm Beach","asciiName":"Alona Palm Beach","alternatenames":[],"lat":9.54918,"lon":123.77621,"countryCode":"PH"},{"name":"Bohol Beach Club","asciiName":"Bohol Beach Club","alternatenames":[],"lat":9.55166,"lon":123.79669,"countryCode":"PH"},{"name":"Sumilon Bluewater Island Resort","asciiName":"Sumilon Bluewater Island Resort","alternatenames":[],"lat":10.3111,"lon":123.98055,"countryCode":"PH"},{"name":"Imperial Palace Waterpark","asciiName":"Imperial Palace Waterpark","alternatenames":[],"lat":10.28281,"lon":123.99577,"countryCode":"PH"},{"name":"Tambuli Beach Club East Wing","asciiName":"Tambuli Beach Club East Wing","alternatenames":[],"lat":10.29005,"lon":124.00938,"countryCode":"PH"},{"name":"Tambuli Beach Club West","asciiName":"Tambuli Beach Club West","alternatenames":[],"lat":10.29003,"lon":124.00917,"countryCode":"PH"},{"name":"Tambuli West Wing","asciiName":"Tambuli West Wing","alternatenames":[],"lat":10.29004,"lon":124.00938,"countryCode":"PH"},{"name":"Moevenpick Cebu Resort & Spa","asciiName":"Moevenpick Cebu Resort & Spa","alternatenames":[],"lat":10.29997,"lon":123.89999,"countryCode":"PH"},{"name":"Shangri-La Mactan Resort And Spa (Cebu-Mactan Island)","asciiName":"Shangri-La Mactan Resort And Spa (Cebu-Mactan Island)","alternatenames":[],"lat":10.31971,"lon":124.03342,"countryCode":"PH"},{"name":"Cebu Beach Club","asciiName":"Cebu Beach Club","alternatenames":[],"lat":10.28814,"lon":124.00701,"countryCode":"PH"},{"name":"White Sands (Cebu-Mactan Island)","asciiName":"White Sands (Cebu-Mactan Island)","alternatenames":[],"lat":10.2931,"lon":124.009,"countryCode":"PH"},{"name":"Maribago Blue Water","asciiName":"Maribago Blue Water","alternatenames":[],"lat":10.2997,"lon":124.016,"countryCode":"PH"},{"name":"Alegre (Cebu-Sogod)","asciiName":"Alegre (Cebu-Sogod)","alternatenames":[],"lat":10.7866,"lon":124.02906,"countryCode":"PH"},{"name":"Badian Island","asciiName":"Badian Island","alternatenames":[],"lat":9.85791,"lon":123.39347,"countryCode":"PH"},{"name":"Crown Regency Residence","asciiName":"Crown Regency Residence","alternatenames":[],"lat":10.32819,"lon":123.88133,"countryCode":"PH"},{"name":"Quest Hotel Conference Center","asciiName":"Quest Hotel Conference Center","alternatenames":[],"lat":10.32,"lon":123.904,"countryCode":"PH"},{"name":"Pulchra","asciiName":"Pulchra","alternatenames":[],"lat":10.31072,"lon":123.90166,"countryCode":"PH"},{"name":"Mango Park","asciiName":"Mango Park","alternatenames":[],"lat":10.3105,"lon":123.9024,"countryCode":"PH"},{"name":"Grand","asciiName":"Grand","alternatenames":[],"lat":10.31805,"lon":123.89523,"countryCode":"PH"},{"name":"Plantation Bay Resort And Spa","asciiName":"Plantation Bay Resort And Spa","alternatenames":[],"lat":10.26056,"lon":123.98282,"countryCode":"PH"},{"name":"Holiday Plaza (Cebu City)","asciiName":"Holiday Plaza (Cebu City)","alternatenames":[],"lat":10.30938,"lon":123.89533,"countryCode":"PH"},{"name":"Vacation","asciiName":"Vacation","alternatenames":[],"lat":10.32991,"lon":123.8999,"countryCode":"PH"},{"name":"Costabella (Cebu-Mactan Island)","asciiName":"Costabella (Cebu-Mactan Island)","alternatenames":[],"lat":10.28738,"lon":124.00536,"countryCode":"PH"},{"name":"Summit Circle Cebu","asciiName":"Summit Circle Cebu","alternatenames":[],"lat":10.30971,"lon":123.89488,"countryCode":"PH"},{"name":"Surfside Boracay Resort & Spa","asciiName":"Surfside Boracay Resort & Spa","alternatenames":[],"lat":11.95132,"lon":121.93021,"countryCode":"PH"},{"name":"Fairways & Bluewater","asciiName":"Fairways & Bluewater","alternatenames":[],"lat":11.98329,"lon":121.92339,"countryCode":"PH"},{"name":"Boracay Regency Beach Resort","asciiName":"Boracay Regency Beach Resort","alternatenames":[],"lat":11.95683,"lon":121.92762,"countryCode":"PH"},{"name":"7 Stones Boracay Suites","asciiName":"7 Stones Boracay Suites","alternatenames":[],"lat":11.96482,"lon":121.92918,"countryCode":"PH"},{"name":"Nami Private Villas","asciiName":"Nami Private Villas","alternatenames":[],"lat":11.90499,"lon":121.91684,"countryCode":"PH"},{"name":"Crown Regency Beach","asciiName":"Crown Regency Beach","alternatenames":[],"lat":11.96679,"lon":121.92505,"countryCode":"PH"},{"name":"Waling Waling Beach","asciiName":"Waling Waling Beach","alternatenames":[],"lat":11.97033,"lon":121.92051,"countryCode":"PH"},{"name":"Alta Vista De","asciiName":"Alta Vista De","alternatenames":[],"lat":11.98812,"lon":121.91048,"countryCode":"PH"},{"name":"Tides","asciiName":"Tides","alternatenames":[],"lat":11.95638,"lon":121.92889,"countryCode":"PH"},{"name":"Reef Retreat Resort","asciiName":"Reef Retreat Resort","alternatenames":[],"lat":11.96918,"lon":121.92651,"countryCode":"PH"},{"name":"Nigi Nigi Nu Noos","asciiName":"Nigi Nigi Nu Noos","alternatenames":[],"lat":11.9572,"lon":121.928,"countryCode":"PH"},{"name":"Red Coconut Beach Resort","asciiName":"Red Coconut Beach Resort","alternatenames":[],"lat":11.96341,"lon":121.92335,"countryCode":"PH"},{"name":"Patio Pacific Resort","asciiName":"Patio Pacific Resort","alternatenames":[],"lat":11.96339,"lon":121.92908,"countryCode":"PH"},{"name":"Best Western Boracays Tropics","asciiName":"Best Western Boracays Tropics","alternatenames":[],"lat":11.96109,"lon":121.92983,"countryCode":"PH"},{"name":"Paradise Bay","asciiName":"Paradise Bay","alternatenames":[],"lat":11.95462,"lon":121.93704,"countryCode":"PH"},{"name":"Pinjalo Resort Villas","asciiName":"Pinjalo Resort Villas","alternatenames":[],"lat":11.95768,"lon":121.92935,"countryCode":"PH"},{"name":"Panoly Resort","asciiName":"Panoly Resort","alternatenames":[],"lat":11.98316,"lon":121.90939,"countryCode":"PH"},{"name":"Fridays","asciiName":"Fridays","alternatenames":[],"lat":11.90494,"lon":121.9167,"countryCode":"PH"},{"name":"Shangri-La","asciiName":"Shangri-La","alternatenames":[],"lat":11.98722,"lon":121.90759,"countryCode":"PH"},{"name":"Boracay Golden Phoenix Hotel","asciiName":"Boracay Golden Phoenix Hotel","alternatenames":[],"lat":11.95755,"lon":121.93039,"countryCode":"PH"},{"name":"Crown Regency Prince Resort","asciiName":"Crown Regency Prince Resort","alternatenames":[],"lat":11.96452,"lon":121.92825,"countryCode":"PH"},{"name":"Le Soleil De Boracay","asciiName":"Le Soleil De Boracay","alternatenames":[],"lat":11.95509,"lon":121.92917,"countryCode":"PH"},{"name":"Discovery Shores","asciiName":"Discovery Shores","alternatenames":[],"lat":11.97249,"lon":121.91661,"countryCode":"PH"},{"name":"Pearl Farm","asciiName":"Pearl Farm","alternatenames":[],"lat":7.00577,"lon":125.72696,"countryCode":"PH"},{"name":"Hof Gorei","asciiName":"Hof Gorei","alternatenames":[],"lat":7.02553,"lon":125.72469,"countryCode":"PH"},{"name":"Pearl Farm Beach Resort","asciiName":"Pearl Farm Beach Resort","alternatenames":[],"lat":6.99813,"lon":125.72854,"countryCode":"PH"},{"name":"Crown Regency Residences","asciiName":"Crown Regency Residences","alternatenames":[],"lat":7.20092,"lon":125.62269,"countryCode":"PH"},{"name":"Microtel Inn And Suites Davao","asciiName":"Microtel Inn And Suites Davao","alternatenames":[],"lat":7.06682,"lon":125.59845,"countryCode":"PH"},{"name":"Dos Palmas Arreceffi","asciiName":"Dos Palmas Arreceffi","alternatenames":[],"lat":9.91382,"lon":118.87723,"countryCode":"PH"},{"name":"Regalia Tower Suites","asciiName":"Regalia Tower Suites","alternatenames":[],"lat":14.61578,"lon":121.05342,"countryCode":"PH"},{"name":"Torre Venezia","asciiName":"Torre Venezia","alternatenames":[],"lat":14.63556,"lon":121.02914,"countryCode":"PH"},{"name":"Asb Condotel Garden Heights","asciiName":"Asb Condotel Garden Heights","alternatenames":[],"lat":14.62087,"lon":121.02224,"countryCode":"PH"},{"name":"Greenhills Elan Hotel Modern","asciiName":"Greenhills Elan Hotel Modern","alternatenames":[],"lat":14.604,"lon":121.051,"countryCode":"PH"},{"name":"El Nido Lagen Island Resort","asciiName":"El Nido Lagen Island Resort","alternatenames":[],"lat":11.08204,"lon":119.40147,"countryCode":"PH"},{"name":"Club Noah Isabelle","asciiName":"Club Noah Isabelle","alternatenames":[],"lat":10.95666,"lon":119.61583,"countryCode":"PH"},{"name":"Microtel Inn & Suites Puerto Princesa","asciiName":"Microtel Inn & Suites Puerto Princesa","alternatenames":[],"lat":9.7328,"lon":118.76995,"countryCode":"PH"},{"name":"Amanpulo","asciiName":"Amanpulo","alternatenames":[],"lat":9.74154,"lon":118.74161,"countryCode":"PH"},{"name":"El Rio Y Mar Coron","asciiName":"El Rio Y Mar Coron","alternatenames":[],"lat":12.19172,"lon":120.09293,"countryCode":"PH"},{"name":"Baguio Burnham Suites","asciiName":"Baguio Burnham Suites","alternatenames":[],"lat":16.41024,"lon":120.59231,"countryCode":"PH"},{"name":"El Cielito Inn","asciiName":"El Cielito Inn","alternatenames":[],"lat":16.40848,"lon":120.60139,"countryCode":"PH"},{"name":"Microtel Inn And Suites Baguio","asciiName":"Microtel Inn And Suites Baguio","alternatenames":[],"lat":16.40652,"lon":120.60229,"countryCode":"PH"},{"name":"Misibis Bay Raintree","asciiName":"Misibis Bay Raintree","alternatenames":[],"lat":13.24583,"lon":123.90583,"countryCode":"PH"},{"name":"Copacobana Apartment Hotel","asciiName":"Copacobana Apartment Hotel","alternatenames":[],"lat":14.53694,"lon":120.9926,"countryCode":"PH"},{"name":"Crowne Plaza Galleria Manila","asciiName":"Crowne Plaza Galleria Manila","alternatenames":[],"lat":14.58623,"lon":120.99249,"countryCode":"PH"},{"name":"Holiday Inn Galleria","asciiName":"Holiday Inn Galleria","alternatenames":[],"lat":14.59002,"lon":121.05991,"countryCode":"PH"},{"name":"Astoria Plaza","asciiName":"Astoria Plaza","alternatenames":[],"lat":14.5773,"lon":121.06266,"countryCode":"PH"},{"name":"Oakwood Premier Joy Nostalg Ce","asciiName":"Oakwood Premier Joy Nostalg Ce","alternatenames":[],"lat":14.587,"lon":121.062,"countryCode":"PH"},{"name":"Lancaster","asciiName":"Lancaster","alternatenames":[],"lat":14.58393,"lon":121.05019,"countryCode":"PH"},{"name":"The A Venue Manila","asciiName":"The A Venue Manila","alternatenames":[],"lat":14.55827,"lon":121.04433,"countryCode":"PH"},{"name":"The Royal Bellagio","asciiName":"The Royal Bellagio","alternatenames":[],"lat":14.56347,"lon":121.02959,"countryCode":"PH"},{"name":"Dusit Thani Manila","asciiName":"Dusit Thani Manila","alternatenames":[],"lat":14.54459,"lon":121.0416,"countryCode":"PH"},{"name":"Prince Plaza Ii Condotel","asciiName":"Prince Plaza Ii Condotel","alternatenames":[],"lat":14.55367,"lon":121.02264,"countryCode":"PH"},{"name":"Ascott Makati","asciiName":"Ascott Makati","alternatenames":[],"lat":14.55121,"lon":121.02643,"countryCode":"PH"},{"name":"Asian Mansion Ii Condotel","asciiName":"Asian Mansion Ii Condotel","alternatenames":[],"lat":14.55515,"lon":121.02113,"countryCode":"PH"},{"name":"Bsa Mansion Condotel","asciiName":"Bsa Mansion Condotel","alternatenames":[],"lat":14.57168,"lon":121.03284,"countryCode":"PH"},{"name":"Taal Vista","asciiName":"Taal Vista","alternatenames":[],"lat":14.11241,"lon":120.96092,"countryCode":"PH"},{"name":"Legenda","asciiName":"Legenda","alternatenames":[],"lat":14.78889,"lon":120.27845,"countryCode":"PH"},{"name":"Holiday Inn Clark Field","asciiName":"Holiday Inn Clark Field","alternatenames":[],"lat":15.18332,"lon":120.52453,"countryCode":"PH"},{"name":"Vida","asciiName":"Vida","alternatenames":[],"lat":15.18981,"lon":120.52463,"countryCode":"PH"},{"name":"Angeles Beach Club","asciiName":"Angeles Beach Club","alternatenames":[],"lat":15.16126,"lon":120.57076,"countryCode":"PH"},{"name":"Raffles Makati","asciiName":"Raffles Makati","alternatenames":[],"lat":14.68988,"lon":121.02539,"countryCode":"PH"},{"name":"Orchid Garden Suite Manila","asciiName":"Orchid Garden Suite Manila","alternatenames":[],"lat":14.56657,"lon":121.00327,"countryCode":"PH"},{"name":"Oxford Suites Makati","asciiName":"Oxford Suites Makati","alternatenames":[],"lat":7.99899,"lon":124.29435,"countryCode":"PH"},{"name":"Taft Tower Hotel","asciiName":"Taft Tower Hotel","alternatenames":[],"lat":14.56604,"lon":120.99308,"countryCode":"PH"},{"name":"Best Western Premier F1 Hotel","asciiName":"Best Western Premier F1 Hotel","alternatenames":[],"lat":14.55351,"lon":121.04939,"countryCode":"PH"},{"name":"Hotel Celeste","asciiName":"Hotel Celeste","alternatenames":[],"lat":14.5514,"lon":121.01454,"countryCode":"PH"},{"name":"Tiara Oriental","asciiName":"Tiara Oriental","alternatenames":[],"lat":14.56163,"lon":121.01335,"countryCode":"PH"},{"name":"Fairmont Makati","asciiName":"Fairmont Makati","alternatenames":[],"lat":14.68988,"lon":121.02539,"countryCode":"PH"},{"name":"Solaire Resort & Casino","asciiName":"Solaire Resort & Casino","alternatenames":[],"lat":14.53,"lon":120.981,"countryCode":"PH"},{"name":"The Malayan Plaza","asciiName":"The Malayan Plaza","alternatenames":[],"lat":14.56,"lon":121.03,"countryCode":"PH"},{"name":"Y2 Residence Hotel","asciiName":"Y2 Residence Hotel","alternatenames":[],"lat":14.53798,"lon":121.01789,"countryCode":"PH"},{"name":"One Pacific Place Serviced Res","asciiName":"One Pacific Place Serviced Res","alternatenames":[],"lat":14.59951,"lon":120.98422,"countryCode":"PH"},{"name":"Somerset Olympia Makati","asciiName":"Somerset Olympia Makati","alternatenames":[],"lat":14.55583,"lon":121.02587,"countryCode":"PH"},{"name":"Ramada Manila Central","asciiName":"Ramada Manila Central","alternatenames":[],"lat":14.59944,"lon":120.97579,"countryCode":"PH"},{"name":"Makati Palace","asciiName":"Makati Palace","alternatenames":[],"lat":14.56294,"lon":121.02969,"countryCode":"PH"},{"name":"Berjaya Makati Hotel","asciiName":"Berjaya Makati Hotel","alternatenames":[],"lat":14.56336,"lon":121.029,"countryCode":"PH"},{"name":"Tune Hotel Makati","asciiName":"Tune Hotel Makati","alternatenames":[],"lat":14.565,"lon":121.03,"countryCode":"PH"},{"name":"Manila Pavillion","asciiName":"Manila Pavillion","alternatenames":[],"lat":14.58247,"lon":120.98486,"countryCode":"PH"},{"name":"St Giles Hotel","asciiName":"St Giles Hotel","alternatenames":[],"lat":14.56431,"lon":121.02928,"countryCode":"PH"},{"name":"H2o","asciiName":"H2o","alternatenames":[],"lat":14.57947,"lon":120.97334,"countryCode":"PH"},{"name":"Hostel 1632","asciiName":"Hostel 1632","alternatenames":[],"lat":14.57337,"lon":120.98434,"countryCode":"PH"},{"name":"Vivere Suites","asciiName":"Vivere Suites","alternatenames":[],"lat":14.41996,"lon":121.03918,"countryCode":"PH"},{"name":"Tune Hotel Ermita","asciiName":"Tune Hotel Ermita","alternatenames":[],"lat":14.571,"lon":120.984,"countryCode":"PH"},{"name":"Orion Hotel","asciiName":"Orion Hotel","alternatenames":[],"lat":14.608,"lon":120.972,"countryCode":"PH"},{"name":"Palm Rock Residences","asciiName":"Palm Rock Residences","alternatenames":[],"lat":14.56,"lon":121.016,"countryCode":"PH"},{"name":"Sofitel Philippines Plaza","asciiName":"Sofitel Philippines Plaza","alternatenames":[],"lat":14.55301,"lon":120.98,"countryCode":"PH"},{"name":"Citystate Tower Hotel","asciiName":"Citystate Tower Hotel","alternatenames":[],"lat":14.56967,"lon":120.98489,"countryCode":"PH"},{"name":"Perla Mansion","asciiName":"Perla Mansion","alternatenames":[],"lat":14.5548,"lon":121.01852,"countryCode":"PH"},{"name":"Lotus Garden","asciiName":"Lotus Garden","alternatenames":[],"lat":14.5816,"lon":120.97984,"countryCode":"PH"},{"name":"Kimberly","asciiName":"Kimberly","alternatenames":[],"lat":14.57548,"lon":120.98711,"countryCode":"PH"},{"name":"Holiday Inn & Suites Makati","asciiName":"Holiday Inn & Suites Makati","alternatenames":[],"lat":14.551,"lon":121.025,"countryCode":"PH"},{"name":"Hotel G","asciiName":"Hotel G","alternatenames":[],"lat":14.5655,"lon":120.98499,"countryCode":"PH"},{"name":"Grand Boulevard Hotel","asciiName":"Grand Boulevard Hotel","alternatenames":[],"lat":14.56732,"lon":120.98425,"countryCode":"PH"},{"name":"Marco Polo Ortigas Manila","asciiName":"Marco Polo Ortigas Manila","alternatenames":[],"lat":14.58865,"lon":121.06367,"countryCode":"PH"},{"name":"Intercontinental","asciiName":"Intercontinental","alternatenames":[],"lat":14.55025,"lon":121.02871,"countryCode":"PH"},{"name":"Asian Institute Management Conference Center","asciiName":"Asian Institute Management Conference Center","alternatenames":[],"lat":14.5524,"lon":121.01874,"countryCode":"PH"},{"name":"Las Palmas","asciiName":"Las Palmas","alternatenames":[],"lat":14.57368,"lon":120.98338,"countryCode":"PH"},{"name":"Palm Plaza","asciiName":"Palm Plaza","alternatenames":[],"lat":14.5739,"lon":120.98377,"countryCode":"PH"},{"name":"Executive Plaza","asciiName":"Executive Plaza","alternatenames":[],"lat":14.571,"lon":120.98466,"countryCode":"PH"},{"name":"Las Palmas Deluxe","asciiName":"Las Palmas Deluxe","alternatenames":[],"lat":14.57368,"lon":120.98338,"countryCode":"PH"},{"name":"H2O Manila Park","asciiName":"H2O Manila Park","alternatenames":[],"lat":14.57923,"lon":120.97234,"countryCode":"PH"},{"name":"H2O Manila Bayview","asciiName":"H2O Manila Bayview","alternatenames":[],"lat":14.57923,"lon":120.97234,"countryCode":"PH"},{"name":"H2O Manila Aqua","asciiName":"H2O Manila Aqua","alternatenames":[],"lat":14.57923,"lon":120.97234,"countryCode":"PH"},{"name":"Traders Manila Superior","asciiName":"Traders Manila Superior","alternatenames":[],"lat":14.55869,"lon":120.98818,"countryCode":"PH"},{"name":"Crowne Plaza Galleria Grand Deluxe","asciiName":"Crowne Plaza Galleria Grand Deluxe","alternatenames":[],"lat":14.59054,"lon":121.06056,"countryCode":"PH"},{"name":"Hyatt Hotel And Casino City Bayview","asciiName":"Hyatt Hotel And Casino City Bayview","alternatenames":[],"lat":14.5733,"lon":120.98265,"countryCode":"PH"},{"name":"Traders Manila Deluxe","asciiName":"Traders Manila Deluxe","alternatenames":[],"lat":14.55868,"lon":120.98816,"countryCode":"PH"},{"name":"Sofitel Philippine Plaza Manila","asciiName":"Sofitel Philippine Plaza Manila","alternatenames":[],"lat":14.55346,"lon":120.98079,"countryCode":"PH"},{"name":"Dusit Thani Manila Club","asciiName":"Dusit Thani Manila Club","alternatenames":[],"lat":14.54841,"lon":121.02577,"countryCode":"PH"},{"name":"Edsa Shangri La Tower Wing Deluxe","asciiName":"Edsa Shangri La Tower Wing Deluxe","alternatenames":[],"lat":14.58114,"lon":121.05683,"countryCode":"PH"},{"name":"New World Manila Bay Club","asciiName":"New World Manila Bay Club","alternatenames":[],"lat":14.57323,"lon":120.98267,"countryCode":"PH"},{"name":"Intercontinental Manila Club","asciiName":"Intercontinental Manila Club","alternatenames":[],"lat":14.55093,"lon":121.02796,"countryCode":"PH"},{"name":"Shangri La Makati Deluxe","asciiName":"Shangri La Makati Deluxe","alternatenames":[],"lat":14.55385,"lon":121.02442,"countryCode":"PH"},{"name":"Green Valley Bagulo Hotel and Resort","asciiName":"Green Valley Bagulo Hotel and Resort","alternatenames":[],"lat":16.32825,"lon":120.54916,"countryCode":"PH"},{"name":"Costabella Tropical Beach","asciiName":"Costabella Tropical Beach","alternatenames":[],"lat":10.28738,"lon":124.00536,"countryCode":"PH"},{"name":"New World Makati Hotel","asciiName":"New World Makati Hotel","alternatenames":[],"lat":14.5515,"lon":121.02131,"countryCode":"PH"},{"name":"Best Western Plus Lex","asciiName":"Best Western Plus Lex","alternatenames":[],"lat":10.31805,"lon":123.8959,"countryCode":"PH"},{"name":"Widus Resort And Casino","asciiName":"Widus Resort And Casino","alternatenames":[],"lat":15.18952,"lon":120.5249,"countryCode":"PH"},{"name":"Las Palmas (Superior Deluxe)","asciiName":"Las Palmas (Superior Deluxe)","alternatenames":[],"lat":14.57368,"lon":120.98338,"countryCode":"PH"},{"name":"Holiday Inn And Suites Makati","asciiName":"Holiday Inn And Suites Makati","alternatenames":[],"lat":14.55059,"lon":121.02484,"countryCode":"PH"},{"name":"Holiday Inn And Suites Makati(Exec Club)","asciiName":"Holiday Inn And Suites Makati(Exec Club)","alternatenames":[],"lat":14.55059,"lon":121.02484,"countryCode":"PH"},{"name":"F1 Manila (Fort Suite)","asciiName":"F1 Manila (Fort Suite)","alternatenames":[],"lat":14.55362,"lon":121.04945,"countryCode":"PH"},{"name":"Picasso Boutique Serviced Resi","asciiName":"Picasso Boutique Serviced Resi","alternatenames":[],"lat":14.56036,"lon":121.01914,"countryCode":"PH"},{"name":"Century Park","asciiName":"Century Park","alternatenames":[],"lat":14.56124,"lon":120.99104,"countryCode":"PH"},{"name":"Creekside Amorsolo","asciiName":"Creekside Amorsolo","alternatenames":[],"lat":14.55473,"lon":121.01449,"countryCode":"PH"},{"name":"Holiday Inn Galleria(Executive King)","asciiName":"Holiday Inn Galleria(Executive King)","alternatenames":[],"lat":14.58998,"lon":121.06002,"countryCode":"PH"},{"name":"Moevenpick Mactan Island Cebu(Dlx Ocean)","asciiName":"Moevenpick Mactan Island Cebu(Dlx Ocean)","alternatenames":[],"lat":10.31056,"lon":124.02357,"countryCode":"PH"},{"name":"Somerset Olympia Makati (1 Bed Deluxe)","asciiName":"Somerset Olympia Makati (1 Bed Deluxe)","alternatenames":[],"lat":14.5563,"lon":121.02575,"countryCode":"PH"},{"name":"Somerset Millennium Makati(1 Bed Deluxe)","asciiName":"Somerset Millennium Makati(1 Bed Deluxe)","alternatenames":[],"lat":14.55273,"lon":121.01791,"countryCode":"PH"},{"name":"Marco Polo Plaza","asciiName":"Marco Polo Plaza","alternatenames":[],"lat":10.34169,"lon":123.89705,"countryCode":"PH"},{"name":"Marco Polo Plaza (Grand Deluxe)","asciiName":"Marco Polo Plaza (Grand Deluxe)","alternatenames":[],"lat":10.34169,"lon":123.89705,"countryCode":"PH"},{"name":"San Remigio Beach Club Sports","asciiName":"San Remigio Beach Club Sports","alternatenames":[],"lat":11.081,"lon":123.938,"countryCode":"PH"},{"name":"Dive Link Resort","asciiName":"Dive Link Resort","alternatenames":[],"lat":11.9885,"lon":120.1846,"countryCode":"PH"},{"name":"El Cielito Sta Rosa","asciiName":"El Cielito Sta Rosa","alternatenames":[],"lat":14.27041,"lon":121.08149,"countryCode":"PH"},{"name":"Microtel Inn & Suites By Wyndh","asciiName":"Microtel Inn & Suites By Wyndh","alternatenames":[],"lat":15.4863,"lon":120.59909,"countryCode":"PH"},{"name":"Summit Ridge","asciiName":"Summit Ridge","alternatenames":[],"lat":14.0973,"lon":120.94241,"countryCode":"PH"},{"name":"One Tagaytay Place","asciiName":"One Tagaytay Place","alternatenames":[],"lat":14.12543,"lon":120.99402,"countryCode":"PH"},{"name":"Estancia Resort Hotel","asciiName":"Estancia Resort Hotel","alternatenames":[],"lat":14.12674,"lon":120.98455,"countryCode":"PH"},{"name":"Discovery Country Suites","asciiName":"Discovery Country Suites","alternatenames":[],"lat":14.12462,"lon":120.98272,"countryCode":"PH"},{"name":"Sumilon Bluewater Isl Resort","asciiName":"Sumilon Bluewater Isl Resort","alternatenames":[],"lat":9.43365,"lon":123.38325,"countryCode":"PH"},{"name":"Casablanca Hotel Condominium","asciiName":"Casablanca Hotel Condominium","alternatenames":[],"lat":14.824,"lon":120.276,"countryCode":"PH"},{"name":"La Breza Hotel","asciiName":"La Breza Hotel","alternatenames":[],"lat":14.64129,"lon":121.03691,"countryCode":"PH"},{"name":"Tune Hotel Quezon City","asciiName":"Tune Hotel Quezon City","alternatenames":[],"lat":14.66198,"lon":121.0405,"countryCode":"PH"},{"name":"Microtel Inn & Suites By Wyndham Acropolis","asciiName":"Microtel Inn & Suites By Wyndham Acropolis","alternatenames":[],"lat":14.68202,"lon":121.06081,"countryCode":"PH"},{"name":"Imperial Palace Suites","asciiName":"Imperial Palace Suites","alternatenames":[],"lat":14.63519,"lon":121.03562,"countryCode":"PH"},{"name":"Eastwood Richmonde Hotel","asciiName":"Eastwood Richmonde Hotel","alternatenames":[],"lat":14.61066,"lon":121.08032,"countryCode":"PH"},{"name":"Microtel Inn & Suites By Wyndh","asciiName":"Microtel Inn & Suites By Wyndh","alternatenames":[],"lat":9.74137,"lon":118.72997,"countryCode":"PH"},{"name":"Tune Hotel Ortigas","asciiName":"Tune Hotel Ortigas","alternatenames":[],"lat":14.58066,"lon":121.05882,"countryCode":"PH"},{"name":"Ace Hotel & Suites","asciiName":"Ace Hotel & Suites","alternatenames":[],"lat":14.575,"lon":121.059,"countryCode":"PH"},{"name":"Goldland Millenia Suites","asciiName":"Goldland Millenia Suites","alternatenames":[],"lat":14.892,"lon":121.047,"countryCode":"PH"},{"name":"The Exchange Regency Residence","asciiName":"The Exchange Regency Residence","alternatenames":[],"lat":14.58323,"lon":121.06338,"countryCode":"PH"},{"name":"Go Hotels Puerto Princesa","asciiName":"Go Hotels Puerto Princesa","alternatenames":[],"lat":9.995,"lon":118.939,"countryCode":"PH"},{"name":"Fleuris","asciiName":"Fleuris","alternatenames":[],"lat":9.73812,"lon":118.74176,"countryCode":"PH"},{"name":"Citystate Asturias Hotel Palaw","asciiName":"Citystate Asturias Hotel Palaw","alternatenames":[],"lat":9.7333,"lon":118.7333,"countryCode":"PH"},{"name":"Vista Mar Beach Resort & Count","asciiName":"Vista Mar Beach Resort & Count","alternatenames":[],"lat":10.27945,"lon":123.98672,"countryCode":"PH"},{"name":"Sotogrande Hotel & Resort","asciiName":"Sotogrande Hotel & Resort","alternatenames":[],"lat":10.29688,"lon":124.01406,"countryCode":"PH"},{"name":"La Mirada Hotel","asciiName":"La Mirada Hotel","alternatenames":[],"lat":10.30056,"lon":124.01402,"countryCode":"PH"},{"name":"Pacific Cebu Resort","asciiName":"Pacific Cebu Resort","alternatenames":[],"lat":10.25548,"lon":123.97315,"countryCode":"PH"},{"name":"Best Western Sand Bar Resort","asciiName":"Best Western Sand Bar Resort","alternatenames":[],"lat":10.27977,"lon":123.96385,"countryCode":"PH"},{"name":"Hotel Europa","asciiName":"Hotel Europa","alternatenames":[],"lat":10.287,"lon":123.969,"countryCode":"PH"},{"name":"Palmbeach Resort And Spa","asciiName":"Palmbeach Resort And Spa","alternatenames":[],"lat":10.31541,"lon":124.02857,"countryCode":"PH"},{"name":"Cebu White Sands Resort & Spa","asciiName":"Cebu White Sands Resort & Spa","alternatenames":[],"lat":10.28632,"lon":123.99904,"countryCode":"PH"},{"name":"Bluewater Maribago","asciiName":"Bluewater Maribago","alternatenames":[],"lat":10.28771,"lon":124.00006,"countryCode":"PH"},{"name":"Jpark Island Resort Waterpark","asciiName":"Jpark Island Resort Waterpark","alternatenames":[],"lat":10.28281,"lon":123.99577,"countryCode":"PH"},{"name":"Crown Regency Suites Mactan","asciiName":"Crown Regency Suites Mactan","alternatenames":[],"lat":10.30856,"lon":123.96036,"countryCode":"PH"},{"name":"Crimson Resort & Spa","asciiName":"Crimson Resort & Spa","alternatenames":[],"lat":10.29683,"lon":124.01421,"countryCode":"PH"},{"name":"Costabella Tropical Beach Hote","asciiName":"Costabella Tropical Beach Hote","alternatenames":[],"lat":10.28776,"lon":124.00627,"countryCode":"PH"},{"name":"Armada Hotel Manila","asciiName":"Armada Hotel Manila","alternatenames":[],"lat":14.572,"lon":120.983,"countryCode":"PH"},{"name":"Microtel Mall Of Asia Manila","asciiName":"Microtel Mall Of Asia Manila","alternatenames":[],"lat":14.5402,"lon":120.98165,"countryCode":"PH"},{"name":"Best Western Plus Antel Hotel","asciiName":"Best Western Plus Antel Hotel","alternatenames":[],"lat":14.56565,"lon":121.02854,"countryCode":"PH"},{"name":"Swagman","asciiName":"Swagman","alternatenames":[],"lat":14.57742,"lon":120.97965,"countryCode":"PH"},{"name":"St Giles Hotel Makati","asciiName":"St Giles Hotel Makati","alternatenames":[],"lat":14.56481,"lon":121.02936,"countryCode":"PH"},{"name":"The Picasso Boutique Serviced","asciiName":"The Picasso Boutique Serviced","alternatenames":[],"lat":14.56036,"lon":121.01914,"countryCode":"PH"},{"name":"Best Western Oxford Suites Mak","asciiName":"Best Western Oxford Suites Mak","alternatenames":[],"lat":14.5654,"lon":121.0268,"countryCode":"PH"},{"name":"New Solanie","asciiName":"New Solanie","alternatenames":[],"lat":14.5737,"lon":120.99046,"countryCode":"PH"},{"name":"Miramar","asciiName":"Miramar","alternatenames":[],"lat":14.57922,"lon":120.97821,"countryCode":"PH"},{"name":"Mpt Suites Former Makati Prim","asciiName":"Mpt Suites Former Makati Prim","alternatenames":[],"lat":14.56418,"lon":121.03025,"countryCode":"PH"},{"name":"Pavilion","asciiName":"Pavilion","alternatenames":[],"lat":14.58126,"lon":120.98123,"countryCode":"PH"},{"name":"New Horizon","asciiName":"New Horizon","alternatenames":[],"lat":14.57267,"lon":121.04651,"countryCode":"PH"},{"name":"Plaza Del Norte Hotel & Conven","asciiName":"Plaza Del Norte Hotel & Conven","alternatenames":[],"lat":18.187,"lon":120.527,"countryCode":"PH"},{"name":"Northview","asciiName":"Northview","alternatenames":[],"lat":18.1884,"lon":120.58085,"countryCode":"PH"},{"name":"El Nido Resorts Apulit Island","asciiName":"El Nido Resorts Apulit Island","alternatenames":[],"lat":10.9544,"lon":119.61523,"countryCode":"PH"},{"name":"El Nido Resorts-Miniloc Island","asciiName":"El Nido Resorts-Miniloc Island","alternatenames":[],"lat":10.9544,"lon":119.61523,"countryCode":"PH"},{"name":"Tune Hotel Davao","asciiName":"Tune Hotel Davao","alternatenames":[],"lat":7.109,"lon":125.62,"countryCode":"PH"},{"name":"Waterfront Insular","asciiName":"Waterfront Insular","alternatenames":[],"lat":7.06476,"lon":125.61774,"countryCode":"PH"},{"name":"Go Hotels Dumaguete","asciiName":"Go Hotels Dumaguete","alternatenames":[],"lat":9.3,"lon":123.306,"countryCode":"PH"},{"name":"Dumaguete Springs","asciiName":"Dumaguete Springs","alternatenames":[],"lat":9.33268,"lon":123.30165,"countryCode":"PH"},{"name":"Tune Hotel Angeles City","asciiName":"Tune Hotel Angeles City","alternatenames":[],"lat":15.145,"lon":120.589,"countryCode":"PH"},{"name":"Days Hotel Mactan Cebu","asciiName":"Days Hotel Mactan Cebu","alternatenames":[],"lat":10.32429,"lon":123.98573,"countryCode":"PH"},{"name":"The Henry Hotel","asciiName":"The Henry Hotel","alternatenames":[],"lat":10.344,"lon":123.91,"countryCode":"PH"},{"name":"Best Western Plus Lex Cebu","asciiName":"Best Western Plus Lex Cebu","alternatenames":[],"lat":10.31431,"lon":123.89441,"countryCode":"PH"},{"name":"City Suites Ramos Tower","asciiName":"City Suites Ramos Tower","alternatenames":[],"lat":10.307,"lon":123.897,"countryCode":"PH"},{"name":"Crown Regency Residences Cebu","asciiName":"Crown Regency Residences Cebu","alternatenames":[],"lat":10.32819,"lon":123.88133,"countryCode":"PH"},{"name":"Crown Regency Hotel & Towers","asciiName":"Crown Regency Hotel & Towers","alternatenames":[],"lat":10.30788,"lon":123.89428,"countryCode":"PH"},{"name":"Estosan Garden","asciiName":"Estosan Garden","alternatenames":[],"lat":7.19874,"lon":124.24341,"countryCode":"PH"},{"name":"Microtel Inn & Suites By Wyndh","asciiName":"Microtel Inn & Suites By Wyndh","alternatenames":[],"lat":15.48429,"lon":120.9696,"countryCode":"PH"},{"name":"Microtel Inn & Suites By Wyndh","asciiName":"Microtel Inn & Suites By Wyndh","alternatenames":[],"lat":14.25122,"lon":120.9185,"countryCode":"PH"},{"name":"Almont Inland Resort","asciiName":"Almont Inland Resort","alternatenames":[],"lat":8.94633,"lon":125.52926,"countryCode":"PH"},{"name":"Crown Regency Resort Annex","asciiName":"Crown Regency Resort Annex","alternatenames":[],"lat":11.96621,"lon":121.92579,"countryCode":"PH"},{"name":"Asya Premier Suites Boracay","asciiName":"Asya Premier Suites Boracay","alternatenames":[],"lat":11.963,"lon":121.927,"countryCode":"PH"},{"name":"Crown Regency Resort & Convent","asciiName":"Crown Regency Resort & Convent","alternatenames":[],"lat":11.98,"lon":121.919,"countryCode":"PH"},{"name":"Shangri-La Boracay Resort & Sp","asciiName":"Shangri-La Boracay Resort & Sp","alternatenames":[],"lat":11.98722,"lon":121.90759,"countryCode":"PH"},{"name":"Henann Lagoon Resort Former R","asciiName":"Henann Lagoon Resort Former R","alternatenames":[],"lat":11.98043,"lon":121.91887,"countryCode":"PH"},{"name":"Paradise Garden Resort","asciiName":"Paradise Garden Resort","alternatenames":[],"lat":11.95027,"lon":121.93324,"countryCode":"PH"},{"name":"Microtel Inn And Suites Boracay","asciiName":"Microtel Inn And Suites Boracay","alternatenames":[],"lat":11.97619,"lon":121.91511,"countryCode":"PH"},{"name":"Boracay Grand Vista Resort & S","asciiName":"Boracay Grand Vista Resort & S","alternatenames":[],"lat":11.97964,"lon":121.91531,"countryCode":"PH"},{"name":"Fridays Beach Resort","asciiName":"Fridays Beach Resort","alternatenames":[],"lat":11.97579,"lon":121.92138,"countryCode":"PH"},{"name":"Best Western Boracay Tropics","asciiName":"Best Western Boracay Tropics","alternatenames":[],"lat":11.96242,"lon":121.9268,"countryCode":"PH"},{"name":"The Peacock Garden","asciiName":"The Peacock Garden","alternatenames":[],"lat":9.62261,"lon":123.94015,"countryCode":"PH"},{"name":"Panglao Bluewater Beach Resort","asciiName":"Panglao Bluewater Beach Resort","alternatenames":[],"lat":9.587,"lon":123.808,"countryCode":"PH"},{"name":"Go Hotels Bacolod","asciiName":"Go Hotels Bacolod","alternatenames":[],"lat":10.695,"lon":122.959,"countryCode":"PH"},{"name":"Microtel Inn Sto Tomas Batangas","asciiName":"Microtel Inn Sto Tomas Batangas","alternatenames":[],"lat":14.1045,"lon":121.14669,"countryCode":"PH"},{"name":"The Farm At San Benito","asciiName":"The Farm At San Benito","alternatenames":[],"lat":13.92878,"lon":121.20582,"countryCode":"PH"},{"name":"Le Monet Hotel","asciiName":"Le Monet Hotel","alternatenames":[],"lat":16.3992,"lon":120.61257,"countryCode":"PH"},{"name":"Acacia Hotel Manila","asciiName":"Acacia Hotel Manila","alternatenames":[],"lat":14.421,"lon":121.035,"countryCode":"PH"},{"name":"Crimson Hotel Filinvest City M","asciiName":"Crimson Hotel Filinvest City M","alternatenames":[],"lat":14.421,"lon":121.042,"countryCode":"PH"},{"name":"B Hotel","asciiName":"B Hotel","alternatenames":[],"lat":14.42828,"lon":121.02668,"countryCode":"PH"},{"name":"Eco Beach","asciiName":"Eco Beach","alternatenames":[],"lat":18.291,"lon":122.151,"countryCode":"PH"},{"name":"Broadway Court Apartelle 4Th Street","asciiName":"Broadway Court Apartelle 4Th Street","alternatenames":[],"lat":14.614,"lon":121.03216,"countryCode":"PH"},{"name":"Greenbelt Radisson Condiminium","asciiName":"Greenbelt Radisson Condiminium","alternatenames":[],"lat":14.55263,"lon":121.01753,"countryCode":"PH"},{"name":"Our Awesome Hostel Manila","asciiName":"Our Awesome Hostel Manila","alternatenames":[],"lat":14.55716,"lon":121.03908,"countryCode":"PH"},{"name":"Tropical Sun Inn","asciiName":"Tropical Sun Inn","alternatenames":[],"lat":9.73591,"lon":118.742,"countryCode":"PH"},{"name":"Veli's Inn","asciiName":"Veli's Inn","alternatenames":[],"lat":11.96225,"lon":121.92524,"countryCode":"PH"},{"name":"Sunwoo Sung Resort","asciiName":"Sunwoo Sung Resort","alternatenames":[],"lat":11.96417,"lon":121.92416,"countryCode":"PH"},{"name":"La Reserve Beach","asciiName":"La Reserve Beach","alternatenames":[],"lat":11.96334,"lon":121.92384,"countryCode":"PH"},{"name":"Seabird International Resort","asciiName":"Seabird International Resort","alternatenames":[],"lat":11.96287,"lon":121.92491,"countryCode":"PH"},{"name":"Boracay Uptown","asciiName":"Boracay Uptown","alternatenames":[],"lat":11.96161,"lon":121.92492,"countryCode":"PH"},{"name":"Eurotel Boracay","asciiName":"Eurotel Boracay","alternatenames":[],"lat":11.95985,"lon":121.92701,"countryCode":"PH"},{"name":"Giulius Italian Resort","asciiName":"Giulius Italian Resort","alternatenames":[],"lat":11.96338,"lon":121.9265,"countryCode":"PH"},{"name":"Bora Sky Hotel","asciiName":"Bora Sky Hotel","alternatenames":[],"lat":11.96482,"lon":121.92545,"countryCode":"PH"},{"name":"Boracay Champ Resort","asciiName":"Boracay Champ Resort","alternatenames":[],"lat":11.96739,"lon":121.92625,"countryCode":"PH"},{"name":"Agos Boracay Rooms And Beds","asciiName":"Agos Boracay Rooms And Beds","alternatenames":[],"lat":11.96136,"lon":121.92764,"countryCode":"PH"},{"name":"Circle Inn Iloilo City Center","asciiName":"Circle Inn Iloilo City Center","alternatenames":[],"lat":10.69137,"lon":122.56883,"countryCode":"PH"},{"name":"Shangri-La's Mactan Resort (Dlx Seaview)","asciiName":"Shangri-La's Mactan Resort (Dlx Seaview)","alternatenames":[],"lat":10.30793,"lon":124.02047,"countryCode":"PH"},{"name":"Pirates Cove Beach And Surf Resort","asciiName":"Pirates Cove Beach And Surf Resort","alternatenames":[],"lat":11.62847,"lon":125.35648,"countryCode":"PH"},{"name":"Mount Sea Resort","asciiName":"Mount Sea Resort","alternatenames":[],"lat":14.42367,"lon":120.86296,"countryCode":"PH"},{"name":"Crosswinds Resort Suites","asciiName":"Crosswinds Resort Suites","alternatenames":[],"lat":14.13907,"lon":121.00539,"countryCode":"PH"},{"name":"La Veranda Beach Resort Restaurant","asciiName":"La Veranda Beach Resort Restaurant","alternatenames":[],"lat":9.60753,"lon":123.86827,"countryCode":"PH"},{"name":"Blue Star Dive And Resort","asciiName":"Blue Star Dive And Resort","alternatenames":[],"lat":9.72403,"lon":124.51733,"countryCode":"PH"},{"name":"Tune Hotel Aseana City","asciiName":"Tune Hotel Aseana City","alternatenames":[],"lat":14.52913,"lon":120.99186,"countryCode":"PH"},{"name":"Regency Grand Suites","asciiName":"Regency Grand Suites","alternatenames":[],"lat":14.57402,"lon":120.98486,"countryCode":"PH"},{"name":"67Th Heaven Holiday Resort","asciiName":"67Th Heaven Holiday Resort","alternatenames":[],"lat":9.99996,"lon":119.0094,"countryCode":"PH"},{"name":"Salcedo Suites","asciiName":"Salcedo Suites","alternatenames":[],"lat":14.55987,"lon":121.02027,"countryCode":"PH"},{"name":"Boracay Villa Hangin","asciiName":"Boracay Villa Hangin","alternatenames":[],"lat":11.98392,"lon":121.90833,"countryCode":"PH"},{"name":"Boracay Haven Resort","asciiName":"Boracay Haven Resort","alternatenames":[],"lat":11.96338,"lon":121.9265,"countryCode":"PH"},{"name":"Blue Veranda Suites","asciiName":"Blue Veranda Suites","alternatenames":[],"lat":11.95808,"lon":121.92714,"countryCode":"PH"},{"name":"Hyatt City Of Dreams Manila","asciiName":"Hyatt City Of Dreams Manila","alternatenames":[],"lat":14.52526,"lon":120.99423,"countryCode":"PH"},{"name":"Sheridan Villas Boracay","asciiName":"Sheridan Villas Boracay","alternatenames":[],"lat":11.94974,"lon":121.93314,"countryCode":"PH"},{"name":"Hotel Sogo Kalentong","asciiName":"Hotel Sogo Kalentong","alternatenames":[],"lat":14.59181,"lon":121.02556,"countryCode":"PH"},{"name":"Aiyanar Beach And Dive Resort","asciiName":"Aiyanar Beach And Dive Resort","alternatenames":[],"lat":13.76176,"lon":121.05803,"countryCode":"PH"},{"name":"El Nido Cove Resort And Spa","asciiName":"El Nido Cove Resort And Spa","alternatenames":[],"lat":9.83495,"lon":118.73836,"countryCode":"PH"},{"name":"Sta Monica Beach Club","asciiName":"Sta Monica Beach Club","alternatenames":[],"lat":9.27759,"lon":123.30252,"countryCode":"PH"},{"name":"Gracey Dive Resort And Restaurant","asciiName":"Gracey Dive Resort And Restaurant","alternatenames":[],"lat":9.29555,"lon":123.28149,"countryCode":"PH"},{"name":"Paladin Hotel","asciiName":"Paladin Hotel","alternatenames":[],"lat":16.4117,"lon":120.59118,"countryCode":"PH"},{"name":"Casa Vallejo","asciiName":"Casa Vallejo","alternatenames":[],"lat":16.40856,"lon":120.59977,"countryCode":"PH"},{"name":"The Theodore Boutique Hotel","asciiName":"The Theodore Boutique Hotel","alternatenames":[],"lat":14.11387,"lon":120.96143,"countryCode":"PH"},{"name":"Microtel Eagle Ridge Cavite","asciiName":"Microtel Eagle Ridge Cavite","alternatenames":[],"lat":14.25559,"lon":120.91636,"countryCode":"PH"},{"name":"Amirsache Villa Tagaytay","asciiName":"Amirsache Villa Tagaytay","alternatenames":[],"lat":14.10341,"lon":120.92137,"countryCode":"PH"},{"name":"Hotel Sogo Santolan","asciiName":"Hotel Sogo Santolan","alternatenames":[],"lat":14.61947,"lon":121.0897,"countryCode":"PH"},{"name":"Hotel Sogo Cainta","asciiName":"Hotel Sogo Cainta","alternatenames":[],"lat":14.60098,"lon":121.1072,"countryCode":"PH"},{"name":"Casa Joaquin Bnb","asciiName":"Casa Joaquin Bnb","alternatenames":[],"lat":14.49984,"lon":121.0459,"countryCode":"PH"},{"name":"The Wine Museum Hotel And Resto","asciiName":"The Wine Museum Hotel And Resto","alternatenames":[],"lat":14.53574,"lon":121.00318,"countryCode":"PH"},{"name":"Pinoy Pamilya Hotel","asciiName":"Pinoy Pamilya Hotel","alternatenames":[],"lat":14.53655,"lon":120.99662,"countryCode":"PH"},{"name":"Manila Airport","asciiName":"Manila Airport","alternatenames":[],"lat":14.50923,"lon":121.00374,"countryCode":"PH"},{"name":"Kabayan Hotel Pasay","asciiName":"Kabayan Hotel Pasay","alternatenames":[],"lat":14.53791,"lon":121.00158,"countryCode":"PH"},{"name":"Icon Hotel","asciiName":"Icon Hotel","alternatenames":[],"lat":14.50643,"lon":120.98852,"countryCode":"PH"},{"name":"Hotel Sogo Pasay Harrison","asciiName":"Hotel Sogo Pasay Harrison","alternatenames":[],"lat":14.53709,"lon":120.99618,"countryCode":"PH"},{"name":"Lux Apartelle","asciiName":"Lux Apartelle","alternatenames":[],"lat":10.30169,"lon":124.00552,"countryCode":"PH"},{"name":"Gv Hotel Lapu-Lapu","asciiName":"Gv Hotel Lapu-Lapu","alternatenames":[],"lat":10.31076,"lon":123.951,"countryCode":"PH"},{"name":"Green One Hotel","asciiName":"Green One Hotel","alternatenames":[],"lat":10.25708,"lon":123.96932,"countryCode":"PH"},{"name":"Cleverlearn Residences","asciiName":"Cleverlearn Residences","alternatenames":[],"lat":10.31502,"lon":123.99774,"countryCode":"PH"},{"name":"Ace Penzionne","asciiName":"Ace Penzionne","alternatenames":[],"lat":10.31227,"lon":123.95508,"countryCode":"PH"},{"name":"Saint Illian's Inn","asciiName":"Saint Illian's Inn","alternatenames":[],"lat":14.55419,"lon":121.01306,"countryCode":"PH"},{"name":"Lourdes Suites","asciiName":"Lourdes Suites","alternatenames":[],"lat":14.55913,"lon":121.02671,"countryCode":"PH"},{"name":"Kl Tower Serviced Residences","asciiName":"Kl Tower Serviced Residences","alternatenames":[],"lat":14.55348,"lon":121.01686,"countryCode":"PH"},{"name":"Jupiter Suites","asciiName":"Jupiter Suites","alternatenames":[],"lat":14.56258,"lon":121.02739,"countryCode":"PH"},{"name":"Hotel Sogo Edsa Guadalupe","asciiName":"Hotel Sogo Edsa Guadalupe","alternatenames":[],"lat":14.56611,"lon":121.04551,"countryCode":"PH"},{"name":"Greenstone Serviced Residences Makati","asciiName":"Greenstone Serviced Residences Makati","alternatenames":[],"lat":14.56086,"lon":121.0251,"countryCode":"PH"},{"name":"Franchise One Hotel","asciiName":"Franchise One Hotel","alternatenames":[],"lat":14.55353,"lon":121.01333,"countryCode":"PH"},{"name":"Citadines Salcedo Makati","asciiName":"Citadines Salcedo Makati","alternatenames":[],"lat":14.5587,"lon":121.02371,"countryCode":"PH"},{"name":"Casa Amapola Bed & Breakfast","asciiName":"Casa Amapola Bed & Breakfast","alternatenames":[],"lat":14.55473,"lon":121.02445,"countryCode":"PH"},{"name":"Alejandra Hotel And Suites","asciiName":"Alejandra Hotel And Suites","alternatenames":[],"lat":14.56338,"lon":121.00041,"countryCode":"PH"},{"name":"White Knight Hotel Intramuros","asciiName":"White Knight Hotel Intramuros","alternatenames":[],"lat":14.59073,"lon":120.97531,"countryCode":"PH"},{"name":"The Southern Cross Hotel Manila","asciiName":"The Southern Cross Hotel Manila","alternatenames":[],"lat":14.57914,"lon":120.97939,"countryCode":"PH"},{"name":"The Corporate Inn Hotel","asciiName":"The Corporate Inn Hotel","alternatenames":[],"lat":14.52751,"lon":121.05408,"countryCode":"PH"},{"name":"The Charter House","asciiName":"The Charter House","alternatenames":[],"lat":14.55389,"lon":121.02132,"countryCode":"PH"},{"name":"Leez Inn","asciiName":"Leez Inn","alternatenames":[],"lat":14.5702,"lon":120.99159,"countryCode":"PH"},{"name":"Isabelle Garden Hotel","asciiName":"Isabelle Garden Hotel","alternatenames":[],"lat":14.49708,"lon":121.01336,"countryCode":"PH"},{"name":"Hotel Sogo Recto","asciiName":"Hotel Sogo Recto","alternatenames":[],"lat":14.60236,"lon":120.98552,"countryCode":"PH"},{"name":"Greenbelt Excelsior Condominium","asciiName":"Greenbelt Excelsior Condominium","alternatenames":[],"lat":14.5558,"lon":121.01903,"countryCode":"PH"},{"name":"Go Hotel Otis Manila","asciiName":"Go Hotel Otis Manila","alternatenames":[],"lat":14.58659,"lon":120.99556,"countryCode":"PH"},{"name":"Gaius Pension Inn","asciiName":"Gaius Pension Inn","alternatenames":[],"lat":14.57583,"lon":120.99075,"countryCode":"PH"},{"name":"Eurotel Hote Naga","asciiName":"Eurotel Hote Naga","alternatenames":[],"lat":13.62036,"lon":123.18418,"countryCode":"PH"},{"name":"Chateau Elysee Seine Cluster","asciiName":"Chateau Elysee Seine Cluster","alternatenames":[],"lat":14.49064,"lon":121.0211,"countryCode":"PH"},{"name":"Casa Alfonso Bed And Breakfast","asciiName":"Casa Alfonso Bed And Breakfast","alternatenames":[],"lat":14.45661,"lon":121.00667,"countryCode":"PH"},{"name":"Baywatch Tower","asciiName":"Baywatch Tower","alternatenames":[],"lat":14.56689,"lon":120.98535,"countryCode":"PH"},{"name":"Aim Conference Center Manila","asciiName":"Aim Conference Center Manila","alternatenames":[],"lat":14.55186,"lon":121.01864,"countryCode":"PH"},{"name":"Villa Leonora Resort","asciiName":"Villa Leonora Resort","alternatenames":[],"lat":10.02439,"lon":119.07669,"countryCode":"PH"},{"name":"Turissimo Garden Hotel","asciiName":"Turissimo Garden Hotel","alternatenames":[],"lat":9.7393,"lon":118.75555,"countryCode":"PH"},{"name":"Skylight Hotel","asciiName":"Skylight Hotel","alternatenames":[],"lat":9.73927,"lon":118.75845,"countryCode":"PH"},{"name":"Remari Pension And Resto Bar","asciiName":"Remari Pension And Resto Bar","alternatenames":[],"lat":9.83495,"lon":118.73836,"countryCode":"PH"},{"name":"Princesa Garden Island Resort And Spa","asciiName":"Princesa Garden Island Resort And Spa","alternatenames":[],"lat":9.83495,"lon":118.73836,"countryCode":"PH"},{"name":"Palawan Palm Suites","asciiName":"Palawan Palm Suites","alternatenames":[],"lat":9.74316,"lon":118.73814,"countryCode":"PH"},{"name":"Modessa Island Resort","asciiName":"Modessa Island Resort","alternatenames":[],"lat":10.31862,"lon":119.32437,"countryCode":"PH"},{"name":"Jlais Balai Turista","asciiName":"Jlais Balai Turista","alternatenames":[],"lat":9.74211,"lon":118.74079,"countryCode":"PH"},{"name":"Island Stay Hotel Puerto Princesa","asciiName":"Island Stay Hotel Puerto Princesa","alternatenames":[],"lat":9.73927,"lon":118.75845,"countryCode":"PH"},{"name":"Holiday Suites","asciiName":"Holiday Suites","alternatenames":[],"lat":9.76765,"lon":118.74676,"countryCode":"PH"},{"name":"Hillside Resort Palawan","asciiName":"Hillside Resort Palawan","alternatenames":[],"lat":9.77305,"lon":118.72577,"countryCode":"PH"},{"name":"Flower Island Resort","asciiName":"Flower Island Resort","alternatenames":[],"lat":10.8177,"lon":119.49954,"countryCode":"PH"},{"name":"Crystal Paradise Resort Spa & Winery","asciiName":"Crystal Paradise Resort Spa & Winery","alternatenames":[],"lat":9.83495,"lon":118.73836,"countryCode":"PH"},{"name":"Casa Mila Inn","asciiName":"Casa Mila Inn","alternatenames":[],"lat":9.72734,"lon":118.76225,"countryCode":"PH"},{"name":"Busuanga Bay Lodge","asciiName":"Busuanga Bay Lodge","alternatenames":[],"lat":9.83495,"lon":118.73836,"countryCode":"PH"},{"name":"Ascendo Suites","asciiName":"Ascendo Suites","alternatenames":[],"lat":9.74824,"lon":118.74361,"countryCode":"PH"},{"name":"Aquari Travellers Suites","asciiName":"Aquari Travellers Suites","alternatenames":[],"lat":14.60669,"lon":121.00417,"countryCode":"PH"},{"name":"Vanilla Sky Resort","asciiName":"Vanilla Sky Resort","alternatenames":[],"lat":9.84999,"lon":124.14354,"countryCode":"PH"},{"name":"Sun Apartelle Resort","asciiName":"Sun Apartelle Resort","alternatenames":[],"lat":9.54869,"lon":123.76667,"countryCode":"PH"},{"name":"Sherwood Bay Resort & Aqua Sports Dive School","asciiName":"Sherwood Bay Resort & Aqua Sports Dive School","alternatenames":[],"lat":9.64221,"lon":123.83162,"countryCode":"PH"},{"name":"Sea Corals Beach Resort","asciiName":"Sea Corals Beach Resort","alternatenames":[],"lat":9.58855,"lon":123.7238,"countryCode":"PH"},{"name":"Panglao Regents Park","asciiName":"Panglao Regents Park","alternatenames":[],"lat":9.5528,"lon":123.77414,"countryCode":"PH"},{"name":"Panglao Chocolate Hills Resort","asciiName":"Panglao Chocolate Hills Resort","alternatenames":[],"lat":9.84999,"lon":124.14354,"countryCode":"PH"},{"name":"Palm Island Resort","asciiName":"Palm Island Resort","alternatenames":[],"lat":9.58824,"lon":123.72941,"countryCode":"PH"},{"name":"Muro Ami Beach Resort","asciiName":"Muro Ami Beach Resort","alternatenames":[],"lat":9.58841,"lon":123.7247,"countryCode":"PH"},{"name":"Mangrove Oriental Resort","asciiName":"Mangrove Oriental Resort","alternatenames":[],"lat":11.33347,"lon":124.11418,"countryCode":"PH"},{"name":"Hippocampus Beach And Dive Resort","asciiName":"Hippocampus Beach And Dive Resort","alternatenames":[],"lat":11.33585,"lon":124.11564,"countryCode":"PH"},{"name":"Harmony Hotel","asciiName":"Harmony Hotel","alternatenames":[],"lat":9.54939,"lon":123.76554,"countryCode":"PH"},{"name":"Flowerbeach Scuba Diving Resort","asciiName":"Flowerbeach Scuba Diving Resort","alternatenames":[],"lat":9.73615,"lon":124.55447,"countryCode":"PH"},{"name":"Dumaluan Beach Resort","asciiName":"Dumaluan Beach Resort","alternatenames":[],"lat":9.84999,"lon":124.14354,"countryCode":"PH"},{"name":"Dream Native Resort","asciiName":"Dream Native Resort","alternatenames":[],"lat":9.57924,"lon":123.81504,"countryCode":"PH"},{"name":"Dive Thru Resort","asciiName":"Dive Thru Resort","alternatenames":[],"lat":9.54746,"lon":123.75988,"countryCode":"PH"},{"name":"Coco Grove Tourist Inn","asciiName":"Coco Grove Tourist Inn","alternatenames":[],"lat":9.62127,"lon":123.86636,"countryCode":"PH"},{"name":"Bohol South Beach Hotel","asciiName":"Bohol South Beach Hotel","alternatenames":[],"lat":9.54751,"lon":123.75558,"countryCode":"PH"},{"name":"Bita-Ug Beach Resort","asciiName":"Bita-Ug Beach Resort","alternatenames":[],"lat":9.54703,"lon":123.75447,"countryCode":"PH"},{"name":"Anda White Beach Resort","asciiName":"Anda White Beach Resort","alternatenames":[],"lat":9.73258,"lon":124.56462,"countryCode":"PH"},{"name":"Alona 42 Resort","asciiName":"Alona 42 Resort","alternatenames":[],"lat":9.84999,"lon":124.14354,"countryCode":"PH"},{"name":"The Studio 87","asciiName":"The Studio 87","alternatenames":[],"lat":14.63469,"lon":121.07187,"countryCode":"PH"},{"name":"The Orange Place San Juan Boutique Hotel","asciiName":"The Orange Place San Juan Boutique Hotel","alternatenames":[],"lat":14.6044,"lon":121.03642,"countryCode":"PH"},{"name":"Seven Suites Observatory Hotel","asciiName":"Seven Suites Observatory Hotel","alternatenames":[],"lat":14.62548,"lon":121.12448,"countryCode":"PH"},{"name":"Sequoia Hotel","asciiName":"Sequoia Hotel","alternatenames":[],"lat":14.63646,"lon":121.02942,"countryCode":"PH"},{"name":"One Liberty Hotel","asciiName":"One Liberty Hotel","alternatenames":[],"lat":14.63494,"lon":121.05448,"countryCode":"PH"},{"name":"Lemon Tree Inn","asciiName":"Lemon Tree Inn","alternatenames":[],"lat":14.63437,"lon":121.02293,"countryCode":"PH"},{"name":"Kabayan Hotel Cubao","asciiName":"Kabayan Hotel Cubao","alternatenames":[],"lat":14.62361,"lon":121.05185,"countryCode":"PH"},{"name":"I Suites","asciiName":"I Suites","alternatenames":[],"lat":14.6238,"lon":121.05309,"countryCode":"PH"},{"name":"Hotel Sogo Sta Mesa","asciiName":"Hotel Sogo Sta Mesa","alternatenames":[],"lat":14.60396,"lon":121.0175,"countryCode":"PH"},{"name":"Hotel Sogo Edsa Trinoma","asciiName":"Hotel Sogo Edsa Trinoma","alternatenames":[],"lat":14.65183,"lon":121.03224,"countryCode":"PH"},{"name":"Hotel Sogo Edsa Cubao","asciiName":"Hotel Sogo Edsa Cubao","alternatenames":[],"lat":14.62096,"lon":121.04987,"countryCode":"PH"},{"name":"Hotel Sogo Edsa Caloocan","asciiName":"Hotel Sogo Edsa Caloocan","alternatenames":[],"lat":14.65743,"lon":120.98476,"countryCode":"PH"},{"name":"Hotel Sogo Banawe","asciiName":"Hotel Sogo Banawe","alternatenames":[],"lat":14.63721,"lon":121.00128,"countryCode":"PH"},{"name":"Cocoon Boutique Hotel","asciiName":"Cocoon Boutique Hotel","alternatenames":[],"lat":14.67605,"lon":121.04339,"countryCode":"PH"},{"name":"Camelot Hotel","asciiName":"Camelot Hotel","alternatenames":[],"lat":14.63248,"lon":121.02298,"countryCode":"PH"},{"name":"Acl Suites","asciiName":"Acl Suites","alternatenames":[],"lat":14.61324,"lon":121.06038,"countryCode":"PH"},{"name":"Tubod Flowing Waters Resort","asciiName":"Tubod Flowing Waters Resort","alternatenames":[],"lat":10.25479,"lon":123.76373,"countryCode":"PH"},{"name":"The Golden Peak Hotel And Suites","asciiName":"The Golden Peak Hotel And Suites","alternatenames":[],"lat":10.32006,"lon":123.90303,"countryCode":"PH"},{"name":"St Moritz Hotel","asciiName":"St Moritz Hotel","alternatenames":[],"lat":10.31554,"lon":123.90179,"countryCode":"PH"},{"name":"Paragon Suites","asciiName":"Paragon Suites","alternatenames":[],"lat":10.31382,"lon":123.89443,"countryCode":"PH"},{"name":"Mj Hotel And Suites","asciiName":"Mj Hotel And Suites","alternatenames":[],"lat":10.32021,"lon":123.90225,"countryCode":"PH"},{"name":"Meili Beach Resort","asciiName":"Meili Beach Resort","alternatenames":[],"lat":9.70239,"lon":123.51018,"countryCode":"PH"},{"name":"Mandarin Plaza Hotel","asciiName":"Mandarin Plaza Hotel","alternatenames":[],"lat":10.32006,"lon":123.90303,"countryCode":"PH"},{"name":"Main Hotel And Suites","asciiName":"Main Hotel And Suites","alternatenames":[],"lat":10.33601,"lon":123.91258,"countryCode":"PH"},{"name":"La Maria Pension And Tourist Inn","asciiName":"La Maria Pension And Tourist Inn","alternatenames":[],"lat":10.3476,"lon":123.92745,"countryCode":"PH"},{"name":"Hotel Sogo Cebu","asciiName":"Hotel Sogo Cebu","alternatenames":[],"lat":10.29787,"lon":123.89799,"countryCode":"PH"},{"name":"Gv Hotel Talisay","asciiName":"Gv Hotel Talisay","alternatenames":[],"lat":10.26767,"lon":123.84193,"countryCode":"PH"},{"name":"Fords Inn Cebu","asciiName":"Fords Inn Cebu","alternatenames":[],"lat":10.34345,"lon":123.91313,"countryCode":"PH"},{"name":"Cuarto Hotel","asciiName":"Cuarto Hotel","alternatenames":[],"lat":10.3157,"lon":123.88544,"countryCode":"PH"},{"name":"Crown Port View Hotel","asciiName":"Crown Port View Hotel","alternatenames":[],"lat":10.30569,"lon":123.91303,"countryCode":"PH"},{"name":"Cebu Fiesta Business Suites","asciiName":"Cebu Fiesta Business Suites","alternatenames":[],"lat":10.30027,"lon":123.90384,"countryCode":"PH"},{"name":"Casa Rosario Hotel","asciiName":"Casa Rosario Hotel","alternatenames":[],"lat":10.31248,"lon":123.89498,"countryCode":"PH"},{"name":"B N T Inn","asciiName":"B N T Inn","alternatenames":[],"lat":10.3157,"lon":123.88544,"countryCode":"PH"},{"name":"Ancestors Pension House","asciiName":"Ancestors Pension House","alternatenames":[],"lat":10.29493,"lon":123.90336,"countryCode":"PH"},{"name":"Allson's Inn","asciiName":"Allson's Inn","alternatenames":[],"lat":10.30952,"lon":123.90369,"countryCode":"PH"},{"name":"Alba Uno Residencia","asciiName":"Alba Uno Residencia","alternatenames":[],"lat":10.33357,"lon":123.90765,"countryCode":"PH"},{"name":"The Boracay Beach Resort","asciiName":"The Boracay Beach Resort","alternatenames":[],"lat":11.96863,"lon":121.92404,"countryCode":"PH"},{"name":"Secret Garden Resort Boracay","asciiName":"Secret Garden Resort Boracay","alternatenames":[],"lat":11.95909,"lon":121.92725,"countryCode":"PH"},{"name":"Sea Wind Boracay","asciiName":"Sea Wind Boracay","alternatenames":[],"lat":11.96338,"lon":121.92651,"countryCode":"PH"},{"name":"Roxon Apartments","asciiName":"Roxon Apartments","alternatenames":[],"lat":11.9494,"lon":121.93133,"countryCode":"PH"},{"name":"Rieseling Boracay Beach Resort","asciiName":"Rieseling Boracay Beach Resort","alternatenames":[],"lat":11.96035,"lon":121.93361,"countryCode":"PH"},{"name":"Morning Beach Resort","asciiName":"Morning Beach Resort","alternatenames":[],"lat":11.95419,"lon":121.93211,"countryCode":"PH"},{"name":"Moreno's Cottages","asciiName":"Moreno's Cottages","alternatenames":[],"lat":11.95103,"lon":121.93191,"countryCode":"PH"},{"name":"Mnl Beach Hostel Boracay","asciiName":"Mnl Beach Hostel Boracay","alternatenames":[],"lat":11.9658,"lon":121.92772,"countryCode":"PH"},{"name":"Mito's Place","asciiName":"Mito's Place","alternatenames":[],"lat":11.96338,"lon":121.92651,"countryCode":"PH"},{"name":"Lakbayan Hotel","asciiName":"Lakbayan Hotel","alternatenames":[],"lat":11.96372,"lon":121.92634,"countryCode":"PH"},{"name":"Isla Gecko Resort","asciiName":"Isla Gecko Resort","alternatenames":[],"lat":11.95688,"lon":121.93005,"countryCode":"PH"},{"name":"Hotel Villa Sunset","asciiName":"Hotel Villa Sunset","alternatenames":[],"lat":11.96333,"lon":121.92465,"countryCode":"PH"},{"name":"Hey Jude Resort Hotel","asciiName":"Hey Jude Resort Hotel","alternatenames":[],"lat":11.96204,"lon":121.92612,"countryCode":"PH"},{"name":"Escondido Resort Under J.A.L Management","asciiName":"Escondido Resort Under J.A.L Management","alternatenames":[],"lat":11.96812,"lon":121.92089,"countryCode":"PH"},{"name":"Cohiba Villas Boracay Apartments","asciiName":"Cohiba Villas Boracay Apartments","alternatenames":[],"lat":11.97477,"lon":121.92756,"countryCode":"PH"},{"name":"Boracay Pito Huts","asciiName":"Boracay Pito Huts","alternatenames":[],"lat":11.95377,"lon":121.92957,"countryCode":"PH"},{"name":"Azul Boracay Leisure Resort","asciiName":"Azul Boracay Leisure Resort","alternatenames":[],"lat":11.96667,"lon":121.92444,"countryCode":"PH"},{"name":"Aissatou Beach Resort","asciiName":"Aissatou Beach Resort","alternatenames":[],"lat":11.96051,"lon":121.93265,"countryCode":"PH"},{"name":"Actopia","asciiName":"Actopia","alternatenames":[],"lat":11.94102,"lon":121.94262,"countryCode":"PH"},{"name":"Villa Margarita Hotel","asciiName":"Villa Margarita Hotel","alternatenames":[],"lat":7.09443,"lon":125.61364,"countryCode":"PH"},{"name":"Tiki Beach Resort","asciiName":"Tiki Beach Resort","alternatenames":[],"lat":7.19071,"lon":125.45534,"countryCode":"PH"},{"name":"The Royale House Travel Inn And Suites","asciiName":"The Royale House Travel Inn And Suites","alternatenames":[],"lat":7.06474,"lon":125.61022,"countryCode":"PH"},{"name":"The Royal Mandaya Hotel","asciiName":"The Royal Mandaya Hotel","alternatenames":[],"lat":7.06931,"lon":125.60979,"countryCode":"PH"},{"name":"The Ritz Hotel At Garden Oases","asciiName":"The Ritz Hotel At Garden Oases","alternatenames":[],"lat":7.08126,"lon":125.61729,"countryCode":"PH"},{"name":"The Pinnacle Hotel And Suites","asciiName":"The Pinnacle Hotel And Suites","alternatenames":[],"lat":7.07658,"lon":125.6153,"countryCode":"PH"},{"name":"The Metropolis Suites","asciiName":"The Metropolis Suites","alternatenames":[],"lat":7.0968,"lon":125.62188,"countryCode":"PH"},{"name":"The Manor Hotel","asciiName":"The Manor Hotel","alternatenames":[],"lat":7.0689,"lon":125.60208,"countryCode":"PH"},{"name":"Sequoia Inn","asciiName":"Sequoia Inn","alternatenames":[],"lat":7.07556,"lon":125.62177,"countryCode":"PH"},{"name":"Seda Abreeza","asciiName":"Seda Abreeza","alternatenames":[],"lat":7.09443,"lon":125.61364,"countryCode":"PH"},{"name":"Regency Inn","asciiName":"Regency Inn","alternatenames":[],"lat":7.07453,"lon":125.61388,"countryCode":"PH"},{"name":"Red Knight Gardens Hotel","asciiName":"Red Knight Gardens Hotel","alternatenames":[],"lat":7.10567,"lon":125.6372,"countryCode":"PH"},{"name":"Precious Garden Of Samal","asciiName":"Precious Garden Of Samal","alternatenames":[],"lat":7.13949,"lon":125.68757,"countryCode":"PH"},{"name":"Ponce Suites Gallery Hotel","asciiName":"Ponce Suites Gallery Hotel","alternatenames":[],"lat":7.08392,"lon":125.6078,"countryCode":"PH"},{"name":"Perangs Residences","asciiName":"Perangs Residences","alternatenames":[],"lat":7.12865,"lon":125.60584,"countryCode":"PH"},{"name":"My Hotel Davao","asciiName":"My Hotel Davao","alternatenames":[],"lat":7.06692,"lon":125.60599,"countryCode":"PH"},{"name":"Leticia By The Sea","asciiName":"Leticia By The Sea","alternatenames":[],"lat":7.00841,"lon":125.67376,"countryCode":"PH"},{"name":"Humberto's Hotel","asciiName":"Humberto's Hotel","alternatenames":[],"lat":7.06979,"lon":125.61392,"countryCode":"PH"},{"name":"Hotel Vicente","asciiName":"Hotel Vicente","alternatenames":[],"lat":7.19071,"lon":125.45534,"countryCode":"PH"},{"name":"Home Crest Residences","asciiName":"Home Crest Residences","alternatenames":[],"lat":7.04952,"lon":125.59076,"countryCode":"PH"},{"name":"Green Windows Dormitel","asciiName":"Green Windows Dormitel","alternatenames":[],"lat":7.07161,"lon":125.60507,"countryCode":"PH"},{"name":"Grand Regal Hotel Davao","asciiName":"Grand Regal Hotel Davao","alternatenames":[],"lat":7.10399,"lon":125.6409,"countryCode":"PH"},{"name":"El Bajada Hotel","asciiName":"El Bajada Hotel","alternatenames":[],"lat":7.19071,"lon":125.45534,"countryCode":"PH"},{"name":"D'leonor Hotel","asciiName":"D'leonor Hotel","alternatenames":[],"lat":7.09443,"lon":125.61364,"countryCode":"PH"},{"name":"Courtview Inn","asciiName":"Courtview Inn","alternatenames":[],"lat":7.05727,"lon":125.60055,"countryCode":"PH"},{"name":"Chateau Del Mar Resort Hotel","asciiName":"Chateau Del Mar Resort Hotel","alternatenames":[],"lat":7.19071,"lon":125.45534,"countryCode":"PH"},{"name":"Casa Leticia Business Inn","asciiName":"Casa Leticia Business Inn","alternatenames":[],"lat":7.05432,"lon":125.6001,"countryCode":"PH"},{"name":"Casa Leticia Boutique Hotel","asciiName":"Casa Leticia Boutique Hotel","alternatenames":[],"lat":7.07039,"lon":125.6075,"countryCode":"PH"},{"name":"Big 8 Corporate Hotel","asciiName":"Big 8 Corporate Hotel","alternatenames":[],"lat":7.4416,"lon":125.80601,"countryCode":"PH"},{"name":"Bagobo House Hotel","asciiName":"Bagobo House Hotel","alternatenames":[],"lat":7.06917,"lon":125.60552,"countryCode":"PH"},{"name":"Anisabel Suites","asciiName":"Anisabel Suites","alternatenames":[],"lat":7.09743,"lon":125.60277,"countryCode":"PH"},{"name":"Alu Hotel Davao","asciiName":"Alu Hotel Davao","alternatenames":[],"lat":7.06815,"lon":125.61526,"countryCode":"PH"},{"name":"Savannah Resort Hotel","asciiName":"Savannah Resort Hotel","alternatenames":[],"lat":15.16673,"lon":120.56539,"countryCode":"PH"},{"name":"Rumi Apartelle Hotel","asciiName":"Rumi Apartelle Hotel","alternatenames":[],"lat":15.16472,"lon":120.57193,"countryCode":"PH"},{"name":"Prism Apartelle Hotel","asciiName":"Prism Apartelle Hotel","alternatenames":[],"lat":15.16117,"lon":120.55871,"countryCode":"PH"},{"name":"Oasis Hotel","asciiName":"Oasis Hotel","alternatenames":[],"lat":15.16673,"lon":120.56539,"countryCode":"PH"},{"name":"Montevista Villas At Mimosa","asciiName":"Montevista Villas At Mimosa","alternatenames":[],"lat":15.18525,"lon":120.53942,"countryCode":"PH"},{"name":"Maharajah","asciiName":"Maharajah","alternatenames":[],"lat":15.16487,"lon":120.5603,"countryCode":"PH"},{"name":"Lohas Hotel","asciiName":"Lohas Hotel","alternatenames":[],"lat":15.17559,"lon":120.51552,"countryCode":"PH"},{"name":"Hotel Stotsenberg","asciiName":"Hotel Stotsenberg","alternatenames":[],"lat":15.18828,"lon":120.53772,"countryCode":"PH"},{"name":"Hotel Sogo Cabanatuan","asciiName":"Hotel Sogo Cabanatuan","alternatenames":[],"lat":15.47375,"lon":120.95746,"countryCode":"PH"},{"name":"Hotel Sogo Pampanga","asciiName":"Hotel Sogo Pampanga","alternatenames":[],"lat":15.05144,"lon":120.69947,"countryCode":"PH"},{"name":"Hotel Sogo Naga","asciiName":"Hotel Sogo Naga","alternatenames":[],"lat":13.6185,"lon":123.19086,"countryCode":"PH"},{"name":"Hotel Sogo Dau Pampanga","asciiName":"Hotel Sogo Dau Pampanga","alternatenames":[],"lat":15.17689,"lon":120.58769,"countryCode":"PH"},{"name":"Horizonhill Hotel","asciiName":"Horizonhill Hotel","alternatenames":[],"lat":15.16433,"lon":120.57608,"countryCode":"PH"},{"name":"Fontana Hot Spring Leisure Parks And Casino","asciiName":"Fontana Hot Spring Leisure Parks And Casino","alternatenames":[],"lat":15.14499,"lon":120.5887,"countryCode":"PH"},{"name":"Field's Walking Street Hotel","asciiName":"Field's Walking Street Hotel","alternatenames":[],"lat":15.15209,"lon":120.58439,"countryCode":"PH"},{"name":"Fields Plaza Suites","asciiName":"Fields Plaza Suites","alternatenames":[],"lat":15.16736,"lon":120.58946,"countryCode":"PH"},{"name":"Devera Hotel","asciiName":"Devera Hotel","alternatenames":[],"lat":15.16629,"lon":120.58246,"countryCode":"PH"},{"name":"Affinity Condo Resort","asciiName":"Affinity Condo Resort","alternatenames":[],"lat":15.16475,"lon":120.58288,"countryCode":"PH"},{"name":"950 Condotel","asciiName":"950 Condotel","alternatenames":[],"lat":15.16689,"lon":120.58379,"countryCode":"PH"},{"name":"Marriott Hotel Manila","asciiName":"Marriott Hotel Manila","alternatenames":[],"lat":14.52091,"lon":121.01577,"countryCode":"PH"},{"name":"The Orange Place Hotel Quezon City","asciiName":"The Orange Place Hotel Quezon City","alternatenames":[],"lat":14.63147,"lon":121.0488,"countryCode":"PH"},{"name":"Verbena Pension House","asciiName":"Verbena Pension House","alternatenames":[],"lat":10.31457,"lon":123.89069,"countryCode":"PH"},{"name":"Manila Venetian Hotel","asciiName":"Manila Venetian Hotel","alternatenames":[],"lat":14.60858,"lon":120.98411,"countryCode":"PH"},{"name":"Great Eastern Hotel Makati","asciiName":"Great Eastern Hotel Makati","alternatenames":[],"lat":14.55913,"lon":121.02671,"countryCode":"PH"},{"name":"La Residencia Luzviminda Pensionne","asciiName":"La Residencia Luzviminda Pensionne","alternatenames":[],"lat":10.29988,"lon":123.89258,"countryCode":"PH"},{"name":"Lewis Grand Hotel","asciiName":"Lewis Grand Hotel","alternatenames":[],"lat":15.16503,"lon":120.57745,"countryCode":"PH"},{"name":"Dm Residente Villas","asciiName":"Dm Residente Villas","alternatenames":[],"lat":15.16439,"lon":120.58391,"countryCode":"PH"},{"name":"Dm Residente Resort","asciiName":"Dm Residente Resort","alternatenames":[],"lat":15.14499,"lon":120.5887,"countryCode":"PH"},{"name":"Best Western The Mint Hotel","asciiName":"Best Western The Mint Hotel","alternatenames":[],"lat":15.07941,"lon":120.61999,"countryCode":"PH"},{"name":"El Nido Resorts Pangulasian Island","asciiName":"El Nido Resorts Pangulasian Island","alternatenames":[],"lat":11.11402,"lon":119.33324,"countryCode":"PH"},{"name":"Microtel Inn And Suites Mactan","asciiName":"Microtel Inn And Suites Mactan","alternatenames":[],"lat":10.3133,"lon":123.98278,"countryCode":"PH"},{"name":"Gran Prix Econtel Pasay","asciiName":"Gran Prix Econtel Pasay","alternatenames":[],"lat":14.53851,"lon":121.00663,"countryCode":"PH"},{"name":"Bans Beach Resort","asciiName":"Bans Beach Resort","alternatenames":[],"lat":11.96448,"lon":121.92345,"countryCode":"PH"},{"name":"Mgm Prime Suites","asciiName":"Mgm Prime Suites","alternatenames":[],"lat":9.72521,"lon":118.76541,"countryCode":"PH"},{"name":"Citystate Asturias Hotel Palawan","asciiName":"Citystate Asturias Hotel Palawan","alternatenames":[],"lat":9.76603,"lon":118.74537,"countryCode":"PH"},{"name":"Hotel Rembrandt","asciiName":"Hotel Rembrandt","alternatenames":[],"lat":14.63764,"lon":121.03578,"countryCode":"PH"},{"name":"Great Eastern Quezon City","asciiName":"Great Eastern Quezon City","alternatenames":[],"lat":14.63517,"lon":121.02309,"countryCode":"PH"},{"name":"Hotel Victoria De San Fernando","asciiName":"Hotel Victoria De San Fernando","alternatenames":[],"lat":15.07384,"lon":120.64532,"countryCode":"PH"},{"name":"Ten Cents To Heaven","asciiName":"Ten Cents To Heaven","alternatenames":[],"lat":14.57976,"lon":121.35904,"countryCode":"PH"},{"name":"Ace Hotel And Suites","asciiName":"Ace Hotel And Suites","alternatenames":[],"lat":14.5735,"lon":121.05916,"countryCode":"PH"},{"name":"Victoria Court Panorama","asciiName":"Victoria Court Panorama","alternatenames":[],"lat":14.57155,"lon":121.06731,"countryCode":"PH"},{"name":"El Nido Viewdeck Cottages","asciiName":"El Nido Viewdeck Cottages","alternatenames":[],"lat":11.17524,"lon":119.39195,"countryCode":"PH"},{"name":"A Place To Remember El Nido","asciiName":"A Place To Remember El Nido","alternatenames":[],"lat":11.18008,"lon":119.38754,"countryCode":"PH"},{"name":"Vivere Azure Hotel","asciiName":"Vivere Azure Hotel","alternatenames":[],"lat":13.75721,"lon":121.05811,"countryCode":"PH"},{"name":"Sea's Spring Resort","asciiName":"Sea's Spring Resort","alternatenames":[],"lat":13.68846,"lon":120.89497,"countryCode":"PH"},{"name":"Viewpark Hotel Tagaytay","asciiName":"Viewpark Hotel Tagaytay","alternatenames":[],"lat":14.13094,"lon":121.00314,"countryCode":"PH"},{"name":"The Lake Hotel Tagaytay","asciiName":"The Lake Hotel Tagaytay","alternatenames":[],"lat":14.10185,"lon":120.94853,"countryCode":"PH"},{"name":"Vip Suite","asciiName":"Vip Suite","alternatenames":[],"lat":14.5531,"lon":121.01201,"countryCode":"PH"},{"name":"Isabelle Royale Hotel & Suites","asciiName":"Isabelle Royale Hotel & Suites","alternatenames":[],"lat":14.56595,"lon":121.03099,"countryCode":"PH"},{"name":"24H Apartment","asciiName":"24H Apartment","alternatenames":[],"lat":14.56723,"lon":121.00645,"countryCode":"PH"},{"name":"Express Inn-Mactan","asciiName":"Express Inn-Mactan","alternatenames":[],"lat":10.30975,"lon":123.95894,"countryCode":"PH"},{"name":"Egi Resort And Hotel","asciiName":"Egi Resort And Hotel","alternatenames":[],"lat":10.28445,"lon":123.99715,"countryCode":"PH"},{"name":"Agila Pool Villas Resort","asciiName":"Agila Pool Villas Resort","alternatenames":[],"lat":10.25646,"lon":123.95905,"countryCode":"PH"},{"name":"The Bellavista Hotel","asciiName":"The Bellavista Hotel","alternatenames":[],"lat":10.32443,"lon":123.97367,"countryCode":"PH"},{"name":"Islands Stay Hotel Mactan","asciiName":"Islands Stay Hotel Mactan","alternatenames":[],"lat":10.32548,"lon":123.97555,"countryCode":"PH"},{"name":"Wellcome Hotel","asciiName":"Wellcome Hotel","alternatenames":[],"lat":10.32004,"lon":123.90173,"countryCode":"PH"},{"name":"Palazzo Pensionne","asciiName":"Palazzo Pensionne","alternatenames":[],"lat":10.30645,"lon":123.90187,"countryCode":"PH"},{"name":"Pacific Pensionne","asciiName":"Pacific Pensionne","alternatenames":[],"lat":10.30575,"lon":123.89566,"countryCode":"PH"},{"name":"Ogtong Cave Resort","asciiName":"Ogtong Cave Resort","alternatenames":[],"lat":11.15037,"lon":123.79401,"countryCode":"PH"},{"name":"Ns Royal Pensione","asciiName":"Ns Royal Pensione","alternatenames":[],"lat":10.31216,"lon":123.89519,"countryCode":"PH"},{"name":"Holiday Spa Hotel","asciiName":"Holiday Spa Hotel","alternatenames":[],"lat":10.32992,"lon":123.91067,"countryCode":"PH"},{"name":"Fortuna","asciiName":"Fortuna","alternatenames":[],"lat":10.29453,"lon":123.89852,"countryCode":"PH"},{"name":"Express Inn-Cebu","asciiName":"Express Inn-Cebu","alternatenames":[],"lat":10.31433,"lon":123.9152,"countryCode":"PH"},{"name":"Verbena Capitol Suites","asciiName":"Verbena Capitol Suites","alternatenames":[],"lat":10.31539,"lon":123.89035,"countryCode":"PH"},{"name":"Sta.Fe Beach Club","asciiName":"Sta.Fe Beach Club","alternatenames":[],"lat":11.16702,"lon":123.80545,"countryCode":"PH"},{"name":"San Remigio Pensionne Suites","asciiName":"San Remigio Pensionne Suites","alternatenames":[],"lat":10.32152,"lon":123.91722,"countryCode":"PH"},{"name":"Sampaguita Suites Plaza Garcia","asciiName":"Sampaguita Suites Plaza Garcia","alternatenames":[],"lat":10.2934,"lon":123.90297,"countryCode":"PH"},{"name":"Richmond Plaza","asciiName":"Richmond Plaza","alternatenames":[],"lat":10.31405,"lon":123.90151,"countryCode":"PH"},{"name":"Islands Stay Hotels Uptown","asciiName":"Islands Stay Hotels Uptown","alternatenames":[],"lat":10.31723,"lon":123.90223,"countryCode":"PH"},{"name":"Hagnaya Beach Resort & Restaurant","asciiName":"Hagnaya Beach Resort & Restaurant","alternatenames":[],"lat":11.08707,"lon":123.95465,"countryCode":"PH"},{"name":"Fuente Pension House","asciiName":"Fuente Pension House","alternatenames":[],"lat":10.3108,"lon":123.89409,"countryCode":"PH"},{"name":"Escario Central Hotel","asciiName":"Escario Central Hotel","alternatenames":[],"lat":10.31702,"lon":123.89253,"countryCode":"PH"},{"name":"Century Plaza Hotel","asciiName":"Century Plaza Hotel","alternatenames":[],"lat":10.3117,"lon":123.89427,"countryCode":"PH"},{"name":"Cebuview Tourist Inn","asciiName":"Cebuview Tourist Inn","alternatenames":[],"lat":10.29796,"lon":123.89811,"countryCode":"PH"},{"name":"Yuken Mari Beach Haus","asciiName":"Yuken Mari Beach Haus","alternatenames":[],"lat":9.60009,"lon":123.8026,"countryCode":"PH"},{"name":"Manila Grand Opera Hotel","asciiName":"Manila Grand Opera Hotel","alternatenames":[],"lat":14.60557,"lon":120.98167,"countryCode":"PH"},{"name":"Networld Hotel & Casino","asciiName":"Networld Hotel & Casino","alternatenames":[],"lat":14.55257,"lon":120.98963,"countryCode":"PH"},{"name":"Midas Hotel And Casino","asciiName":"Midas Hotel And Casino","alternatenames":[],"lat":14.54057,"lon":120.9929,"countryCode":"PH"},{"name":"Stonehouse Bed And Breakfast","asciiName":"Stonehouse Bed And Breakfast","alternatenames":[],"lat":14.62428,"lon":121.03415,"countryCode":"PH"},{"name":"Hotel 878 Libis","asciiName":"Hotel 878 Libis","alternatenames":[],"lat":14.61397,"lon":121.07473,"countryCode":"PH"},{"name":"Artina Suites","asciiName":"Artina Suites","alternatenames":[],"lat":14.56806,"lon":121.0278,"countryCode":"PH"},{"name":"Palawan Village Hotel","asciiName":"Palawan Village Hotel","alternatenames":[],"lat":9.73904,"lon":118.75891,"countryCode":"PH"},{"name":"Edgardo's Place And Restaurant","asciiName":"Edgardo's Place And Restaurant","alternatenames":[],"lat":9.73597,"lon":118.74244,"countryCode":"PH"},{"name":"Althea's Place Palawan","asciiName":"Althea's Place Palawan","alternatenames":[],"lat":9.7304,"lon":118.75779,"countryCode":"PH"},{"name":"New Era Pension Inn","asciiName":"New Era Pension Inn","alternatenames":[],"lat":10.31882,"lon":123.91042,"countryCode":"PH"},{"name":"Europa Mansionette Inn","asciiName":"Europa Mansionette Inn","alternatenames":[],"lat":10.34672,"lon":123.92942,"countryCode":"PH"},{"name":"Danao Coco Palms Resort","asciiName":"Danao Coco Palms Resort","alternatenames":[],"lat":10.3157,"lon":123.88544,"countryCode":"PH"},{"name":"Malapascua Legend Water Sport And Resort","asciiName":"Malapascua Legend Water Sport And Resort","alternatenames":[],"lat":11.32667,"lon":124.11982,"countryCode":"PH"},{"name":"Casa Escano Bed And Breakfast","asciiName":"Casa Escano Bed And Breakfast","alternatenames":[],"lat":10.31382,"lon":123.89443,"countryCode":"PH"},{"name":"Blue Corals Beach Resort","asciiName":"Blue Corals Beach Resort","alternatenames":[],"lat":11.32713,"lon":124.11267,"countryCode":"PH"},{"name":"Hotel Venezia","asciiName":"Hotel Venezia","alternatenames":[],"lat":13.15174,"lon":123.73649,"countryCode":"PH"},{"name":"Victoria Court Las Pinas","asciiName":"Victoria Court Las Pinas","alternatenames":[],"lat":14.44284,"lon":121.00069,"countryCode":"PH"},{"name":"Seda Bonifacio Global City","asciiName":"Seda Bonifacio Global City","alternatenames":[],"lat":14.55078,"lon":121.05302,"countryCode":"PH"},{"name":"Mabini Mansion","asciiName":"Mabini Mansion","alternatenames":[],"lat":14.58066,"lon":120.97973,"countryCode":"PH"},{"name":"Eurotel Las Pinas","asciiName":"Eurotel Las Pinas","alternatenames":[],"lat":14.43372,"lon":121.01266,"countryCode":"PH"},{"name":"Casa Nicarosa Hotel","asciiName":"Casa Nicarosa Hotel","alternatenames":[],"lat":14.56658,"lon":120.98758,"countryCode":"PH"},{"name":"Rosas Garden Hotel","asciiName":"Rosas Garden Hotel","alternatenames":[],"lat":14.57816,"lon":120.98003,"countryCode":"PH"},{"name":"Victoria Court Hillcrest","asciiName":"Victoria Court Hillcrest","alternatenames":[],"lat":14.57128,"lon":121.06687,"countryCode":"PH"},{"name":"Punta De Fabian","asciiName":"Punta De Fabian","alternatenames":[],"lat":14.51814,"lon":121.28098,"countryCode":"PH"},{"name":"Roger's Place Hotel","asciiName":"Roger's Place Hotel","alternatenames":[],"lat":14.52267,"lon":121.00061,"countryCode":"PH"},{"name":"Nichols Airport Hotel","asciiName":"Nichols Airport Hotel","alternatenames":[],"lat":14.52269,"lon":121.01363,"countryCode":"PH"},{"name":"Panglao Island Nature Resort & Spa","asciiName":"Panglao Island Nature Resort & Spa","alternatenames":[],"lat":9.62654,"lon":123.80325,"countryCode":"PH"},{"name":"Ladaga Inn And Restaurant","asciiName":"Ladaga Inn And Restaurant","alternatenames":[],"lat":9.63978,"lon":123.84356,"countryCode":"PH"},{"name":"Chiisai Natsu Little Summer Resort","asciiName":"Chiisai Natsu Little Summer Resort","alternatenames":[],"lat":9.55809,"lon":123.79704,"countryCode":"PH"},{"name":"Momo Beach House","asciiName":"Momo Beach House","alternatenames":[],"lat":9.60354,"lon":123.75967,"countryCode":"PH"},{"name":"Al Faro Cosmio Hotel","asciiName":"Al Faro Cosmio Hotel","alternatenames":[],"lat":12.0213,"lon":119.98057,"countryCode":"PH"},{"name":"Fersal Hotel Palawan","asciiName":"Fersal Hotel Palawan","alternatenames":[],"lat":9.73967,"lon":118.75551,"countryCode":"PH"},{"name":"El Nido Resorts Apulit Island Taytay","asciiName":"El Nido Resorts Apulit Island Taytay","alternatenames":[],"lat":10.95672,"lon":119.61584,"countryCode":"PH"},{"name":"Tri-Place","asciiName":"Tri-Place","alternatenames":[],"lat":14.6245,"lon":121.032,"countryCode":"PH"},{"name":"The Contemporary","asciiName":"The Contemporary","alternatenames":[],"lat":14.60722,"lon":121.01787,"countryCode":"PH"},{"name":"Sir William's Hotel","asciiName":"Sir William's Hotel","alternatenames":[],"lat":14.63562,"lon":121.03191,"countryCode":"PH"},{"name":"Microtel Acropolis Libis","asciiName":"Microtel Acropolis Libis","alternatenames":[],"lat":14.60734,"lon":121.07825,"countryCode":"PH"},{"name":"Victoria Court North Edsa","asciiName":"Victoria Court North Edsa","alternatenames":[],"lat":14.65835,"lon":120.99643,"countryCode":"PH"},{"name":"Victoria Court Mcarthur","asciiName":"Victoria Court Mcarthur","alternatenames":[],"lat":14.669,"lon":120.98171,"countryCode":"PH"},{"name":"Victoria Court Balintawak","asciiName":"Victoria Court Balintawak","alternatenames":[],"lat":14.65822,"lon":120.99642,"countryCode":"PH"},{"name":"Robbinsdale Residences","asciiName":"Robbinsdale Residences","alternatenames":[],"lat":14.60836,"lon":121.01752,"countryCode":"PH"},{"name":"Ramberry Hotel","asciiName":"Ramberry Hotel","alternatenames":[],"lat":14.6348,"lon":121.04822,"countryCode":"PH"},{"name":"The Legend Villas","asciiName":"The Legend Villas","alternatenames":[],"lat":14.57135,"lon":121.05014,"countryCode":"PH"},{"name":"Eurotel Makati","asciiName":"Eurotel Makati","alternatenames":[],"lat":14.55168,"lon":121.01345,"countryCode":"PH"},{"name":"Ceo Suites","asciiName":"Ceo Suites","alternatenames":[],"lat":14.56168,"lon":121.0294,"countryCode":"PH"},{"name":"El Nido Resorts Minloc Island","asciiName":"El Nido Resorts Minloc Island","alternatenames":[],"lat":11.14913,"lon":119.31621,"countryCode":"PH"},{"name":"Wellbeach Dive Resort","asciiName":"Wellbeach Dive Resort","alternatenames":[],"lat":9.14017,"lon":123.22939,"countryCode":"PH"},{"name":"Aqua-Landia Resort","asciiName":"Aqua-Landia Resort","alternatenames":[],"lat":9.17658,"lon":123.2526,"countryCode":"PH"},{"name":"Antulang Beach Resort","asciiName":"Antulang Beach Resort","alternatenames":[],"lat":9.04932,"lon":123.03593,"countryCode":"PH"},{"name":"White Mansion","asciiName":"White Mansion","alternatenames":[],"lat":7.09922,"lon":125.6036,"countryCode":"PH"},{"name":"Paradise Island Park And Beach Resort","asciiName":"Paradise Island Park And Beach Resort","alternatenames":[],"lat":7.10236,"lon":125.66361,"countryCode":"PH"},{"name":"Island Garden Resort In Pengubatan","asciiName":"Island Garden Resort In Pengubatan","alternatenames":[],"lat":7.19071,"lon":125.45534,"countryCode":"PH"},{"name":"Hof Gorei Beach Resort","asciiName":"Hof Gorei Beach Resort","alternatenames":[],"lat":6.9938,"lon":125.72749,"countryCode":"PH"},{"name":"Hotel Tropika","asciiName":"Hotel Tropika","alternatenames":[],"lat":7.10498,"lon":125.64267,"countryCode":"PH"},{"name":"Valleyfront Hotel","asciiName":"Valleyfront Hotel","alternatenames":[],"lat":10.30858,"lon":123.88639,"countryCode":"PH"},{"name":"Tickety Boo Beach Resort","asciiName":"Tickety Boo Beach Resort","alternatenames":[],"lat":11.17227,"lon":123.80244,"countryCode":"PH"},{"name":"Rajah Park Hotel","asciiName":"Rajah Park Hotel","alternatenames":[],"lat":10.3102,"lon":123.89397,"countryCode":"PH"},{"name":"Quo Vadis Dive Resort","asciiName":"Quo Vadis Dive Resort","alternatenames":[],"lat":9.94433,"lon":123.36836,"countryCode":"PH"},{"name":"Hotel Stella","asciiName":"Hotel Stella","alternatenames":[],"lat":10.31282,"lon":123.89124,"countryCode":"PH"},{"name":"Gv Tower Cebu","asciiName":"Gv Tower Cebu","alternatenames":[],"lat":10.29738,"lon":123.89738,"countryCode":"PH"},{"name":"Gran Tierra Suites","asciiName":"Gran Tierra Suites","alternatenames":[],"lat":10.31431,"lon":123.8905,"countryCode":"PH"},{"name":"Sugbutel Bed And Bath","asciiName":"Sugbutel Bed And Bath","alternatenames":[],"lat":10.30742,"lon":123.91686,"countryCode":"PH"},{"name":"San Remigio Beach Club","asciiName":"San Remigio Beach Club","alternatenames":[],"lat":10.34603,"lon":123.89923,"countryCode":"PH"},{"name":"Premiere Citi Suites","asciiName":"Premiere Citi Suites","alternatenames":[],"lat":10.31378,"lon":123.894,"countryCode":"PH"},{"name":"Fuente Oro Business Suites","asciiName":"Fuente Oro Business Suites","alternatenames":[],"lat":10.3127,"lon":123.89268,"countryCode":"PH"},{"name":"Ocean Vida Beach And Dive Resort","asciiName":"Ocean Vida Beach And Dive Resort","alternatenames":[],"lat":11.32759,"lon":124.11877,"countryCode":"PH"},{"name":"M Citi Suites","asciiName":"M Citi Suites","alternatenames":[],"lat":10.31107,"lon":123.89216,"countryCode":"PH"},{"name":"Marcosas Cottages Resort","asciiName":"Marcosas Cottages Resort","alternatenames":[],"lat":9.95391,"lon":123.39664,"countryCode":"PH"},{"name":"Kon Tiki Marina","asciiName":"Kon Tiki Marina","alternatenames":[],"lat":10.28251,"lon":123.99905,"countryCode":"PH"},{"name":"Cebu Northwinds Hotel","asciiName":"Cebu Northwinds Hotel","alternatenames":[],"lat":10.32882,"lon":123.90241,"countryCode":"PH"},{"name":"Apple Tree Suites","asciiName":"Apple Tree Suites","alternatenames":[],"lat":10.31098,"lon":123.89368,"countryCode":"PH"},{"name":"Bluefins Resort","asciiName":"Bluefins Resort","alternatenames":[],"lat":10.27938,"lon":123.99589,"countryCode":"PH"},{"name":"Alta Cebu Village Garden Resort","asciiName":"Alta Cebu Village Garden Resort","alternatenames":[],"lat":10.26739,"lon":123.94303,"countryCode":"PH"},{"name":"Vista Mar Beach Resort & Country Club","asciiName":"Vista Mar Beach Resort & Country Club","alternatenames":[],"lat":10.30012,"lon":124.01638,"countryCode":"PH"},{"name":"Shore Time Hotel Boracay","asciiName":"Shore Time Hotel Boracay","alternatenames":[],"lat":11.96237,"lon":121.92397,"countryCode":"PH"},{"name":"Boracay Tourist's Inn","asciiName":"Boracay Tourist's Inn","alternatenames":[],"lat":11.96699,"lon":121.9274,"countryCode":"PH"},{"name":"One Crescent Place Hotel","asciiName":"One Crescent Place Hotel","alternatenames":[],"lat":11.96863,"lon":121.9213,"countryCode":"PH"},{"name":"Hotel La Corona De Lipa","asciiName":"Hotel La Corona De Lipa","alternatenames":[],"lat":13.9537,"lon":121.16457,"countryCode":"PH"},{"name":"Club Balai Isabel","asciiName":"Club Balai Isabel","alternatenames":[],"lat":14.0911,"lon":121.01805,"countryCode":"PH"},{"name":"Park Inn By Radisson Davao","asciiName":"Park Inn By Radisson Davao","alternatenames":[],"lat":7.09739,"lon":125.63059,"countryCode":"PH"},{"name":"Days Hotel Cebu Toledo","asciiName":"Days Hotel Cebu Toledo","alternatenames":[],"lat":10.37943,"lon":123.6367,"countryCode":"PH"},{"name":"The Lotus Garden Suites","asciiName":"The Lotus Garden Suites","alternatenames":[],"lat":9.73971,"lon":118.74758,"countryCode":"PH"},{"name":"Sunlight Guest Hotel","asciiName":"Sunlight Guest Hotel","alternatenames":[],"lat":9.74255,"lon":118.7354,"countryCode":"PH"},{"name":"Sheridan Beach Resort & Spa","asciiName":"Sheridan Beach Resort & Spa","alternatenames":[],"lat":10.19522,"lon":118.89503,"countryCode":"PH"},{"name":"Royal Crown Inn","asciiName":"Royal Crown Inn","alternatenames":[],"lat":9.74066,"lon":118.74182,"countryCode":"PH"},{"name":"A & A Plaza Hotel","asciiName":"A & A Plaza Hotel","alternatenames":[],"lat":9.75167,"lon":118.74799,"countryCode":"PH"},{"name":"The Oracle Hotel And Residences","asciiName":"The Oracle Hotel And Residences","alternatenames":[],"lat":14.64007,"lon":121.07437,"countryCode":"PH"},{"name":"Gran Prix Econtel Cubao","asciiName":"Gran Prix Econtel Cubao","alternatenames":[],"lat":14.62425,"lon":121.04864,"countryCode":"PH"},{"name":"Fersal Hotel P Tuazon","asciiName":"Fersal Hotel P Tuazon","alternatenames":[],"lat":14.61991,"lon":121.05863,"countryCode":"PH"},{"name":"Fersal Hotel Malakas","asciiName":"Fersal Hotel Malakas","alternatenames":[],"lat":14.63749,"lon":121.04791,"countryCode":"PH"},{"name":"Fersal Hotel Kalayaan","asciiName":"Fersal Hotel Kalayaan","alternatenames":[],"lat":14.64618,"lon":121.05278,"countryCode":"PH"},{"name":"Fersal Hotel Annapolis","asciiName":"Fersal Hotel Annapolis","alternatenames":[],"lat":14.60346,"lon":121.05057,"countryCode":"PH"},{"name":"Eurotel North Edsa","asciiName":"Eurotel North Edsa","alternatenames":[],"lat":14.6851,"lon":121.09104,"countryCode":"PH"},{"name":"Eurotel Baguio","asciiName":"Eurotel Baguio","alternatenames":[],"lat":16.42039,"lon":120.58785,"countryCode":"PH"},{"name":"Eurotel Araneta Cubao","asciiName":"Eurotel Araneta Cubao","alternatenames":[],"lat":14.62117,"lon":121.05192,"countryCode":"PH"},{"name":"Tropicana Suites Residence Hotel","asciiName":"Tropicana Suites Residence Hotel","alternatenames":[],"lat":14.57465,"lon":120.98665,"countryCode":"PH"},{"name":"Toilena Room And Board","asciiName":"Toilena Room And Board","alternatenames":[],"lat":14.57947,"lon":120.9888,"countryCode":"PH"},{"name":"The Oasis Paco Park Hotel","asciiName":"The Oasis Paco Park Hotel","alternatenames":[],"lat":14.58163,"lon":120.98953,"countryCode":"PH"},{"name":"Solaire Resort And Casino","asciiName":"Solaire Resort And Casino","alternatenames":[],"lat":14.52258,"lon":120.98078,"countryCode":"PH"},{"name":"Sohotel","asciiName":"Sohotel","alternatenames":[],"lat":14.56816,"lon":120.98495,"countryCode":"PH"},{"name":"Seashore Beach Resort Bar And Restaurant","asciiName":"Seashore Beach Resort Bar And Restaurant","alternatenames":[],"lat":13.52106,"lon":120.97759,"countryCode":"PH"},{"name":"Parque Espana Residence Hotel","asciiName":"Parque Espana Residence Hotel","alternatenames":[],"lat":14.41859,"lon":121.03496,"countryCode":"PH"},{"name":"Paragon Tower Hotel","asciiName":"Paragon Tower Hotel","alternatenames":[],"lat":14.57966,"lon":120.98104,"countryCode":"PH"},{"name":"Leesons Residences","asciiName":"Leesons Residences","alternatenames":[],"lat":14.57328,"lon":120.99218,"countryCode":"PH"},{"name":"Hotel Victoria De Malate","asciiName":"Hotel Victoria De Malate","alternatenames":[],"lat":14.56634,"lon":120.98729,"countryCode":"PH"},{"name":"Hotel Kimberly Tgaytay","asciiName":"Hotel Kimberly Tgaytay","alternatenames":[],"lat":14.64181,"lon":120.99032,"countryCode":"PH"},{"name":"Fersal Hotel Manila","asciiName":"Fersal Hotel Manila","alternatenames":[],"lat":14.61165,"lon":120.98606,"countryCode":"PH"},{"name":"Eurotel Pedro Gil","asciiName":"Eurotel Pedro Gil","alternatenames":[],"lat":14.57446,"lon":120.98498,"countryCode":"PH"},{"name":"Boulevard Hotel & Residential Suites","asciiName":"Boulevard Hotel & Residential Suites","alternatenames":[],"lat":14.57474,"lon":120.9808,"countryCode":"PH"},{"name":"Aloha Hotel","asciiName":"Aloha Hotel","alternatenames":[],"lat":14.56499,"lon":120.98534,"countryCode":"PH"},{"name":"1775 Adriatico Suites","asciiName":"1775 Adriatico Suites","alternatenames":[],"lat":14.57053,"lon":120.98495,"countryCode":"PH"},{"name":"Go Hotels Mandaluyong","asciiName":"Go Hotels Mandaluyong","alternatenames":[],"lat":14.56984,"lon":121.04691,"countryCode":"PH"},{"name":"Lorenzzo Suites Hotel","asciiName":"Lorenzzo Suites Hotel","alternatenames":[],"lat":14.54717,"lon":121.01108,"countryCode":"PH"},{"name":"Joya Lofts & Towers","asciiName":"Joya Lofts & Towers","alternatenames":[],"lat":14.56479,"lon":121.0374,"countryCode":"PH"},{"name":"Fersal Hotel Makati","asciiName":"Fersal Hotel Makati","alternatenames":[],"lat":14.56504,"lon":121.02723,"countryCode":"PH"},{"name":"Amorsolo Mansion Apartments And Suites","asciiName":"Amorsolo Mansion Apartments And Suites","alternatenames":[],"lat":14.55473,"lon":121.01521,"countryCode":"PH"},{"name":"Z Pad Residences","asciiName":"Z Pad Residences","alternatenames":[],"lat":11.23188,"lon":125.00396,"countryCode":"PH"},{"name":"Aysha-Lily Cebu Guest House","asciiName":"Aysha-Lily Cebu Guest House","alternatenames":[],"lat":10.31153,"lon":123.90106,"countryCode":"PH"},{"name":"Lancaster Hotels Cebu","asciiName":"Lancaster Hotels Cebu","alternatenames":[],"lat":10.32256,"lon":123.97691,"countryCode":"PH"},{"name":"Hotel Cesario","asciiName":"Hotel Cesario","alternatenames":[],"lat":10.32152,"lon":123.96778,"countryCode":"PH"},{"name":"Goldberry Suites And Hotel","asciiName":"Goldberry Suites And Hotel","alternatenames":[],"lat":10.32112,"lon":123.96787,"countryCode":"PH"},{"name":"Dulcinea Hotel And Suites","asciiName":"Dulcinea Hotel And Suites","alternatenames":[],"lat":10.31799,"lon":123.9626,"countryCode":"PH"},{"name":"Boracay Holiday Resort","asciiName":"Boracay Holiday Resort","alternatenames":[],"lat":11.96405,"lon":121.9243,"countryCode":"PH"},{"name":"Gran Prix Tarlac","asciiName":"Gran Prix Tarlac","alternatenames":[],"lat":15.48044,"lon":120.59488,"countryCode":"PH"},{"name":"Cherry Blossoms Hotel","asciiName":"Cherry Blossoms Hotel","alternatenames":[],"lat":14.5771,"lon":120.98325,"countryCode":"PH"},{"name":"Golden Prince Riyadh","asciiName":"Golden Prince Riyadh","alternatenames":[],"lat":10.317,"lon":123.902,"countryCode":"PH"},{"name":"Victoria Court Gil Puyat","asciiName":"Victoria Court Gil Puyat","alternatenames":[],"lat":14.47407,"lon":121.00866,"countryCode":"PH"},