name,stars,latitude,longitude,address_street,address_city,address_postcode,website,phone,city,country_code,wikidata_id
"Residencial Botânico",3,40.2029119,-8.4190872,"","","","","","",PT,""
"Hotel Santa Cruz",3,39.1326838,-9.3818623,"","","","","","",PT,""
"Eira Do Serrado",3,32.710232,-16.962948,"","Curral das Freiras","9000-421","https://www.eiradoserrado.com","+351 291 710 060","Curral das Freiras",PT,""
"Holliday Inn Express",3,38.7149478,-9.2994626,"","","","","","",PT,""
"Valley View Hotel Encumeada",3,32.7495336,-17.0244953,"Feiteiras","Ribeira Brava","9350-000","https://www.valleyviewhotelencumeada.pt","+351291951282","Ribeira Brava",PT,""
"Hotel Jorge V",3,38.7213092,-9.1494002,"Rua Mouzinho da Silveira","Lisboa","1250-165","https://www.hoteljorgev.com/","+351 213 562 525","Lisboa",PT,""
"Hotel São João de Deus",3,38.8784019,-7.1660642,"","","","","","",PT,"Q75143425"
"Albergaria Solar de Monfalim",2,38.5704628,-7.907104,"Largo da Misericórdia","Évora","7000-646","https://www.solarmonfalim.com/solar-monfalim","+351 266 703 529","Évora",PT,""
"Turim Lisboa Hotel",4,38.7322739,-9.1492361,"Rua Filipe Folque","Lisboa","1050-113","https://www.turim-hotels.com/hoteis/turim-lisboa-hotel-134","+351 210 330 900","Lisboa",PT,""
"Vila Galé Estoril",3,38.7037593,-9.3969079,"Avenida de Nice","Estoril","","","","Estoril",PT,""
"Hotel Alvorada",3,38.7081696,-9.3985183,"","","","","","",PT,""
"Galomar",3,32.6416489,-16.8328798,"","","","https://www.galoresort.com/Hotel-Galomar---EN/Home","+351 291 930930","",PT,""
"Ibis",3,41.2637013,-8.5654488,"","","","","","",PT,""
"Ibis Bragança",3,41.8167231,-6.7559172,"Avenida das Forças Armadas","Bragança","5300-440","http://www.ibis.com/pt/hotel-3338-ibis-braganca/index.shtml","+351 273 302 520","Bragança",PT,""
"Euro Moniz Inn",3,32.8671013,-17.1689827,"","","","https://www.hoteleuromoniz.com/","","",PT,""
"Luz Bay Club",4,37.0896065,-8.7250328,"","","","http://www.luzbayhotel.pt/","+351 282789640","",PT,""
"Sana Park Sesimbra Hotel",4,38.4425282,-9.0986115,"","Sesimbra","","","","Sesimbra",PT,"Q111408622"
"Inn & Art",3,32.6416106,-16.8346674,"Rua Baden Powell","Canico","9125-067","https://www.innartmadeira.com","+351 291 938 200","Canico",PT,""
"SANA Malhoa Hotel",4,38.7370692,-9.1623494,"Avenida José Malhoa","Lisboa","1099-089","https://malhoa.sanahotels.com/","+351 210 061 800","Lisboa",PT,""
"Hotel Ibis Lisboa José Malhoa",2,38.7371794,-9.1628002,"Avenida José Malhoa","Lisboa","1070-158","http://www.ibis.com/de/hotel-1668-ibis-lisboa-jose-malhoa/index.shtml","+351 217 235 700","Lisboa",PT,""
"Royal Orchid",4,32.6428011,-16.8294526,"Travessa Vista Praia","Caniço","","https://www.rocamarlidoresorts.com/royalorchid/","","Caniço",PT,""
"Rocamar",4,32.6422326,-16.8300388,"","Caniço","","https://www.rocamarlidoresorts.com/rocamarhotel/en/","+351 291 934 334","Caniço",PT,"Q111871397"
"Lago Silencioso",3,37.3044055,-8.8334653,"","","","","","",PT,""
"Mãe D'Água",3,41.5521075,-8.3752099,"","","","","","",PT,""
"Castelo do Bom Jesus",3,41.5578718,-8.3765008,"","","","","","",PT,"Q97180757"
"Pousada Caniçada-Gerês",4,41.6477787,-8.1848372,"Avenida da Caniçada","Caniçada","4850-054","","","Caniçada",PT,"Q10352216"
"Aquafalls Spa Hotel",5,41.648974,-8.2059413,"Avenida de São Miguel","Vieira do Minho","4850-503","","","Vieira do Minho",PT,""
"Marina de São Roque",3,37.1125291,-8.6733822,"","","","","","",PT,""
"Riomar",3,37.1008127,-8.6729166,"Rua Cândido dos Reis","Lagos","","","","Lagos",PT,""
"Casa de São Gonçalo",5,37.1010738,-8.6730488,"","","","","","",PT,""
"Pousada Viana Do Castelo",3,41.703409,-8.8357551,"","","","","","",PT,""
"Quinta da Victória",3,41.7041523,-8.8451017,"","","","","","",PT,""
"Hotel Apartamento Solverde",4,41.0080642,-8.6448677,"","","","","","",PT,""
"Hotel A.S. Lisboa",3,38.7377015,-9.133558,"Avenida Almirante Reis","Lisboa","1000-055","","+351 351218429360","Lisboa",PT,""
"Occidental Faro",4,37.016393,-7.9349802,"Praça D. Francisco Gomes","Faro","8000-168","https://www.barcelo.com/en-us/occidental-faro/","+351 289 830 830","Faro",PT,""
"Hotel Grande Rio",3,41.1583337,-8.6067738,"","","","","","",PT,""
"Pestana Sintra Golf",3,38.7627834,-9.3673289,"Rua Mato da Mina","Sintra","2710-692","","","Sintra",PT,""
"Real Residência",3,38.7355775,-9.1570208,"","","","","","",PT,""
"Cais de Oliveira",4,32.6422734,-16.830704,"","Caniço","","https://www.rocamarlidoresorts.com/caisdaoliveira/","","Caniço",PT,""
"Jardim do Mar",3,32.7373,-17.2114699,"Caminho da Piedade","Jardim do Mar","9370-402","https://www.hoteljardimdomar.com/","+351 291 822 200","Jardim do Mar",PT,""
"Madeira Panorâmico",4,32.6431912,-16.9321859,"","","","","","",PT,""
"Residencial dos Carvalhais",3,41.3398787,-8.4740842,"","","","","","",PT,""
"Baía Grande",4,37.0785466,-8.2894198,"","","","","","",PT,""
"Quinta Boa Viagem",3,41.7231686,-8.8560323,"","","","","","",PT,""
"Clube Varandas do Castelo",3,37.0784654,-8.2969959,"","","","","","",PT,""
"Vila Galé Praia",4,37.0811615,-8.313991,"","","","","","",PT,""
"OPO Hotel",3,41.2348549,-8.666412,"","","","","","",PT,""
"Ponta Grande Resort",4,37.0810201,-8.284884,"","","","","","",PT,""
"Vila Galé Atlântico",3,37.0842735,-8.3144295,"","","","","","",PT,""
"CS Vila das Lagoas Holiday Apartments & Townhouses",5,37.0900642,-8.3210462,"","","","","","",PT,""
"Amadeos",3,41.1809465,-8.6818982,"R. Conde Alto Mearim","Matosinhos","4450-036","https://urbanhotel.pt/urbanhotelamadeos.html","","Matosinhos",PT,""
"Hotel Rainha Dona Amélia",3,39.8206217,-7.4966348,"Rua Santiago","Castelo Branco","6000-179","https://www.hotelrainhadamelia.pt/","+351 272 348 800","Castelo Branco",PT,""
"Residencial Vasco da Gama",3,39.3566347,-9.3790627,"Rua José Estevão","Peniche","2520-465","","","Peniche",PT,""
"Porta do Sol",4,41.8658036,-8.8481813,"","","","","","",PT,""
"Pousada Santa Maria de Bouro",3,41.6590324,-8.27044,"Largo do Terreiro","Santa Maria de Bouro - Amares","4720-633","https://www.pousadas.pt/historic-hotels-portugal/pt/pousadas/north-hotels/pousada-de-amares/sta-maria-do-bouro/pages/home.aspx","+351 253 371 970","Santa Maria de Bouro - Amares",PT,"Q1237113"
"Tivoli Coimbra",4,40.2142863,-8.433395,"Rua João Machado","Coimbra","3000-226","https://tivolihotels.com","+351 239 858 300","Coimbra",PT,""
"Atalaia Sol",3,37.0956416,-8.6965479,"Estrada da Atalaia","Lagos","8600-281","","","Lagos",PT,""
"Hotel Gaivota",4,37.7401744,-25.6638578,"","","","","","",PT,"Q111121765"
"Vista do Vale",3,37.7781773,-25.3119426,"","","","https://www.vistadovale.com/","+351 296 549 030","",PT,""
"Quinta das Pratas",3,39.1702764,-8.7948793,"","","","","","",PT,""
"nh Lagos Algarve",3,37.1057626,-8.6763185,"Rua António Crisógono dos Santos","","","","","",PT,""
"Hotel Alte",3,37.2383045,-8.1847569,"","","","","","",PT,"Q111871269"
"Solar da Rede",3,41.1630975,-7.8743383,"","","5040-308","","","",PT,""
"Pestana Village",3,32.6408336,-16.9251062,"Estrada Monumental","Funchal","","","","Funchal",PT,""
"Pestana Miramar",3,32.6416817,-16.9248635,"","","","","","",PT,""
"Hotel Camões",4,37.7408741,-25.6648995,"Largo de Camões","","","","+351 296 209 580","",PT,"Q111871442"
"Estrelícia",3,32.6401786,-16.9302903,"Rua da Casa Branca","Funchal","9004-535","https://www.dorisol.com/pt/dorisol-estrelicia/","+351 291 706 600","Funchal",PT,"Q111408892"
"Vila Petra",4,37.0972557,-8.2268109,"Rua Mouzinho de Albuquerque","","","https://www.vilapetra.com/","+351 289 540 800","",PT,""
"Lagosmar",2,37.1034697,-8.6732679,"Rua Doutor Faria e Silva","Lagos","","https://lagosmar.com/","+351 282 763 523","Lagos",PT,""
"Belsol",3,40.3656775,-7.3523104,"","Belmonte","6250-076","http://www.hotelbelsol.com/","+351 275 912 206","Belmonte",PT,""
"Ukino Terrace Algarve Concept",3,37.1001197,-8.3868453,"Quinta das Palmeiras","Porches","8400-450","https://ukino-hotels.com/","+351 282 314 230","Porches",PT,""
"Vila da Rocha",3,37.0975826,-8.3875349,"","","","","","",PT,""
"Residencial ""O Comercial""",3,37.7410729,-25.6693169,"","","","","","",PT,""
"Dom Pedro",3,32.6431386,-16.8518121,"Estrada do Garajau","","9125-067","","+351 291 930 800","",PT,""
"Estoril 7",3,38.7402938,-9.3996301,"","","","","","",PT,""
"Pousada de Alijó - Barão de Forrester",3,41.2753945,-7.4747548,"","","","https://www.pousadas.pt/historicalhotels/EN/pousadas/Portugal/Norte/BaraodeForrester/home/","+351 259 959 467","",PT,""
"Quinta das Barradas",3,37.1578424,-8.6649049,"","","","","","",PT,""
"Vila Galé Albacora",4,37.1192525,-7.6270962,"","","","https://www.vilagale.com/pt/hoteis/algarve/vila-gale-albacora","","",PT,"Q16494025"
"Vila Galé Tavira",3,37.1232497,-7.6454436,"Rua 4 de Outubro","Tavira","8800-362","","","Tavira",PT,""
"Baía Cristal",4,37.0933851,-8.4556273,"","","","","","",PT,""
"Vila Lusitânia",3,32.6417513,-16.9302406,"Rua Fundação Zino","Funchal","","","+351 291773603","Funchal",PT,"Q111871422"
"Aqua Hotel",3,40.8597322,-8.6235581,"","","","","","",PT,""
"Aldeamento Turístico do Camarido",3,41.8583899,-8.853412,"Avenida do Camarido","Moledo e Cristelo","4910-180","","+351 258722130","Moledo e Cristelo",PT,"Q112011335"
"Golden Residence",3,32.6367957,-16.9462819,"Rua do Cabrestante","Funchal","9000-105","https://www.goldenresidencehotel.com.pt/","+351 291 710100","Funchal",PT,"Q111408907"
"Casa São Cristovão",3,41.6882586,-7.6657298,"","","","","","",PT,""
"Grande Real Santa Eulalia",3,37.0893945,-8.2129211,"","","","","","",PT,""
"Antillia Hotel Apartamento",4,37.7430916,-25.6607047,"Rua do Peru","","","https://aparthotel-antillia.com/","+351 296 206 000","",PT,""
"Troia",3,41.6310781,-8.3589837,"","","","","","",PT,""
"Herdade de Cadouços",3,39.2722544,-8.1977483,"","","","","","",PT,""
"M'Ar de Ar Muralhas",4,38.5692907,-7.9133469,"Travessa da Palmeira","Évora","7000-546","https://mardearhotels.com","","Évora",PT,"Q111408615"
"Finca Rodilhas Caça e Turismo",3,37.4132525,-7.7403858,"","","","","","",PT,""
"Luna Hotel Serra da Estrela",3,40.3073439,-7.5489283,"Estrada Nacional 339, Penhas da Saúde","Covilhã","6200-073","https://www.lunahoteis.com/pt/Luna-Hotels-Resorts/Hoteis/Luna-Serra-da-Estrela/O-Hotel.aspx","+351 275 310 300","Covilhã",PT,""
"Hotel Eurostars Lisboa Parque",4,38.7282868,-9.1476062,"Largo do Andaluz","Lisboa","1050-121","https://www.eurostarshotels.co.uk/eurostars-lisboa-parque.html?referer_code=ADWORDS_EN","+351 210 050 930","Lisboa",PT,""
"Hotel Santarém",3,39.2229016,-8.6918301,"","Santarém","2000-210","https://www.santaremhotel.net/","","Santarém",PT,""
"Sirius",2,32.6507171,-16.9060731,"Rua das Hortas","Funchal","9050-024","http://www.hotelsirius-madeira.com","+351 291 229 357;+351 291 226 117;+351 291 226 118","Funchal",PT,"Q111871407"
"Hotel Varandazul",2,38.5700748,-8.9038075,"Rua Hermenegildo Capelo","Palmela","","https://www.varandazul.pt","+351 212331451","Palmela",PT,""
"Braga",3,39.1788501,-9.3186736,"","","","","","",PT,""
"Mira Serra",3,40.6310439,-7.3966653,"Rua Calouste Gulbenkian","Celorico da Beira","6360-294","https://www.hmiraserra.com.pt/hotel-mira-serra","+351 271 742 604","Celorico da Beira",PT,""
"Hotel Dom Nuno",3,41.5347978,-8.6170558,"","","","","","",PT,""
"A Tia Bia",3,37.2403285,-7.93717,"","Barranco do Velho","8100-159","https://www.atiabia.com/","+351 289 846 425","Barranco do Velho",PT,""
"Estalagem Dom Lourenço",3,37.2797856,-8.5546102,"","","","","","",PT,""
"Pensão Varandas",3,41.0742949,-8.0941048,"","","","","","",PT,""
"Quinta do Bôco",3,40.9329965,-8.2390571,"","","","","","",PT,""
"Estalagem Parque do Rio",4,41.5207016,-8.7847277,"","","","https://www.parquedorio.pt/","+351 253 981 521","",PT,""
"Albergaria Dom Manuel",3,37.114983,-8.3977887,"","","","","","",PT,""
"Hotel rural Alves",3,41.4863413,-8.4338941,"","","","https://www.booking.com/hotel/pt/alves-rural-casa-alves-de-torneiros-turismo-rural-l-da.pt.html?aid=311098;label=alves-rural-casa-alves-de-torneiros-turismo-rural-l-da-Buu592WNIV4ftK1dONQfEQS6238333457;ws=&gclid=CMPdisP3magCFYwjfAodK0Pd2g","","",PT,""
"Axis Vermar Conference & Beach Hotel",4,41.3910877,-8.7733153,"","","","","+351 252 298 900","",PT,""
"Residencial Brasília",3,41.1548136,-8.6162743,"","","","","","",PT,""
"Quinta Vale d'el Rei Suite & Village Resort",3,37.1154907,-8.4227683,"","","","www.valedelrei.com","","",PT,""
"Quinta do Louredo",4,40.5519992,-8.4895878,"","Espinhel","3750-406","https://www.quintadolouredohotel.pt/","+351234242091","Espinhel",PT,""
"VIP Executive Art's Hotel",4,38.7731005,-9.0978748,"Avenida Dom João II","Lisboa","1998-028","https://www.viphotels.com/","+351 210 020 400","Lisboa",PT,""
"Hotel Eurosol Seia Camelo",3,40.4185294,-7.7050259,"","","","","","",PT,""
"Hotel Mercure",3,40.1511536,-8.8663623,"","","","","","",PT,""
"Hotel Tamargueira",3,40.1668599,-8.882874,"","","","","","",PT,""
"Hotel Wellington",3,40.150337,-8.8641698,"","","","","","",PT,""
"Hotel Ibis",3,40.1495741,-8.8646545,"Rua da Liberdade","Figueira da Foz","3080-168","http://www.ibis.com/gb/hotel-2104-ibis-figueira-da-foz-centro/index.shtml","+351 233 408 190","Figueira da Foz",PT,""
"Hotel Atlantida Sol",3,40.1754889,-8.8948524,"","","","","","",PT,"Q111870676"
"Casablanca Inn Hotel",3,37.180371,-7.4478111,"","","","","","",PT,""
"Yellow Praia Monte Gordo",3,37.1795462,-7.4453435,"","","","","","",PT,""
"Hotel Avenida",3,40.2066454,-8.4286035,"Avenida Emídio Navarro","Coimbra","3000-150","http://www.hotelavenidacoimbra.com/","+351 239 822 155","Coimbra",PT,""
"Hotel Azevedo",3,40.6113779,-8.7501455,"","","","","","",PT,""
"Alto Lido",4,32.6383436,-16.936137,"Estrada Monumental","","","http://www.cardosomadeirahotels.com/hotel-alto-lido-23.aspx","+351 291 765 197","",PT,"Q111871423"
"Eurosol Alcanena",3,39.4567164,-8.6677946,"","","","","","",PT,""
"Aparthotel Oásis Plaza",3,40.1559461,-8.8672006,"Avenida do Brasil","","","https://www.eurostarshotels.com.pt/eurostars-oasis-plaza.html","+351 233 200 010","",PT,""
"Porto Antas Hotel",3,41.1631124,-8.5894407,"Rua do Padre Manuel da Nóbrega","Porto","4350-226","https://www.portoantashotel.pt/","+351 225 025 000","Porto",PT,""
"Pensão Residencial Setubalense",3,38.6973906,-9.2022842,"","","","","","",PT,""
"RESIDENCIA SANTA MARTA- Aparthotel",3,39.5946203,-8.3853275,"","","","","","",PT,""
"Sheraton",3,37.1017802,-8.3857464,"","","","","","",PT,""
"Hotel Folgosa Douro",3,41.1516127,-7.6814779,"","","","http://www.hotelfolgosadouro.com","+351 254 858 222","",PT,""
"Quinta da Azenha",3,41.1521241,-7.6781723,"","","","www.quintadaazenha.net","+351 254 855 172","",PT,""
"Mirachoro Sol",3,37.1391831,-8.5482737,"","","","","","",PT,""
"Hotel Bienestar Termas de Monção",3,42.0781685,-8.4749801,"Avenida das Caldas","","4959-442","https://www.hotelbienestartermasdemoncao.com/","+351251030092","",PT,""
"Sweet Atlantic Hotel & Spa",3,40.1506972,-8.8664264,"","","","","","",PT,""
"Aparthotel Sottomayor",3,40.1596552,-8.8645984,"","","","","","",PT,""
"Solar dos Lilases",3,38.9441548,-8.1668769,"Rua de Santo António","Mora","7490-236","https://www.hotelsolardoslilases.com/","+351 266 403 315","Mora",PT,""
"Pousada de São Miguel",3,38.9298874,-7.6860111,"","","","","","",PT,""
"Villa Mar Azul",3,37.088268,-8.6864924,"","","","","","",PT,""
"Mafra Hotel",3,38.9416364,-9.330716,"","","","","","",PT,""
"Residencial Estrela do Mar",3,39.8746872,-8.971206,"","","","","","",PT,""
"QH Hotels",3,40.219966,-8.8897705,"Urbanização Torricentro","Quiaios","3080-515","https://qhhotels.pt/","+351 233 917 530","Quiaios",PT,""
"Alísios",3,37.0862059,-8.2419686,"Avenida Infante Dom Henrique","Albufeira","8200-916","https://hotelalisios.com/","","Albufeira",PT,""
"Hotel Parque da Curia",3,40.4237742,-8.4632077,"","","","","","",PT,""
"Coração do Algarve",3,37.161636,-7.8971894,"","","","","","",PT,""
"Hotel Rali",3,41.6970788,-8.8262828,"","","","","","",PT,""
"Hotel Ibis",3,41.4415099,-8.3025639,"","","","","","",PT,""
"Forte de São Francisco Hotel",4,41.7431107,-7.4689035,"Alto da Pedisqueira","Chaves","5400-435","https://www.fortesaofrancisco.com/","+351 276 333700","Chaves",PT,""
"Sport Hotel A Seleção",2,38.5228606,-8.8511461,"Rua da Manteigada","Setúbal","2900-241","https://www.hotelselecao.pt/","+351 265 709 650","Setúbal",PT,"Q112010854"
"Pousada da Calçada",3,41.0878782,-8.0407746,"","","","","","",PT,""
"Torre de Gomariz Wine & Spa Hotel",3,41.5883518,-8.5360196,"","","","","","",PT,""
"Mestre D'Avis",2,41.4419421,-8.2977247,"R. Dom João I","Guimarães","4810-422","https://www.hotelmestredeavis.pt/","+351 253422770","Guimarães",PT,""
"Hotel Toural",3,41.4420514,-8.2948079,"","","","","","",PT,""
"São Mamede",1,41.4436915,-8.2974458,"","","","","","",PT,""
"Hotel Fundador",3,41.4358738,-8.2960888,"","","","","","",PT,"Q76947101"
"Stay Hotels - Guimarães Centro",3,41.4373216,-8.2913199,"","","","","","",PT,"Q111871173"
"Porto-Mar ***",3,41.1857614,-8.6932077,"","","","","","",PT,""
"Hotel Black Tulip",3,41.120732,-8.6064246,"Avenida da República","Vila Nova de Gaia","4430-195","","","Vila Nova de Gaia",PT,""
"ClipHotel",3,41.1247794,-8.6055879,"Avenida da República","Vila Nova de Gaia","4430-205","https://www.cliphotel.pt/","+351 223 745 910","Vila Nova de Gaia",PT,""
"Davilina",3,41.124687,-8.6055855,"Avenida da República","Vila Nova de Gaia","4430-205","","","Vila Nova de Gaia",PT,""
"NEXT Savoy Signature",3,32.642591,-16.9195539,"Rua Carvalho Araújo","Funchal","9000-022","https://hotelnext.pt/pt/","","Funchal",PT,""
"Mareta Beach",3,37.0070081,-8.9417381,"","","","","","",PT,""
"Quinta da Penha de França",3,32.643059,-16.918473,"Rua Imperatriz Dona Amélia","Funchal","9000-018","https://www.penhafrancahotels.com/","+351 291 204652","Funchal",PT,"Q111408880"
"da Vila",1,32.6800509,-17.1049744,"Rua Dr. João Augusto Teixeira","Ponta do Sol","9360-215","https://www.pontadosol.com/hoteldavila/","+351 291 973 356","Ponta do Sol",PT,""
"Dighton",3,40.8385179,-8.4785112,"","","","","","",PT,""
"Hotel Star Inn Peniche",3,39.3583394,-9.3635578,"Avenida da Praia","","","","","",PT,""
"Girassol",3,32.6387025,-16.9292471,"","","","https://www.hotelgirassolmadeira.com/","+351 291 701 570","",PT,""
"Bom Sucesso",2,41.5975208,-8.4654814,"Largo Antunes Lima","Vila de Prado","4730-450","http://www.bomsucesso.com/","+351 253 929 070","Vila de Prado",PT,""
"Hotel Santa Bárbara",3,38.0123872,-7.8628718,"Rua de Mértola","Beja","7800-475","https://www.hotelsantabarbara.pt/","+351 284312280","Beja",PT,""
"Hotel Casa Portuguesa",3,38.8427784,-9.1644941,"","","","","","",PT,""
"Hotel dos Cavaleiros",3,39.4794254,-8.5391977,"","","","","","",PT,""
"Hotel Torres Novas",3,39.4788497,-8.5392416,"","","","","","",PT,""
"Duna Park",3,37.725635,-8.7899627,"","","","","","",PT,""
"Ordem de Santiago",3,38.371332,-8.5073021,"","","","","","",PT,""
"Aliança",3,40.149921,-8.8654815,"","","","","","",PT,""
"Residencial Arca Nova",3,41.8739138,-8.8363555,"","","","","","",PT,""
"Residencial Galo D'Ouro",3,41.8752256,-8.8380935,"Rua da Corredoura","Caminha","4910-133","","","Caminha",PT,""
"Hotel Luso Brasileiro",3,41.3793955,-8.7667975,"Rua dos Cafés","Póvoa de Varzim","4490-595","","","Póvoa de Varzim",PT,""
"Apartamentos Turísticos Quinta da Vigia",3,38.821126,-9.4718401,"","","","","","",PT,""
"Hotel Arribas",3,38.8171805,-9.4756568,"","","","","","",PT,""
"Hotel São Julião",3,38.6841107,-9.3421794,"Praça do Junqueiro","Carcavelos","","","","Carcavelos",PT,""
"The Anchor Tróia",3,38.491011,-8.9043878,"","","","","","",PT,""
"VIP Executive Saldanha Hotel",4,38.7322353,-9.1446772,"Rua Fernão Lopes","Lisboa","1000-132","https://www.viphotels.com/pt/Hoteis/VIP-Executive-Saldanha/Sobre-Hotel.aspx","+351 213 308 620","Lisboa",PT,""
"Legendary Lisboa Suites",4,38.7225454,-9.1526953,"Rua Rodrigo da Fonseca","Lisboa","1250-193","https://www.legendarylisboasuites.com/","+351 210 046 600","Lisboa",PT,""
"Hotel Pestana Cascais",4,38.6967893,-9.4380883,"","","","https://www.pestana.com/","+351 21 482 5900","",PT,""
"Stay Hotels",3,37.0168464,-7.9317246,"Rua do Portugal","Faro","","http://www.hotelsantamaria.pt/hotel-overview.html","+351 289 898 080","Faro",PT,""
"Hotel Amoras",4,39.7492656,-7.9198152,"","","","","","",PT,""
"AlmaLusa Comporta",3,38.3790056,-8.7863562,"","","","","+351265098600","",PT,""
"Hotel do Vale",4,40.8570868,-7.506288,"","Aguiar da Beira","3570-191","http://www.hoteldovale.net/","+351 232 687 363","Aguiar da Beira",PT,""
"Hotel Beta Porto",3,41.1780075,-8.6143361,"","Porto","4200-062","","","Porto",PT,""
"Monte do Giestal",3,38.0119674,-8.5064877,"","","","https://www.montedogiestal.com/","","",PT,""
"Hotel Turim Alameda",4,38.7354312,-9.1375837,"Avenida Rovisco Pais","Lisboa","1000-268","https://www.turim-hotels.com/hoteis/turim-alameda-hotel-135","+351 218 411 550","Lisboa",PT,""
"Pransor Águas Santas",3,41.2004633,-8.5692256,"","","","","","",PT,""
"NH Marina Portimão Resort",3,37.1188184,-8.5291088,"","","","","","",PT,""
"Albergaria Tony da Silva",3,41.6048726,-7.3107864,"","","","","","",PT,""
"Hotel Ponte de Sor",3,39.2531224,-8.0108087,"Rua João Pedro de Andrade","Ponte de Sôr","7400-264","https://www.hotelpontesor.pt/","+351242203263","Ponte de Sôr",PT,""
"Hotel Imperador",2,38.7355574,-9.1476233,"Avenida 5 de Outubro","Lisboa","1050-048","www.imperador.com.pt","+351 213 524 884","Lisboa",PT,""
"Alicante",2,38.7287391,-9.144544,"Av Duque De Loule","Lisboa","1050-090","http://hotel-alicante.pt-hotels.com/en/","+351 213 530 514","Lisboa",PT,""
"Sol e Chuva",3,41.7452163,-7.8690125,"","","","","","",PT,""
"Imperio Hotel",2,41.1591561,-7.7848467,"Rua de José Vasquez Osório","","","","","",PT,""
"Holiday Inn Algarve",3,37.1021668,-8.3666521,"","","","","","",PT,""
"SportHotel",3,40.2841131,-7.5056516,"","","","","","",PT,""
"Forte São João",3,41.341766,-8.7517049,"","","","","+351 252 240 600","",PT,""
"Aparthotel Barracuda",3,37.7512711,-25.6265529,"","","","","","",PT,"Q111871436"
"Europeia Hotel",3,39.404934,-9.1345294,"","","","","","",PT,""
"Catolica Hotel",3,39.629482,-8.6707866,"","","","","","",PT,""
"Balaia Golf Village Resort",3,37.0928749,-8.2073418,"","","","","","",PT,""
"Pensão Residencial Abê",3,41.2177877,-8.5533835,"","","","","","",PT,""
"Quinta da Seixeda",3,41.2807466,-7.4733078,"Bairro do Pombal","","5070 Alijó","","+351 259 957 350","",PT,""
"Hotel Premium",4,41.2353146,-8.625606,"Rua de Simão Bolívar","","","https://en.premiumportomaia.com/","","",PT,""
"Pensão Residencial Portuense",3,38.7173604,-9.1415906,"","","","","","",PT,""
"Hotel Apolo",3,37.1935232,-7.4200334,"Rua Doutor Teófilo Braga","Vila Real de Santo António","8900","","","Vila Real de Santo António",PT,""
"Hotel Dom Nuno",3,38.011067,-8.6935795,"","","","","","",PT,""
"Solar da Glória ao Carmo",3,37.7540029,-25.620058,"","","","","","",PT,""
"Água d'Alma Hotel",3,39.4361298,-9.2170313,"","","","","","",PT,""
"Enotel Golf Santa da Serra",3,32.7245046,-16.8168284,"Sitio dos Casais proximos","","","","+351291550550","",PT,""
"Ilha do Sabão",3,41.4403784,-8.294307,"","","","","","",PT,""
"Hotel Solar Palmeiras",3,38.6975923,-9.2839672,"","","","","","",PT,""
"Hotel das Salinas",3,40.6404725,-8.6568275,"Rua da Liberdade","Aveiro","3810-126","https://hoteldassalinas.com/","+351 234 404 190","Aveiro",PT,""
"Hotel Barra",3,40.6432994,-8.7463523,"","","","","","",PT,""
"Hotel AveiroCenter",3,40.6398919,-8.6555197,"Rua da Arrochela","Aveiro","3810-052","https://hotelaveirocenter.com/","+351 234 380 390","Aveiro",PT,""
"Quinta dos Avelanais",3,40.5764797,-7.2523996,"","","","","","",PT,""
"Residência Lusa Atenas",3,40.2100022,-8.4316112,"Avenida Fernão de Magalhães","Coimbra","3000-171","https://www.residencialusatenas.com/","","Coimbra",PT,""
"Hotel Douro Inn",3,41.1168714,-7.5691632,"","","","","","",PT,""
"Baía Azul",4,32.636363,-16.9397552,"Rua da Quinta Calaça","Funchal","9004-530","https://www.baiaazul.pt/en/","+351 291 700 400","Funchal",PT,"Q111408903"
"Duas Torres",3,32.6348824,-16.9422289,"","","","https://www.duastorres.pt/","","",PT,"Q111408905"
"Tiles",3,32.6377814,-16.9305801,"","","","","","",PT,""
"Porto Mare",4,32.637669,-16.9326246,"Rua Simplicio dos Passos Gouveia","Funchal","9004-565","https://www.portobay.com/Hotel.aspx?areaId=167","+351 291 703 700","Funchal",PT,""
"Suite Hotel Eden Mar Madeira",3,32.6375698,-16.9316156,"","","","https://www.portobay.com/Hotel.aspx?areaId=168","","",PT,""
"Solar do Alambique",3,40.6749161,-8.5596611,"","","","https://www.solardoalambique.com","+351 234 918 014;+351 919 175 955","",PT,""
"Azoris Royal Garden",4,37.739108,-25.6769681,"Rua de Lisboa","Ponta Delgada","9500-216","","","Ponta Delgada",PT,""
"Hotel Ponta Delgada",3,37.7376408,-25.6755577,"","","","https://www.hotelpdl.com/","+351296209480","",PT,"Q111408922"
"Algarve Wheelchair Holidays",3,37.1340489,-8.1637455,"","Boliqueime","","https://algarvewheelchairholidays.com/","","Boliqueime",PT,""
"Residencial Solar Dom Carlos",3,38.6960578,-9.4217737,"","","","https://www.solardomcarlos.com/","","",PT,""
"Residencial Alcides",3,37.7410406,-25.6687242,"","","","https://alcides.pt/","","",PT,""
"Hotel Dom Jorge",3,38.1752762,-8.5677072,"Praça Dom Jorge","Grândola","7570-136","http://www.hoteldjorge-grandola.com/","+351 269 498 810","Grândola",PT,""
"Mira Sagres",3,37.0824719,-8.9092462,"","","","https://www.hotelmirasagres.com/","+351 925408080","",PT,""
"Jupiter",3,37.1193974,-8.5367626,"Avenida Tomás Cabreira","","8500-802","https://www.jupiteralgarvehotel.com/","+351 282 470 470","",PT,""
"Algarve Casino",3,37.1181483,-8.5345042,"Avenida Tomás Cabreira","Portimão","8500-802","https://www.gruposolverde.pt/hotel-algarve-casino/","+351 282 402 000","Portimão",PT,"Q111408752"
"Hotel da Rocha",4,37.119098,-8.5362101,"Avenida Tomas Cabreira","Portimão","8500-802","https://www.hoteldarocha.com/","+351 282 424 081","Portimão",PT,""
"AP Oriental Beach",3,37.1175923,-8.5326052,"Avenida Tomás Cabreira","","8500-802","https://ap-hotelsresorts.com/oriental","+351 282 480 800;+351 289 540 164","",PT,""
"Aparthotel Don Tenório",3,37.0139786,-8.9407413,"","","","","","",PT,""
"Palace Hotel & SPA - Termas de São Miguel",4,40.6235398,-7.5435069,"","","","","","",PT,""
"Residência Praia Norte",3,39.6088741,-9.073438,"","","","","","",PT,""
"Luna Esperança Centro Hotel",4,38.5233285,-8.8909287,"","","","","","",PT,"Q111870893"
"Imperhotel",3,39.6320579,-8.6668929,"","","","","","",PT,""
"Quinta Albatroz Beach Club",3,32.6904923,-16.7768169,"Quinta Drive Americo Durao","Santa Cruz","9100-016","https://www.albatrozhotel.com/","","Santa Cruz",PT,""
"Quinta do Belo-Ver Turismo de Habitação",3,39.4939658,-7.9568103,"","","","https://quintadobelover.com/","","",PT,"Q112011369"
"Parador Casa da Ínsua",5,40.6765128,-7.7058783,"","Penalva do Castelo","3550-126","","+351 232 640 110","Penalva do Castelo",PT,""
"IBERLAGOS",3,37.0930693,-8.6701476,"Rua Professor Correia Abreu","","","","","",PT,""
"Casa do Pinheiro",3,41.7652863,-8.5840651,"","","","","","",PT,""
"Design & Wine",3,41.8758928,-8.8392272,"Praça Conselheiro Silva Torres","Caminha","","","","Caminha",PT,""
"Madeira Bright Star",3,32.6431199,-16.9181247,"Rua Princesa Dona Amélia","Funchal","9000-019","","","Funchal",PT,""
"Casa do Carvalhal - Agro Turismo",3,41.6168887,-8.3952949,"","","","","","",PT,""
"Forte de São João da Barra",3,37.1388478,-7.5923964,"","","","","","",PT,""
"Altaoura",3,37.0910596,-8.2328792,"","","","","","",PT,""
"Real Bellavista Hotel & Spa",3,37.095929,-8.2393905,"Rua do Estádio","Albufeira","8200-127","https://www.realbellavista.realhotelsgroup.com/","+351 289 540 060","Albufeira",PT,""
"Hotel do Colégio",4,37.742248,-25.6697238,"","","","https://www.hoteldocolegio.pt/","+351 296 306 600","",PT,"Q111408919"
"Sintra Sol",3,38.8241539,-9.4675703,"","","","","","",PT,""
"Império do Norte",3,41.7655901,-8.5866463,"Rua 5 de Outubro","","","https://www.hotelimperiodonorte.com/","+351 253 254 197","",PT,""
"InLima Hotel & Spa",3,41.7640618,-8.5877895,"Rua Agostinho José Taveira Lote","Ponte de Lima","4990-072","https://www.inlimahotel.com/","+351 258 900 050","Ponte de Lima",PT,""
"Residencial Mário Almeida",3,41.4268324,-8.3546305,"","","","","+351 253 531 683","",PT,""
"Nova Sintra",3,38.801533,-9.383221,"","","","","","",PT,""
"Sana Excelsior",3,38.7368933,-9.1503641,"","","","","","",PT,""
"Aparthotel Guadiana",3,37.1796207,-7.4494433,"","","","","","",PT,""
"Os Poetas",3,41.8088272,-8.4197739,"","","","","","",PT,""
"Furnas Lake Forest Living",3,37.7493182,-25.3241721,"","","","http://www.furnaslakevillas.pt/","","",PT,""
"Palios da Vila",3,37.7248283,-8.7855855,"","","","","","",PT,""
"Vale Verde",3,37.7731512,-25.308003,"","","","","","",PT,"Q111111902"
"Ribadouro",1,41.2759532,-7.4757782,"Avenida Doutor Francisco Sá Carneiro","","","https://hotel-ribadouro.com/","+351 259959452","",PT,""
"Hotel Jardim",3,38.8805322,-7.145472,"","","","","","",PT,""
"Residencial Sobreiro",3,41.3716237,-8.4335303,"Avenida Silva Pereira","","4765-014 Bairro","","+351 252 931 043","",PT,""
"Herdade da Daroeira",3,37.9103547,-8.3279212,"","","","","","",PT,""
"Best Western Hotel Dom Bernardo",3,37.0206121,-7.9325552,"Rua General Teófilo da Trindade","Faro","8000-356","https://www.bestwestern.pt/hotels/best-western-hotel-dom-bernardo-faro-72064","+351 289889800","Faro",PT,""
"Casa da Alameda",3,40.6905624,-8.4803168,"","","","","","",PT,""
"Hotel Alentejano",3,38.8421704,-7.5870959,"","","","","","",PT,""
"Holiday Inn Express Lisbon Airport",3,38.7861064,-9.120416,"Rua da Guiné","Lisboa","2685-334","https://www.ihg.com/holidayinnexpress/hotels/gb/en/lisbon/lisap/hoteldetail?cm_mmc=GoogleMaps-_-EX-_-PT-_-LISAP","","Lisboa",PT,""
"Residencial Bela Vista",3,41.7165447,-8.1679182,"","","","","","",PT,""
"Pensão do Rio",3,41.7151032,-8.1672557,"","","","","","",PT,""
"Residencial Serrana",3,41.716769,-8.1651368,"","","","","","",PT,""
"Pensão Baltasar",3,41.7303001,-8.1617904,"","","","","","",PT,"Q112011318"
"Pensão da Ponte",3,41.7292632,-8.1625897,"","","","","","",PT,""
"Hotel do Parque",3,41.7288949,-8.162284,"","","","","","",PT,"Q98566271"
"Residencial Príncipe",3,41.7276656,-8.1635167,"","","","","","",PT,""
"Hotel Carvalho Araújo",3,41.7273886,-8.1636723,"","","","","","",PT,""
"Pensão Moderna",3,41.7268345,-8.1641557,"","","","","","",PT,"Q111871250"
"Residencial Flor de Moçambique",3,41.7271807,-8.1640454,"","","","","","",PT,""
"Residencial Horizonte do Gerês",3,41.7263687,-8.164478,"","","","","","",PT,""
"Pensão Adelaide",3,41.7261164,-8.1646711,"","","","","","",PT,""
"Quinta do Terreiro",3,41.0396119,-7.8156018,"","","","","","",PT,""
"Hotel Rural Quinta da Conchada",4,40.3372861,-8.216253,"","","","","","",PT,""
"Aparthotel Oceanus",3,37.093229,-8.1918579,"","","","","","",PT,""
"Aparthotel Oceanus",3,37.0929166,-8.1913108,"","","","","","",PT,""
"Casa da Gaiteira - Turismo Rural",3,41.6679731,-8.0554912,"","","","","","",PT,""
"Quinta da Fonte do Bispo",3,37.1551137,-7.768595,"","","","","","",PT,""
"Madeira",3,32.6480419,-16.9123554,"","","","","","",PT,"Q111408875"
"Pousada INATEL Linhares da Beira",3,40.5401925,-7.4631568,"","","","","","",PT,""
"Mar Bravo",3,39.6015318,-9.0736823,"Praça Sousa Oliveira","","2450-159","","","",PT,""
"Monte de São Sebastião",3,41.402606,-7.4576376,"","","","","","",PT,""
"Leiria Classic",1,39.7429714,-8.8077157,"Rua Dr. Correia de Mateus","Leiria","2400-217","https://www.hotelleiriaclassic.pt/","+351 244 812 802","Leiria",PT,""
"Quinta da Casa Branca",3,32.6419421,-16.9270683,"Rua da Casa Branca","Funchal","9000-088","https://www.quintacasabranca.com/","+351 291700770","Funchal",PT,""
"TUI BLUE Madeira",3,32.641835,-16.9289079,"Azinhaga da Casa Branca","Funchal","9004-543","","+351 291 213 600","Funchal",PT,""
"Stay",4,39.0910519,-9.2591284,"","","","","","",PT,""
"Hotel da Nazaré",3,39.601613,-9.070884,"Largo Afonso Zuquete","Nazaré","2450-139","","","Nazaré",PT,""
"Hotel Cubata",2,39.6024432,-9.074002,"Avenida da República","Nazaré","2450-104","","","Nazaré",PT,""
"Hotel Praia",4,39.5989425,-9.0708451,"Avenida Vieira Guimarães","Nazaré","2450-110","","","Nazaré",PT,""
"Hotel Axis",4,41.702701,-8.8194645,"Avenida Capitão Gaspar de Castro","Viana do Castelo","4900-462","https://www.axishoteis.com/","+351 258 802 000","Viana do Castelo",PT,""
"arts in",3,32.6512636,-16.897627,"","","","","+351 291 215 290","",PT,""
"L'and Vineyards",5,38.645534,-8.246897,"","","","","","",PT,"Q111408557"
"Hotel Bracara Augusta",3,41.5513025,-8.4196881,"Avenida Central","","","","","",PT,"Q111871202"
"Quinta das Aveleiras",3,41.1693672,-7.0561282,"Avenida dos Combatentes da Grande Guerra","","5160-206","","","",PT,""
"Hotel Senhora-a-Branca",3,41.5521478,-8.4166369,"","","","","","",PT,"Q111871203"
"Residencial ""O Popular""",3,41.1760536,-7.0528833,"","","","","+351 279 252 337","",PT,""
"Hotel Costa de Prata 2",3,40.1518318,-8.8655791,"","","","","","",PT,""
"Hotel Costa de Prata",3,40.1495029,-8.8657615,"","","","","","",PT,""
"Estalagem Quinta-Progresso",3,40.8447109,-8.3789956,"","","","","","",PT,""
"Hotel Balaia Atlântico",3,37.1064128,-8.2020739,"","","","","","",PT,""
"Pinhal do Sol",3,37.0829549,-8.0777908,"Sitio do Semino","Quarteira","","https://www.hotelpinhaldosol.com","","Quarteira",PT,""
"Hotel do Caramulo",4,40.569039,-8.1707802,"Avenida Dr. Abel Lacerda","Caramulo","3475-031","http://www.hoteldocaramulo.pt/","+351 232 860 100","Caramulo",PT,""
"Pestana Palm Gardens",4,37.0933775,-8.4568222,"","","","https://www.pestana.com/de/pestana-palm-gardens/pages/home.aspx","+351 282 350200","",PT,""
"CS Palm Village",3,37.0942962,-8.3199948,"","","","","","",PT,""
"Residencial São Pedro",3,41.8926817,-8.8193562,"","","","","","",PT,""
"Hotel Dom Vasco",3,37.9577365,-8.8753028,"Rua do Parque","Sines","7520-202","http://www.domvasco.com/","+351 269 630 960","Sines",PT,""
"Hotel Solar do Requeijo",3,41.850454,-8.418526,"","Arcos de Valdevez","4970-769","https://www.lunahoteis.com","+351 258 248 430","Arcos de Valdevez",PT,""
"Hotel Borges Chiado",3,38.7107073,-9.1418705,"Baixa-Chiado","Lisboa","1200-205","https://www.hotelborges.com/","","Lisboa",PT,""
"Casa do Adro",3,37.7234842,-8.7823537,"Rua Diário de Notícias","","","https://www.casadoadro.com.pt/","+351 283 997 102","",PT,""
"Hotel da Montanha",4,39.9119118,-8.1302313,"","","","https://www.hoteldamontanha.com/","+351 236 480 000","",PT,""
"Clube do Lago Hotel Apartamento",3,38.7089522,-9.405563,"Avenida de Sabóia","","","","","",PT,""
"Quinta da Vila Francelina",3,40.6655659,-8.5501821,"","","","","","",PT,""
"Rossio Hotel",3,39.2952069,-7.4297875,"Rua 31 de Janeiro","Portalegre","7300-211","https://www.rossiohotel.com/","+351 245 082 218","Portalegre",PT,""
"SL Hotel Santa Luzia",3,38.8747131,-7.1644523,"","","","https://www.slhotel-elvas.pt/","+351268637470","",PT,""
"Bética Hotel Rural",3,38.0222078,-7.4807538,"Rua do Outeiro","Pias","7830-206","","","Pias",PT,""
"Residêncial D. Afonso V",3,41.5641389,-6.6196542,"Avenida do Sabor","Santulhão","5230","","","Santulhão",PT,""
"Aldeia do Pontido",3,41.5075484,-8.1567418,"","","","","","",PT,"Q112011251"
"Vila Mos",3,37.089238,-8.6867577,"","","","","","",PT,""
"Hotel Búzio",3,37.9566184,-8.8736233,"Avenida 25 de Abril","Sines","7520-107","http://www.hotelbuzio.com","+351 269 878 790","Sines",PT,""
"Quinta da Abelheira",3,37.7615797,-25.6345773,"","","","https://quintadaabelheira.com","","",PT,""
"Hotel Solar Do Conde",3,37.8300948,-25.6784764,"","","","","+351296298887","",PT,"Q111871438"
"Lux Mundi",3,39.6324589,-8.6794246,"","","","","","",PT,""
"Nossa Senhora de Lurdes",3,39.6322478,-8.6757357,"","","","","","",PT,""
"Hotel Pombeira",3,40.5665845,-7.2245189,"","","","","","",PT,""
"Palace Hotel de São Tiago",3,40.1614994,-7.1731459,"","Penamacor","6090-543","https://www.termasdesaotiago.com/","+351 277 390 070","Penamacor",PT,""
"Residencial Princesa do Gilao",3,37.1267672,-7.6475206,"","","","https://www.residencial-gilao.com/","+351 281 325171","",PT,""
"Dom Pedro Portobelo Aparthotel",3,37.074876,-8.116675,"","","","","","",PT,""
"Hotel Vila Galé Ampalius",3,37.073117,-8.117758,"","","","","","",PT,""
"Solar da Campina",3,37.1027709,-7.7193314,"EM 1342","Luz de Tavira","8800-107","","","Luz de Tavira",PT,""
"Hotel João Padeiro",3,40.6790583,-8.5940453,"","","","","","",PT,""
"Hotel do Mar",4,37.7460409,-25.2461568,"Rua Gonçalo Velho","Povoação","","https://www.hoteldomar.com/","+351 296 550 010","Povoação",PT,""
"Mercure Hotel",3,38.6708139,-9.1710393,"","","","","","",PT,""
"Villa Adele",3,37.1003071,-8.2714005,"Vila Adele Road","","","http://rentvillaadele.com/","","",PT,""
"Residencial João Capela",3,40.5916155,-8.6194047,"","","","","","",PT,""
"Quinta das Azenhas do Boco",3,40.5335833,-8.6618659,"","","","","","",PT,""
"Turim Restauradores Hotel",3,38.7160062,-9.143164,"Rua da Glória","Lisboa","1250-114","https://www.turim-hotels.com/hoteis/-110","+351 213 400 270","Lisboa",PT,""
"Residencial Pinheiro Manso",3,41.7305542,-8.6295033,"","","","www.pinheiromanso.com","","",PT,""
"Vila Foia",3,37.3073344,-8.5735762,"","","","https://vilafoia.pt","+351282910110","",PT,""
"Seminário Torre D' Aguilha - Hotel",3,38.7098158,-9.3339737,"","","","","","",PT,""
"Octant - Hotel Palácio da Lousã",4,40.1092599,-8.2465544,"","","","https://lousa.octanthotels.com/","","",PT,""
"Clube Varandas do Castelo",3,37.0784792,-8.2972485,"","","","","","",PT,""
"3HB Clube Humbria",3,37.0945933,-8.1895066,"Estrada de Albufeira","Albufeira","8200-609","https://3hb.com/home/3hb-clube-humbria/","+351 289 583 390","Albufeira",PT,""
"Hotel Soltroia Foz do Sado",3,38.4597209,-8.8571165,"","","","","","",PT,""
"Residencial Luz**",3,39.6039637,-8.4144674,"Rua Serpa Pinto","Tomar","2300-592","","","Tomar",PT,""
"Hotel Trovador**",3,39.5993845,-8.4118601,"","","","","","",PT,""
"Altis Grand Hotel",5,38.720849,-9.1500487,"Rua Castilho","Lisboa","1269-072","https://www.altishotels.com/PT/HotelAltisLisboa/Hotel/","+351 213 106 000","Lisboa",PT,""
"NH Campo Grande",4,38.748715,-9.14953,"","","","https://www.nh-hoteles.pt/","+351 21 791 7600","",PT,""
"Oceano",3,39.5991227,-9.0723011,"","","","","","",PT,""
"Regency Cliff",4,32.6352432,-16.94075,"Travessa Quinta da Calaça","","","https://www.regencycliff.com/","","",PT,"Q111408904"
"Aranguês",3,38.5268192,-8.8854665,"Rua José Pedro da Silva","Setúbal","2910-575","https://www.hotelarangues.com/","+351 265 525 171","Setúbal",PT,"Q111870891"
"Eden Resort",3,37.1021862,-8.2612252,"","Albufeira","8200-053","","","Albufeira",PT,""
"Janelas do Mar",3,37.098751,-8.2357543,"Rua da Correeira","","","https://www.janelasdomar.com/","","",PT,""
"Villa Duparchy",3,40.3889584,-8.3842848,"Rua José Duarte Figueiredo","Luso","","https://www.viladuparchy.com/","","Luso",PT,""
"Hotel Praia do Burgau",3,37.07279,-8.7725201,"","","","","","",PT,""
"Hotel Minho",4,41.9753646,-8.6839843,"EN 13 - Vila Meã","Vila Meã","4920-140","https://www.hotelminho.com/","+351 251700245","Vila Meã",PT,""
"Amazónia Lisboa Hotel",3,38.7229309,-9.1549267,"Travessa da Fábrica dos Pentes","Lisboa","1250-106","","+351 21 387 7006","Lisboa",PT,""
"Hotel e Restaurante Jardins da Ria",3,40.7186349,-8.7068571,"","","","","","",PT,""
"Hotel Calatrava",3,41.6972654,-8.8237547,"Rua Manuel Fiúza Júnior","Viana do Castelo","4900-458","","","Viana do Castelo",PT,""
"Hotel Duas Nações",2,38.7109451,-9.1375878,"Rua da Vitória","Lisboa","1100-618","","","Lisboa",PT,""
"Residência International",3,40.2085536,-8.4315682,"Avenida Emídio Navarro","Coimbra","3000-066","http://www.residencialinternacional.com/","","Coimbra",PT,""
"Hotel Guadiana",3,37.195453,-7.4148378,"Avenida da República","Vila Real de Santo António","8900","","","Vila Real de Santo António",PT,"Q96756358"
"Lisbon Art Stay",3,38.7117398,-9.1384443,"Rua Dos Sapateiros","Lisboa","1100-580","https://www.lisbonartstay.com/","","Lisboa",PT,""
"Curral de I Tiu Pino",3,41.385895,-6.4268207,"Rua da Frágua","Sendim","5225","","","Sendim",PT,""
"Pousada de Santa Marinha",3,41.4432797,-8.2765457,"","","","","","",PT,""
"Residencial Villa Marquez",3,37.1960775,-7.4157336,"Rua José Barão","Vila Real de Santo António","8900","","","Vila Real de Santo António",PT,""
"Stay Hotel Lisboa",2,38.7263295,-9.1409422,"Rua Gomes Freire","Lisboa","1150-180","https://www.princesahotel.pt/","","Lisboa",PT,""
"Albergaria Borges",3,41.7156149,-7.4878945,"Estrada Nacional 2","Chaves","5400-575","http://www.hotelalbergariaborges.com/","+351 276 351450","Chaves",PT,""
"Hotel Medieval",4,40.9894633,-7.3933796,"25 de Abril","Penedono","","","","Penedono",PT,""
"Villa Pampilhosa Hotel",3,40.0439916,-7.9468064,"Rua Arlindo de Almeida Esteves","Pampilhosa da Serra","3320-242","https://www.www.villapampilhosahotel.com/","+351 235 590 010","Pampilhosa da Serra",PT,""
"Hotel Santa Apolónia",3,41.7936133,-6.7710379,"Rua Madre Teresa de Calcutá","Bragança","5300-306","","+351 273 312 073","Bragança",PT,""
"Penha França Mar",3,32.6418158,-16.9183167,"Rua Carvalho Araújo","Funchal","9000-018","https://www.penhafrancahotels.com/","+351 291 204650","Funchal",PT,""
"Casa das Penhas Douradas",3,40.4082028,-7.5673595,"","","","","","",PT,""
"Ribeira do Porto Hotel",3,41.1406485,-8.6131638,"Praça da Ribeira","Porto","4050-513","www.ribeiradoportohotel.com","+351 222 032097","Porto",PT,""
"RiverSuites",3,40.2038133,-8.4334379,"Avenida João das Regras","Coimbra","3040-266","https://www.riversuites.pt/","+351 239 440 582","Coimbra",PT,""
"Hotel São José",3,39.6309488,-8.6790557,"","","","","","",PT,""
"Pousada de Cascais",3,38.6936812,-9.4192813,"Avenida Dom Carlos I","Cascais","2750-310","https://www.pestana.com/","+351 214 814 100","Cascais",PT,"Q111408593"
"Palace",3,41.3152652,-7.1737375,"","","","","","",PT,""
"Tic Tac",3,41.8071031,-6.7575474,"Rua Emídio Navarro","Bragança","5300-210","https://www.hoteltictac.pt/","+351 273 331 373","Bragança",PT,""
"Tulipa",3,41.8082019,-6.7580468,"Rua Dr. Francisco Felgueiras","Bragança","5300-134","www.tulipaturismo.com","+351273331675","Bragança",PT,""
"A Vileira",2,41.5834761,-6.5318057,"","","","","+351 273 518 200","",PT,""
"Alendouro",3,41.535664,-6.9582678,"Avenida D. Nuno Álvares Pereira","","5340-202 Macedo de Cavaleiros","http://www.hotelalendouro.com","+351278421236","",PT,""
"Residencial Gouveia",3,40.2129135,-8.4314006,"Rua João de Ruão","Coimbra","3000-229","https://www.residencialgouveia.com/","+351 239 829 793","Coimbra",PT,""
"Pensão Fim do Mundo",3,38.1813561,-8.5550506,"","","","","+351 269 442 061","",PT,""
"Residencial Marco de São Pedro",3,41.9837433,-8.6572011,"","","","","+351 251 839 327","",PT,""
"Residencial Minho",3,42.0283123,-8.6347635,"","","","","","",PT,""
"ValFlores",1,42.0262625,-8.6433426,"Avenida dos Bombeiros Voluntários","Valença","4930-593","https://www.hotelvalflores.com/","+351 251 824 106","Valença",PT,""
"Residencial D. Isabel",3,41.8443625,-8.4181483,"","","","","","",PT,""
"Hotel do Cais",3,41.6819047,-8.8078188,"","","","","","",PT,""
"Residencial São Martinho",3,41.5428673,-7.6026954,"","","","","","",PT,""
"Residencial Oásis",3,41.275843,-7.4754536,"","","","","","",PT,""
"Residencial Borges",3,41.4078854,-7.4232133,"","Ratiço","5090-143","https://www.residencialborges.pt/residencial","+351 259 511 302","Ratiço",PT,""
"Hotel Residencial Marés",3,37.1251028,-7.6463188,"","","","https://residencialmares.com/","+351 281 325 815","",PT,""
"Rural Senhora das Pereiras",3,41.5685781,-6.5332337,"","","","","","",PT,""
"Aguiar da Pena",3,41.499548,-7.6481319,"Rua Imperador Teodósio","","","","+351 259 417 510","",PT,""
"Residencial S. Miguel",3,41.5147711,-7.990844,"","","","","","",PT,""
"Quinta de Malta",3,41.6352769,-8.6659433,"","","","","","",PT,""
"Hotel Encostas de Nantes",3,41.7177794,-7.4536463,"Rua do Lombo","Chaves","5400-352","http://www.encostasdenantes.com/","+351 276 322033","Chaves",PT,""
"Vila D'Artes",3,41.9187612,-8.7671806,"","","","","","",PT,""
"Quinta do Pinheiro",3,39.5850491,-8.9917346,"","","","","","",PT,""
"Hotel Restaurante Valença do Minho",3,42.0202725,-8.6401384,"","","","","","",PT,""
"Residencial O Repouso do Peregrino",2,41.8886192,-8.6263812,"Estrada de São Pedro de Rubiães","","","","+351 251 943 692","",PT,""
"Residencial Marquês",3,41.7662026,-8.5999612,"","","","","","",PT,""
"SANA Silver Coast",4,39.4013175,-9.136372,"Av. D. Manuel Figueira da Câmara","Caldas da Rainha","2500-184","https://silvercoast.sanahotels.com/","+351 262 000 600","Caldas da Rainha",PT,"Q96756362"
"BRAGATRUTHOTEL**",3,41.5501572,-8.4238437,"","","","","","",PT,""
"Sunset Village",3,37.1079385,-8.3704808,"","","","","","",PT,""
"Moon & Sun Hotel",3,41.5518245,-8.4242648,"","","","","","",PT,"Q112011261"
"Padre Cruz",2,41.9807985,-8.6670522,"","EN13, Lugar do Monte, S. Pedro da Torre","4930-510 Valença","","+351 251 830 040","EN13, Lugar do Monte, S. Pedro da Torre",PT,""
"Residencia St. André",3,41.8297071,-8.4282591,"","","","","","",PT,""
"Sol Da Vila",3,37.7250579,-8.7809117,"Rua Custodio Bras Pacheco, 4","Vila Nova de Milfontes","7645-253","","+351962574157","Vila Nova de Milfontes",PT,""
"Pensão Universal",3,41.6678852,-8.3762989,"","","","","","",PT,""
"Pensão Residencial Ana Maria",3,41.668283,-8.3724314,"","","","","","",PT,""
"Peninsular",1,41.668254,-8.3725645,"","","","","","",PT,""
"Quinta da Granja",3,39.4734361,-8.9771001,"","","","","","",PT,""
"Hotel Solmar",2,38.601417,-28.0119432,"","","","","+351 295 416 120;+351 914 851 034","",PT,""
"Villas D. Dinis",3,37.0898034,-8.6719073,"","","","","","",PT,""
"Hotel O Gato",3,38.1705063,-8.147386,"Estrada Nacional 2","Odivelas","7900-371","","","Odivelas",PT,""
"Maçarico Beach Hotel",3,40.4546684,-8.802926,"Rua Raúl Brandão","Praia de Mira","3070-815","https://www.macaricobeachhotel.com/","+351 231 471 114","Praia de Mira",PT,""
"Estalagem Soeiro Meireles",3,41.1941967,-6.7359655,"","","","","+351 279 649 123","",PT,""
"Peregrinos de Fátima",3,39.6336399,-8.6822851,"Avenida Dom José Alves Correia da Silva","Fatima","2495","","","Fatima",PT,""
"Tempo FLH Hotels Lisboa",3,38.7122854,-9.1392595,"Rua Áurea","","","https://flh-hotels.com/tempo/contact/","+351 21 346 1250","",PT,""
"Orada Velha",3,37.5286754,-8.6838528,"","","","https://www.orada.eu/","","",PT,""
"Luz Serviços",3,37.0908418,-8.7272447,"Rua Direita","Luz","8600-160","https://www.luzholidays.com/","+351 282788522","Luz",PT,""
"Pensão União",3,39.6041803,-8.4135168,"","","","","","",PT,""
"Hotel Stay In Obidos",3,39.3739643,-9.1408773,"","","","","","",PT,""
"Olissippo Marquês de Sá",4,38.7365086,-9.1517327,"Avenida Miguel Bombarda","lisboa","1050-167","https://www.olissippohotels.com/pt/Hoteis/Marques-de-Sa/O-Hotel.aspx","+351 217 911 014","lisboa",PT,""
"Hospedaria Adorável Fortuna",3,41.8111444,-8.3505575,"","","","","+351 258 488 209","",PT,""
"Residencial Cavaleiros de Cristo***",3,39.6045986,-8.413041,"","","","","","",PT,""
"Residencial Sinagoga***",3,39.6045707,-8.4145932,"","","","","","",PT,""
"Residencial Bonjardim",3,39.607096,-8.407251,"","","","","","",PT,""
"Salácia",3,38.371157,-8.5067721,"","","","","","",PT,""
"Quinta da Foz",3,39.4347491,-9.2152656,"","","","","","",PT,""
"Vila Marita",2,41.4659169,-8.3247399,"","","","","","",PT,""
"Aqua Natura Madeira",4,32.8683986,-17.1711397,"","","","https://www.aquanaturahotels.com/pt/Aqua-Natura-Madeira","+351 291 640 100","",PT,"Q111408872"
"Casa dos Marrões",3,41.8990667,-6.840242,"","","","","","",PT,""
"Senhora da Guia",5,38.695884,-9.4562328,"Estrada do Guincho","Cascais","2750-642","http://www.senhoradaguia.com","+351 214 869 239","Cascais",PT,""
"Seif",3,37.0164345,-7.9350074,"","","","","","",PT,""
"Lx Rossio Hotel",3,38.7118189,-9.1378143,"Rua da Assunção","Lisboa","1100-044","https://www.lxrossiohotel.com/","","Lisboa",PT,""
"Sublime Comporta - Country House Retreat",3,38.2809944,-8.6986443,"","","","","","",PT,""
"Quinta das Rolas",3,40.2223752,-8.8359328,"","","","","","",PT,""
"Convento de Alpendurada",3,41.0816258,-8.2346781,"","","","","","",PT,""
"Axis Ponte de Lima Golf Resort Hotel",3,41.7501969,-8.5733712,"","","","","","",PT,""
"Residencial Avenida",3,39.598997,-8.4104196,"Avenida Dom Nuno Álvares Pereira","","","","","",PT,""
"Costa d'Oiro Ambiance Village",3,37.0891522,-8.6732498,"Rua da Costa D'Oiro","Lagos","8600-544","https://www.sonelhotels.com/de/index.php","","Lagos",PT,""
"Compostela",3,41.7836773,-8.8653167,"","","","","","",PT,""
"Mondim",3,41.4100073,-7.9527098,"","","","","","",PT,""
"Nascente do Ave",3,41.5726589,-8.1203652,"","Vieira do Minho","4850-317","https://www.hoteisnascentedoave.pt/","+351 253 752 030","Vieira do Minho",PT,""
"Smart Hotel",2,38.7052882,-9.3921931,"","","","","+351 214682164","",PT,""
"Pensão Nova Era",3,40.964981,-7.2616739,"","","","","","",PT,""
"Hotel Novo Dia",1,40.9697736,-7.2610487,"Avenida Gago Coutinho e Sacadura Cabral","Mêda","","","","Mêda",PT,""
"Residencial Estrela do Norte",3,41.3388326,-6.7081802,"Avenida de Espanha","Mogadouro","5200 - 203","http://restreladonorte.blogspot.com/","+351 279 340 050","Mogadouro",PT,""
"Quinta da Terrincha",3,41.2390298,-7.0847196,"","","","","","",PT,""
"Hotel Póvoa D'Além Sabor",3,41.308758,-7.1605385,"Rua de Timor Leste","","5360-364 Vila Flor","https://www.hotelpovoalemsabor.com/","+351 278 511 089","",PT,""
"Casa Dona Maria Luisa",3,41.1742725,-7.0509628,"","","","","","",PT,""
"Residencial Imperial",3,37.1255271,-7.6485969,"","","","","","",PT,""
"Café Restaurante Hospedaria ""O Machado""",3,41.5424855,-7.6042546,"","","","","","",PT,""
"Residencial Fatibel",3,41.0898698,-6.8089162,"","","","","","",PT,""
"Grande Hotel da Bela Vista",3,41.6671321,-8.3690339,"Rua da Bela Vista","Caldelas","4720-263","http://www.hotelbelavista.com/","+351 253 360100","Caldelas",PT,""
"Albergaria Caldelas",3,41.6687881,-8.3691866,"","","","","","",PT,""
"Pensão Alentejo",3,38.5706448,-7.9132593,"Rua de Serpa Pinto","Évora","7000-537","","+351 266 702 903","Évora",PT,""
"Mira-Tua",3,41.486034,-7.1831614,"","","","","","",PT,""
"A Serenada Enoturismo",3,38.1982072,-8.656977,"","","","https://www.serenada.pt/","+351269498014","",PT,""
"Hotel Vale do Telha",3,37.3031689,-8.8495289,"Apartado","","","https://www.valetelha.pt/","+351 96 2978109","",PT,""
"Apartmento A Floresta do José",3,37.0734552,-8.0492422,"Encosta do Lobo","","","https://apartamentosfloresta.com/","+351 289 394 588","",PT,""
"Água Hotels Riverside",3,37.1412462,-8.5164273,"Quinta das Marinhas do Parchal","","","http://www.riverside.aguahotels.pt/","+351 282 490 300","",PT,""
"Baia da Luz",3,37.0900715,-8.7254813,"Rua Alfredo Nascimento Batista","Lagos","8600-160","https://www.baiadaluz.com/","+351 282 790 882","Lagos",PT,""
"Casa da Alta",3,40.2129474,-8.4214302,"Rua António José de Almeida","","","","","",PT,""
"Residencial Mar dos Açores",3,38.7271781,-9.1424044,"","","","","","",PT,""
"Pensão Russo",3,41.3420668,-6.7145924,"","","","","+351 279 342 134","",PT,""
"Hotel Dom Vilas",3,41.5426587,-8.4237013,"","","","","","",PT,"Q112011255"
"Casas da Moagem - Turismo Rural",3,37.9300163,-8.537963,"Rua 1.º de Maio","São Domingos","7540-415","https://www.casasdamoagem.pt/","+351 932 581 058","São Domingos",PT,""
"Quinta da Mouta",3,41.6206412,-8.1314909,"","","","","","",PT,""
"Residencial Panorama",3,41.5777858,-6.9468422,"","","","","","",PT,""
"Residencial Marisol",3,41.5493224,-6.9532286,"Bairro da Suécia","","","http://facebook.com/marisol.restauranteeresidencial","+351 278 422 214","",PT,""
"Residencial Zé Luis",3,41.7067746,-7.4976121,"","","","","","",PT,""
"Hotel Arcada",3,40.3062882,-8.7561768,"","","","","","",PT,""
"Residencial S. Gião",3,42.0263819,-8.6428632,"","","","","","",PT,""
"Teima SW",3,37.4726899,-8.7263984,"","","","","","",PT,""
"Gat Rossio Hotel",3,38.7153832,-9.1404952,"Rua do Jardim do Regedor","Lisboa","1150-193","https://hotelgatrossio.com/","+351 213 478 300","Lisboa",PT,""
"Valverde Lisboa Hotel",3,38.7197361,-9.1444859,"","","","","","",PT,""
"Residencial Miradouro",3,41.4034845,-7.4787019,"","Murça","5090","","","Murça",PT,""
"Hotel Pelicano",3,40.3925632,-6.9283893,"","","","","","",PT,""
"Rio Beça",3,41.6815503,-7.7018666,"","","","","","",PT,""
"Okupa Lisboa",3,38.7208505,-9.1243968,"Rua Bartolomeu da Costa","Lisboa","","","","Lisboa",PT,""
"Hotel Paiva",3,37.1818507,-7.4514637,"Avenida da Catalunha","Monte Gordo","8900-400","","","Monte Gordo",PT,""
"Browns Boutique Hotel & Apartements",3,38.7109181,-9.138335,"Rua da Vitória","Lisboa","1100-619","","","Lisboa",PT,""
"Residencial Solar do Pessegueiro",3,41.7328173,-8.6379554,"","","","","","",PT,""
"Grande Pensão Alcobia Residencial",3,38.7140244,-9.1366,"Poço do Borratem","Lisboa","1100-408","https://www.grandepensaoalcobia.pt/","","Lisboa",PT,""
"A Maré",3,37.0664621,-8.8248469,"","","","","","",PT,""
"Pousada do Sossego",3,41.9942321,-8.5007959,"","","","","","",PT,""
"Minho Belo",2,41.9475085,-8.739722,"","","","","","",PT,""
"Dunas Douradas",3,37.0449176,-8.0535508,"","","","","","",PT,"Q111871359"
"Sportfish.pt",3,38.5192444,-28.3128561,"Rua do Laranjal","São Roque do Pico","9940-308","http://sportfish.pt/","+351 914 20 15 64","São Roque do Pico",PT,""
"Muchacho",3,41.5371201,-6.9632419,"Rua Pereira Charula","Macedo de Cavaleiros","5340-278","","","Macedo de Cavaleiros",PT,""
"Peneda Hotel",3,41.9739029,-8.2236787,"","Gavieira","4970-150","https://www.penedahotel.pt/","+351 251 460 040","Gavieira",PT,""
"Residencial Santos",3,41.6900707,-8.8341565,"","","","","+351 258 820 749","",PT,""
"Rossio Garden Hotel",3,38.7156281,-9.140487,"","","","","","",PT,""
"Residencial Dom Manuel",3,41.4539198,-8.170837,"","","","","","",PT,""
"Jeronimos 8",4,38.6987813,-9.2049927,"Rua dos Jerónimos","Lisboa","1400-211","http://www.jeronimos8.com/","","Lisboa",PT,""
"Residencial Costa Verde",3,41.9680211,-8.7086105,"","","","","","",PT,""
"Hotel do Cerrado",3,41.1002283,-7.8069489,"","","","","","",PT,""
"Albergaria do Calvário",4,38.5747208,-7.9139596,"Travessa dos Lagares","Évora","7000-565","https://adcevora.com/pt/","+351 266 745 930","Évora",PT,"Q111408612"
"Mirachoro III Apartamentos Rocha",3,37.1278968,-8.5452355,"Rua dos Poetas Populares","Portimao","","","","Portimao",PT,""
"Alojamento Bela Vista",3,38.3959413,-28.2529925,"","","","","","",PT,""
"Quinta de Casaldronho Wine Hotel",3,41.1443584,-7.7549431,"","","","","","",PT,""
"Hotel Quinta dos Cedros",3,40.6271077,-7.401151,"","","","https://tavferhoteis.pt/quinta-dos-cedros/","","",PT,""
"Hotel Santiago",3,41.118961,-8.542994,"","","","","","",PT,""
"CZAR Lisbon Hotel",4,38.7293464,-9.1348252,"Avenida Almirante Reis","Lisboa","1150-020","https://www.czarlisbonhotel.com/","+351 211115200","Lisboa",PT,""
"Grand Muthu Oura View Beach Club",3,37.0876346,-8.2273063,"Rua Ramalho Ortigão","","","https://www.muthuhotelsmgm.com/grand-muthu-oura-view-beach-club.html","+351 289 598 200","",PT,""
"Universal Boutique Hotel",3,40.1508134,-8.8654553,"Rua Miguel Bombarda","Figueira da Foz","3080-995","https://universalboutiquehotel.pt/universal-boutique-hotel","+351 233 090 110","Figueira da Foz",PT,""
"Hotel Santo André",4,41.4158124,-8.7857587,"","","","","","",PT,""
"Alecrim",3,39.6294688,-8.6710144,"","","","","","",PT,""
"Santo António de Padua",2,39.6277574,-8.6676047,"","","","","","",PT,""
"Nossa Senhora da Paz",2,39.6278586,-8.667757,"","","","","","",PT,""
"Hotel Alcatruz",3,37.370012,-8.7998326,"Rua de Camarate","Rogil","8670-440","https://www.hotelalcatruz.com/","+351 282 998 203","Rogil",PT,"Q111871249"
"Coral do Vau",3,37.1207526,-8.5578256,"Praia do Vau","Portimão","8500-820","http://coraldovau.com/","","Portimão",PT,""
"Paris",3,39.911337,-8.2719876,"","","","","+351 236552503","",PT,""
"Promar",3,39.1773689,-9.3558564,"Rua Duque de Wellington","Porto Novo","","http://www.feriaspromar.com.pt","+351 261 984 195","Porto Novo",PT,""
"Well Hotel & Spa",2,39.1774055,-9.3552821,"Rua Duque de Wellington","Porto Novo","2560-100","","","Porto Novo",PT,""
"Hotel Alcaide",2,37.1228578,-8.5575749,"Avenida João Paulo II","Portimão","8500-820","https://www.hotelalcaide.com/","","Portimão",PT,""
"Casa do Adro Hotel",3,39.6955469,-8.2894311,"Rua Dr. António Baião","Ferreira do Zêzere","2240-347","https://www.casadoadrohotel.com/","+351 961 501 482","Ferreira do Zêzere",PT,""
"Santhyago",3,41.317982,-8.5747147,"","","","","","",PT,""
"Hotel Paulo VI **",3,39.3378199,-8.9358091,"Avenida Paulo VI","Rio Maior","2040-325","www.hotelpaulovi.pt","+351 243 909 470","Rio Maior",PT,""
"Hotel Matriz",3,37.7404067,-25.670586,"","","","","","",PT,"Q111871449"
"Villa da Madalena",3,38.531758,-28.526819,"Rua 8 de Março","Madalena","9950-363","https://www.villadamadalena.com","+351 292 622 249","Madalena",PT,""
"Hotel Kátia",3,41.7381313,-7.4694989,"Rua do Sol","Chaves","5400-517","","+351 276 324446","Chaves",PT,""
"Albergaria Belavista",3,41.5166151,-7.8027699,"","","","","","",PT,""
"Herdade da Matinha",3,37.8040831,-8.7161782,"","","","https://www.herdadedamatinha.com/","","",PT,""
"Hotel Parque Serra da Lousã",3,40.0841948,-8.3351769,"Quinta da Paiva","Miranda do Corvo","3220-154","","+351 239 091 165","Miranda do Corvo",PT,""
"Abrigo da Montanha",3,37.3104571,-8.5698229,"Estrada da Fóia","Monchique","8550-257","","+351 282 912 131","Monchique",PT,""
"Pensão Residencial Antunes",3,40.2074277,-8.4205567,"Rua Castro Matoso","Coimbra","","https://www.residencialantunes.com/","+351 239 854 720","Coimbra",PT,""
"São Cristóvão",3,41.6732479,-7.9494768,"Rua da Seara Velha","","5470-504","https://www.s-cristovaonaturecountryhotel.com","+351 253 659 387","",PT,""
"Residencial Gregório",3,41.6059699,-7.3101374,"","","","","","",PT,""
"Estrela de Arganil",2,38.7294276,-9.1344231,"Avenida Almirante Reis","Lisboa","1150-020","","+351 218 123 259","Lisboa",PT,""
"Pouso dos Anjos",3,38.7236765,-9.1358861,"Rua dos Anjos","Lisbõa","1150-034","https://pousodosanjos.com/frames/anjos/photos-en.html","","Lisbõa",PT,""
"Hotel Santa Comba",3,38.1426081,-7.4513956,"","","","","","",PT,""
"Hotel Passagem do Sol",3,38.1379407,-7.4466019,"Rua Engenheiro Armando Almeida Manso","Moura","7860-004","","","Moura",PT,"Q112011166"
"Hotel de Moura",3,38.1400007,-7.4482086,"Praça Gago Coutinho","Moura","7860-010","https://www.hoteldemoura.com","","Moura",PT,"Q111113931"
"Residencial A Italiana",3,38.1370768,-7.4467656,"Rua da Vitória","Moura","7860","","","Moura",PT,""
"D. João IV",3,41.4357455,-8.2953999,"","","","","","",PT,""
"York House Hotel",4,38.7062318,-9.1590408,"Rua das Janelas Verdes","Lisboa","1200-691","","","Lisboa",PT,""
"Quinta do Arco",4,32.824519,-16.9529392,"","","","https://www.pestana.com/en/hotel/quinta-arco","+351 291 570 250","",PT,""
"Hotel Vice Rei",3,41.1554701,-8.62765,"Rua de Júlio Dinis","Porto","4050-326","https://www.hotelvicerei.com/","+351 225 430120","Porto",PT,""
"Orquídea",3,32.6515498,-16.9096058,"","","","","","",PT,"Q111871411"
"Lisbon Arsenal Suites",3,38.70763,-9.1401752,"Rua do Arsenal","","","https://www.lisbonarsenalsuites.com","+351211328845","",PT,""
"Quinta de Santa Bárbara",3,39.4896713,-8.325134,"Estrada da Quinta de Santa Bárbara","Constância","2250-092","https://www.quinta-santabarbara.com/","+351249739214","Constância",PT,""
"Boavista 2",3,42.105243,-8.2870764,"","","","","","",PT,""
"Casa d'Aldeia",3,39.7398015,-7.2967131,"","","","","","",PT,""
"Albufeira Lounge KR Hotels",3,37.0884672,-8.2342245,"","","","https://hotelalbufeiralounge.top/","+351289586232","",PT,""
"The Hostel of Alcobaça - B&B",3,39.5467728,-8.9835184,"Rua Bernardino Lopes de Oliveira","Alcobaça","2460-026","","","Alcobaça",PT,"Q111114079"
"A Brasileira - Pestana Hotel",5,41.1469227,-8.6093321,"Rua de Sá da Bandeira","Porto","4000-427","","","Porto",PT,""
"Pensão Residencial Rio Homem",3,41.7185624,-8.307381,"Avenida Doutor Paulo Marcelino","Terras de Bouro","4840-100","","","Terras de Bouro",PT,""
"Residencial A Princesa Do Ave",3,41.3549423,-8.7486176,"R. Dr. António José Sousa Pereira","","","","","",PT,""
"Quinta do Burgo",3,41.6166084,-8.3517129,"Rua do Burgo","","","https://www.quintadoburgo.com/","+351 253 992 749","",PT,""
"Casa de São Mamede",3,38.7183528,-9.1526811,"Rua da Escola Politécnica","Lisboa","1250-100","","","Lisboa",PT,""
"Tempus Hotel & Spa",4,41.7949362,-8.4342038,"Rua de Oleiros","Oleiros","4980-521","","","Oleiros",PT,""
"Hotel Santa Catarina",3,37.118404,-8.5339086,"Avenida Tomas Cabreira","Portimão","8500-802","http://www.ftphotels.com","+351 282 405 040","Portimão",PT,""
"Hotel Magic",3,39.601567,-9.0714078,"Rua Mouzinho de Albuquerque","Nazaré","2450-253","","","Nazaré",PT,""
"Hotel Maré",3,39.6017247,-9.0723917,"Rua Mouzinho de Albuquerque","Nazaré","2450-901","","","Nazaré",PT,""
"Hotel Ribamar",1,39.6014104,-9.073712,"Rua Gomes Freire","Nazaré","2450-222","","","Nazaré",PT,""
"Hotel Âncora Mar",2,39.5995213,-9.0704099,"Rua Sub-Vila","","","","","",PT,""
"Fontecruz Lisboa",5,38.7191427,-9.1440108,"Avenida da Liberdade","Lisboa","1250-147","https://www.fontecruzhoteles.com/hotel-fontecruz-lisboa/","+351 21 041 0000","Lisboa",PT,""
"Casa del Limonero",3,38.7179233,-9.1394856,"Travessa do Adro","","","https://airbnb.com/","","",PT,""
"Pensão Gladius",3,39.6580706,-8.825137,"Praça Mouzinho de Albuquerque","","","","+351 919 103 044","",PT,""
"Surfinn",3,39.4368684,-9.2133797,"","","","http://www.surfinn.travel/surfcamps/portugal/foz","","",PT,""
"Casa das Obras",3,40.4028081,-7.5388968,"","","","http://www.cadadasobras.pt","","",PT,"Q66814006"
"Apartamentos Turisticos Tonel",3,37.0090096,-8.945973,"","","","https://www.tonel-apartments.com/","","",PT,""
"InSuites Chiado Apartments II",3,38.7116824,-9.1427604,"Rua da Misericórdia","Lisboa","1200-273","https://www.insuites.pt/","+351 213 240920","Lisboa",PT,""
"InSuites Chiado Apartments",3,38.7103762,-9.1393492,"Rua Nova do Almada","Lisboa","1200-290","https://www.insuites.pt/","+351 213 240920","Lisboa",PT,""
"InSuites Chiado Apartments 100",3,38.7114368,-9.1397125,"Rua do Carmo","Lisboa","1200-093","https://www.insuites.pt/","+351 213 240920","Lisboa",PT,""
"Hotel Monte Rio",3,40.7403265,-8.0842253,"","","","","","",PT,""
"Pensão das Termas",3,40.7391552,-8.0933205,"","","","","","",PT,""
"Hotel Lisboa",4,38.7222411,-9.1463048,"Rua Barata Salgueiro","Lisboa","1169-066","https://www.hotellisboa.com.pt/","+351 213 500 000;+351 213 500 005","Lisboa",PT,""
"Hotel Casa-Amarela",3,37.7270799,-8.7815331,"Rua don Luís de Castro e Almeida","Vila Nova de Milfontes","7645-317","http://www.casaamarelamilfontes.com","+351 934 204 610","Vila Nova de Milfontes",PT,""
"Hotel Albergueria",3,41.8131044,-8.8638387,"","","","","","",PT,""
"Residencial Fortunato",3,38.9611426,-9.4157888,"","","","","","",PT,""
"Blue ocean guest house",3,38.970551,-9.4141037,"Travessa Frei Fernão Rodrigues Monteiro","","","","","",PT,""
"Costa Verde",2,41.3868995,-8.7694901,"Avenida Vasco da Gama","","4490-410","https://www.hotelcostaverde.pt/","+351 252 298 600","",PT,""
"Memmo Alfama",3,38.710276,-9.1304635,"","","","","","",PT,""
"Santa Mafalda",3,39.6339479,-8.6822374,"","","","","","",PT,""
"residencia doña amelia",3,39.628682,-8.6650057,"","","","","","",PT,""
"Terrace Serra",3,40.2346956,-7.4987278,"","","","","","",PT,""
"Hotel Dom Afonso Henriques",2,38.737152,-9.1283248,"Rua Cristovão Falcão","Lisboa","1900-172","https://www.hoteldah.com/","+351 218 117 010","Lisboa",PT,""
"Cidade Velha",3,37.1011551,-8.6723852,"Rua Doutor Joaquim Tello","","","","+351 282 762041","",PT,""
"Airbnb - José",3,38.7156084,-9.137796,"Rua do Arco da Graça","","1150-049","","+3516365765","",PT,""
"Miradouro Vintage Hotel",3,41.1557638,-8.602316,"Rua da Alegria","Porto","4000-037","","+351 225370717","Porto",PT,""
"Hotel do Príncipe Real",4,38.7173026,-9.1474133,"Santo António","Lisboa","1250-006","https://www.belverhotels.com/hotel-principe-real.html","+351 213 407 350","Lisboa",PT,""
"SANA Rex Hotel",3,38.7274598,-9.1559097,"Rua Castilho","Lisboa","1070-051","","","Lisboa",PT,""
"Otium Country House",3,39.9820815,-8.4764252,"Quinta do Sobral, Sobral","Alvorge","3240-417","https://otiumcountryhouse.com/","+351 963 790 040;+351 914 784 547","Alvorge",PT,""
"OTIUM Country House",3,39.9800108,-8.4744822,"Quinta do Sobral","Alvorge","3240-417","https://otiumcountryhouse.com/","+351 963 790 040; +351 914 784 547","Alvorge",PT,""
"Casa ValXisto - Quintandona",3,41.1355313,-8.3782231,"","","","","","",PT,""
"Residencia Silva",3,39.6298642,-8.6708544,"Rua Santa Isabel","","2495","","+351 919 552 515","",PT,""
"Pensão Nova Goa",3,38.7143723,-9.1364989,"Rua do Arco do Marquês de Alegrete","","1100-034","https://www.pensaonovagoa.pt/pt","+351 218 881 137","",PT,""
"browns central",3,38.7113154,-9.1382983,"","","","","","",PT,""
"Sunlight House",3,37.0131201,-7.931769,"Rua Doutor Francisco Lázaro Cortes","Faro","8000-142","https://www.sunlighthouse.pt","","Faro",PT,""
"Kanalu Lifestyle House",3,37.3182582,-8.8634955,"Vale de Telha","","8670-156","https://www.kanalusurfhouse.com/","+351922284414","",PT,""
"Cada da Mata",3,38.6274889,-9.217572,"Rua 6","","2825-412","","+351915415086","",PT,""
"Casablanca da Anita",3,37.00886,-8.9373375,"","","6850-350","","+351918855167","",PT,""
"São Filipe",3,37.0191711,-7.9374863,"Rua Infante Dom Henrique","","8000-363","https://www.guesthouse-saofilipe.com/","+351 289 824 182","",PT,""
"Monte dos Avos",3,37.2040416,-7.9902389,"","","","","","",PT,""
"Hotel Costa Verde",2,41.3866849,-8.76964,"Avenida Vasco da Gama","","4490-410","https://www.hotelcostaverde.pt/","+351 252 298 600","",PT,""
"Chalet Saudade",3,38.7993804,-9.3867173,"","","","","","",PT,""
"Lisbon Serviced Appartments",3,38.7116084,-9.1385632,"","","","","","",PT,""
"Quinta Vale Porchacho",3,40.398366,-7.9693176,"","","","","","",PT,""
"Montemar",3,37.0950656,-8.6745036,"","","","","","",PT,""
"hotel santo condestavel",3,39.6285767,-8.665011,"","","","","","",PT,""
"Hotel Sever",3,39.3817152,-7.3829787,"","Portagem","","","+351 919 261 000","Portagem",PT,""
"Quinta dos Amarelos ",3,38.4586928,-9.1697257,"","","","","","",PT,""
"alvor",3,38.7920242,-9.3499965,"","","","","","",PT,""
"Uva do Monte - Blueberry Farm",3,38.1817751,-8.7596194,"","","","","","",PT,""
"Casa do Visconde de Chanceleiros",3,41.1727489,-7.5778281,"Largo da Fonte","","5085","https://www.chanceleiros.com/","+351 254 730 190","",PT,""
"Ermida dos Remedios",2,38.7600717,-27.0967167,"","","","residenciaremedios.planetaclix.pt","+351 963047208","",PT,""
"Villa bonita",3,37.0879947,-8.2770051,"","","","","","",PT,""
"Landroal Residencial",3,38.7028048,-7.4037545,"Rua Doutor António José de Almeida","","","http://www.landroalresidencial.com","","",PT,""
"SANA Executive Hotel",3,38.7369399,-9.150453,"Avenida Conde Valbom","Lisboa","1050-069","https://executive.sanahotels.com/","+351 217 951 157","Lisboa",PT,""
"Quinta Das Andorinhas",3,37.2143315,-8.8160218,"","","","","","",PT,""
"Hjem",3,38.6999705,-9.2769243,"Avenida Gomes Freire 3, Caxias","","","","","",PT,""
"Hotel Parque das Larangeiras",3,37.1161323,-8.1179416,"","","","","","",PT,""
"eco Salvador",3,41.6789759,-8.1746389,"","","","","","",PT,""
"Villa Alice",3,37.125457,-8.302294,"","","","","","",PT,""
"Hotel Penisular",3,39.8500283,-8.8661055,"Rua 28 de Maio","","","","","",PT,""
"Rio Moment's",3,41.0278582,-8.239952,"","","","","","",PT,""
"Pensão Alergre",2,39.849281,-8.8651859,"Rua 28 de Maio","","","","","",PT,""
"Casa Marta (Airbnb)",3,38.7185865,-9.1304069,"Travessa do Monte","","","","","",PT,""
"Hotel Brazão",4,41.3530465,-8.7433221,"Avenida Doutor João Canavarro","Vila do Conde","4480-688","","","Vila do Conde",PT,""
"Casa de Cadela",3,37.1782705,-7.5471203,"","","","","","",PT,""
"Vila Branca Apartments",3,37.0916298,-8.6786501,"","","","","","",PT,""
"Casa Brybeg",3,37.0930551,-8.7702994,"","","","","","",PT,""
"H10 Duque de Loulé",4,38.7263694,-9.1470521,"Avenida Duque de Loulé","Lisboa","1050-088","https://www.h10hotels.com/pt/hoteis-lisboa/h10-duque-de-loule","+351 213 182 000","Lisboa",PT,""
"Quintinha Village",3,37.1047296,-8.3891925,"","","","","","",PT,""
"La Quinta da Ponte",3,41.03077,-6.9415063,"","","","","","",PT,""
"Residencial Satélite",3,41.5341273,-8.4403728,"","","","","","",PT,""
"Residencial Vila Nova",3,38.7257776,-9.1478435,"Avenida Duque de Loulé","","","https://www.residencialvilanova.com","","",PT,""
"The Views Oásis",3,32.6462392,-16.8255647,"","","","https://www.theviewshotels.pt/en/oasis/","","",PT,""
"A Ponte",3,41.7053735,-8.792473,"Rua do Poço Pescadouro","Viana do Castelo (Santa Maria Maior e Monserrate) e Meadela","4900","","","Viana do Castelo (Santa Maria Maior e Monserrate) e Meadela",PT,""
"O Rústico",3,37.0977402,-8.4197276,"","","","","","",PT,""
"Paisagem do Guadiana",3,37.375941,-7.4406992,"","","","https://www.paisagemdoguadiana.com/","","",PT,""
"Vicentina Hotel",3,37.3176085,-8.7985231,"Avenida General Humberto Delgado","Aljezur","8670-001","","","Aljezur",PT,""
"Filhas do Mar apartments",3,37.0667673,-8.8256161,"Vale da Casa","","","","","",PT,""
"Porto Suites de Marquês",3,41.1600984,-8.6056185,"Rua do Bonjardim","Porto","4000-133","","","Porto",PT,""
"Portas do Teatro apartmentos",3,38.7108619,-9.1325336,"Rua da Saudade","","","","","",PT,""
"A Quinta",3,38.6659815,-28.167968,"","","","","","",PT,""
"room & go",3,37.7439332,-25.6637145,"Rua da Mãe de Deus","Ponta Delgada","9500-321","https://roomgolince.com/","+351 961 091 378","Ponta Delgada",PT,""
"Pico da Saudade",3,38.4692354,-28.2029794,"","Prainha de Baixo","9940-041","","","Prainha de Baixo",PT,"Q112010600"
"Residencial Damas",3,39.1426268,-8.9007604,"","","","","","",PT,""
"Café Bar A Lareira;Pensão Residencial A Lareira",3,39.1393583,-8.8995686,"","","","","","",PT,""
"Pensão Residencial A Lareira",3,39.1394257,-8.8995893,"","","","","","",PT,""
"Neya Lisboa Hotel",4,38.7293791,-9.1405705,"Rua de Dona Estefânia","Lisboa","1150-132","https://www.neyahotels.com/","+351 213 101 800","Lisboa",PT,""
"Moinho das Marés",3,37.0585987,-7.7483791,"Rua da Liberdade","Moncarapacho e Fuseta","8700-019","https://www.booking.com/hotel/pt/moinhos-das-mares.de.html","","Moncarapacho e Fuseta",PT,""
"Hotel Quinta do Pico",3,41.69582,-8.41024,"","Lugar de Carreira","","http://www.hotelquintadopico.com","+351 253 322 770","Lugar de Carreira",PT,""
"Hotel Altis Avenida",5,38.7149445,-9.1407529,"Rua 1º de Dezembro","Lisboa","1200-360","https://www.altishotels.com/EN/HotelAltisAvenida/","+351 210 440 000","Lisboa",PT,""
"Paço da Glória",3,41.801595,-8.5085735,"","","","","","",PT,""
"Hotel Casa Palmela",3,38.5225023,-8.9454592,"","","","https://hotelcasapalmela.pt/","+351 969 298 381;+351 265 249 650","",PT,""
"Garden Rooftop",3,38.7139907,-9.1344944,"","","","","","",PT,""
"Casa de Serpa",3,37.9415391,-7.5957285,"","","","","","",PT,"Q112011193"
"Vida Pura",3,37.4193088,-8.7469339,"","","","https://www.vida-pura.com/","","",PT,""
"Ohmm.",3,38.7101406,-9.1292882,"Largo do Terreiro de Trigo","Lisboa","","https://www.ohmm.pt/","+351 918 851 770; +351 918 851 778","Lisboa",PT,""
"Pestana CR7 Hotel",3,38.7091425,-9.13605,"Rua do Comércio","Lisboa","1100-150","https://www.pestanacr7.com/","+351 210 401 710","Lisboa",PT,""
"Santo Thyrso Hotel",3,41.3404548,-8.4764712,"Praça Conde São Bento","Santo Tirso","4780-375","https://santothyrsohotel.com/","+351 252 830 420","Santo Tirso",PT,""
"Pinheiro",3,41.3180679,-8.5745909,"","","","","","",PT,""
"America Diamonds Hotel",3,38.7307668,-9.1470302,"Rua Tomás Ribeiro","Lisboa","1050-226","https://www.americadiamondshotel.com/","+351 213 521 177","Lisboa",PT,""
"Lisbon São Bento",3,38.7188733,-9.1556949,"","","","","","",PT,""
"Hotel Botânico",3,38.717293,-9.1468558,"Rua da Mãe d'Água","Lisboa","1250-156","https://hotelbotanico.pt","","Lisboa",PT,""
"Hotel Boa Vista",3,39.9978168,-6.879805,"","","","","","",PT,""
"Discover Lisbon",3,38.7177522,-9.1443816,"Praça da Alegria","Lisboa","1250","","","Lisboa",PT,""
"The 7 hotel",3,38.7104741,-9.1386514,"Rua Áurea","Lisboa","1100-060","","","Lisboa",PT,""
"Windsor",3,32.6506517,-16.905848,"Rua das Hortas","Funchal","9050-024","","","Funchal",PT,"Q111871408"
"Mi Casa En Lisboa",3,38.7181138,-9.1321312,"Calcada Do Monte","","1100-362","http://micasaenlisboa.com","+351919090595","",PT,""
"Hotel Florescente",3,38.7163703,-9.1407846,"Rua das Portas de Santo Antão","Lisboa","","https://www.hotelflorescente.com/","","Lisboa",PT,""
"Casa da Padeira",3,39.5681632,-8.9256864,"","","","http://www.casadapadeira.com/","+351 262 505 240","",PT,""
"Apts Elma",3,37.0863334,-8.2354867,"Rua Columbano Bordalo Pinheiro","Albufeira","","http://www.aptselma.com/","","Albufeira",PT,""
"Villa Extramuros",3,38.7081078,-7.9858634,"Horta do Chaveiro, Arraiolos","","","","","",PT,""
"Residencial Titel Raquel",3,37.2483869,-8.2849011,"","","","","","",PT,""
"St. Condestável",3,38.4435553,-7.3804144,"","","","","","",PT,""
"Casa Dona Antónia",3,38.4437833,-7.3804408,"Largo D. Nuno Álvares Pereira","","","https://www.casadantonia-monsaraz.com/","+351961544559","",PT,""
"Cerro da Marina",3,37.0874139,-8.2610554,"Rua do Cerro Grande","","","","","",PT,""
"Palácio de São João",3,38.7224134,-9.14469,"Travessa do Loureiro","Lisboa","","","","Lisboa",PT,""
"Mont'Sobro House",3,38.5712559,-7.9080718,"Rua de Diogo Cão","Évora","7000-872","http://www.montsobro.com/house.html","","Évora",PT,""
"Club Med da Balaia",3,37.0906647,-8.2033523,"","","","","+351 289 510500","",PT,""
"Apartamentos da Galé",3,37.7158585,-25.510737,"Rua Dos Ferreiros","","","","","",PT,""
"Quinta do Bento",3,41.6470884,-8.1878231,"Rua de Entre as Quintas","Vieira do Minho","4850-382","","","Vieira do Minho",PT,""
"Aldeamento Pedras da Rainha",3,37.1389431,-7.6019151,"","","","","","",PT,""
"Pousada Castelo de Alvito",3,38.2578758,-7.9920057,"Largo do Castelo","Alvito","7920-099","","+351 284 480 700","Alvito",PT,""
"Nomade Auberge rural",3,38.1690277,-8.6909834,"Cerca do barranco s/n, Valinho da Estrada","Melides","7570-512","https://www.nomadeauberge.com/","+351 269 979 060","Melides",PT,""
"Feel Lisbon B&B",3,38.7117972,-9.1378062,"Rua da Assunção","Lisboa","1100-044","http://www.feellisbonbandb.com","","Lisboa",PT,""
"Hotelbeds",3,38.6833027,-9.3424078,"Rua de Gaza","Carcavelos","","","","Carcavelos",PT,""
"Hotel Gaivoto",3,37.7401464,-25.6642064,"","","","","","",PT,""
"SkylineVilla",3,38.5772078,-9.1191497,"Rua G","","","","","",PT,""
"top of the castle hill",3,38.7139968,-9.1345983,"Costa do Castelo","","1100","","+351 916 094 494","",PT,""
"Hotel Santa Isabel",3,39.6321406,-8.6764701,"Rua de São José","Fatima","2495-434","","","Fatima",PT,""
"Ouro",3,39.0655761,-8.8762432,"","","","","","",PT,""
"Vale do Rio Hotel Rural",3,40.8080886,-8.4494033,"","","","","","",PT,""
"Monte Oliva",3,37.1468315,-7.7029999,"","","","","","",PT,""
"Casa Flor da Amendoeira",3,37.1213509,-8.5729535,"Praceta do Facho","Alvor","8500-055","https://www.casafloramendoeira.com/","+351 933488718","Alvor",PT,""
"Paços Ferrara Hotel",3,41.2770879,-8.3747271,"Avenida 1º de Dezembro","Paços de Ferreira","4590-505","www.pacosferrarahotel.com","+351 255 962 548","Paços de Ferreira",PT,""
"Quinta Cabeço da Moita",3,39.5672344,-9.0526085,"","","","","+351 963 184 416","",PT,""
"Hotel Lisbon São Bento",3,38.7187473,-9.1556535,"","","","","","",PT,""
"Vila Garden",3,38.7304011,-9.1343047,"Avenida Almirante Reis","","","","","",PT,""
"Município De Belmonte",3,40.358387,-7.3513457,"Rua Pedro Álvares Cabral","","6250-031","","+351 275 910 010","",PT,""
"Hotel Poveira",1,41.1484064,-8.586273,"Rua da Estação","Porto","4300-171","www.hotelpoveira.com","+351 225 379 844","Porto",PT,""
"Residencial Mares",3,37.125001,-7.6464638,"","","","","","",PT,""
"Pousada Do Castelo",3,39.3634975,-9.1569767,"","","","","","",PT,"Q10352208"
"Hotel Rosa Mística",3,39.6277389,-8.6679653,"Rua Francisco Marto","","","","","",PT,""
"Hostel do Largo",3,37.0183405,-7.9271523,"","","","www.hosteldolargo.com","","",PT,""
"Smy Lisboa",4,38.72796,-9.1592442,"Rua da Artilharia 1","Lisboa","1070-015","https://www.smyhotels.com/en/smy-lisbon/","","Lisboa",PT,""
"Hotel da Estrela",4,38.7174908,-9.1593722,"Rua Saraiva de Carvalho","Lisboa","1250-242","","","Lisboa",PT,""
"The Lx Hill",2,38.7106355,-9.1468819,"Rua Doutor Luis de Almeida e Albuquerque","Lisboa","1200-154","","","Lisboa",PT,""
"Metrópole",3,38.7132844,-9.1398469,"Praça Dom Pedro IV","Lisboa","1100-200","","","Lisboa",PT,""
"My Story Hotel Tejo",3,38.7137304,-9.1366634,"Poço do Borratem","Lisboa","1100-240","https://www.mystoryhotels.com/en/my-story-hotel-tejo/","","Lisboa",PT,""
"Hotel do Chiado",4,38.7107197,-9.1394885,"Rua Nova do Almada","Lisboa","1200-290","","","Lisboa",PT,""
"My Story Hotel Ouro",3,38.7099659,-9.1381181,"Rua Áurea","Lisboa","1100-063","","","Lisboa",PT,""
"Hotel Inn Rossio",2,38.7137126,-9.1403467,"Rua 1º de Dezembro","Lisboa","1200-358","","","Lisboa",PT,""
"9 Hotel Mercy",5,38.7123473,-9.1429706,"Baixa-Chiado","Lisboa","1200-273","","","Lisboa",PT,""
"Lisboa Carmo Hotel",4,38.7122332,-9.1413777,"Rua da Oliveira ao Carmo","Lisboa","1200-307","","","Lisboa",PT,""
"Pensão Irmãos Unidos",3,39.4047505,-9.1327508,"Rua da Nazaré","Caldas da rainha","2500","","","Caldas da rainha",PT,""
"Sofitel Lisbon Liberdade",5,38.7186203,-9.1448636,"Avenida da Liberdade","Lisboa","1269-038","http://www.sofitel.com/gb/hotel-1319-sofitel-lisbon-liberdade/index.shtml","+351 213 228 300","Lisboa",PT,""
"Algarve Race Resort",3,37.2424886,-8.6254209,"","","","","","",PT,""
"Vista do Falcão Residences",3,37.2422458,-8.627701,"","","","","","",PT,""
"Caju Le Petit",4,32.648894,-16.9118049,"","","","","","",PT,""
"A Cadeia",3,40.1494194,-7.9233849,"","Fajão","","","","Fajão",PT,""
"WC Beautique Hotel Collection",3,38.7235887,-9.1353451,"Avenida Almirante Reis","Lisboa","1150-018","https://www.thebeautiquehotels.com/en/wc/","+351 210 537 002","Lisboa",PT,""
"Quinta Solar da Portela",3,37.5122206,-8.0716382,"","Almodovar","7700","","","Almodovar",PT,""
"Residencial Apartamentos Camões",3,37.5112928,-8.0670176,"Rua A do Maldonado","Almodovar","7700-012","https://www.atcamoes.com.pt/","+351 286 665 439","Almodovar",PT,""
"Companhia das Culturas - Eco-Design&SPA Hotel",3,37.1939033,-7.4882127,"","","","","","",PT,""
"Antiga Moagem",3,38.8301418,-7.8360667,"Largo do Areal","Vimieiro","7040-613","http://antigamoagem.com","+351933494685","Vimieiro",PT,""
"Vila Luena",3,41.6503306,-8.4362125,"Praça da República","","4730-732","","","",PT,""
"Oasis Hotel Vilamoura",3,37.0938525,-8.1257495,"Caminho do Lago","Vilamoura","8125-423","https://www.parquemourabel.com/","","Vilamoura",PT,""
"Casa do Médico de São Rafael",3,37.953665,-8.863741,"Quinta de S. Rafael","Sines","7520-266","","","Sines",PT,""
"Turim Santa Maria",3,32.6512219,-16.9034849,"Rua de João de Deus","","","","","",PT,"Q112011489"
"Residencial Ferrinho",3,40.5407135,-7.273018,"","","","","","",PT,""
"Hotel Esteva",3,37.7018179,-8.0835612,"","","","","","",PT,""
"Pensão Casa Palma",3,38.5691932,-7.9108546,"Rua Bernardo Matos","Évora","7000-652","https://casapalma29a.blogspot.pt/","+351 266 703 560","Évora",PT,""
"Residencial S. Luís",3,39.5146723,-7.6538033,"","","","","","",PT,""
"O Convento",3,39.8010633,-8.0999982,"","","","","","",PT,""
"Hotel Colina dos Mouros",3,37.1873422,-8.4339857,"","","","","","",PT,""
"Quinta da Espada",3,38.6000991,-7.9409398,"ER 114-4","Évora","7002-501","https://www.quintadaespada.pt/","+351 266734549","Évora",PT,""
"Quinta do Cano",3,38.6005477,-7.9425505,"ER 114-4","Évora","7000-173","https://www.quintadocano.com/","+351 969118520","Évora",PT,""
"Singular",3,41.2386307,-8.6671377,"Avenida do Aeroporto","Maia","4470-558","https://singularhotel.pt/","+351 309 750 135","Maia",PT,""
"Vila Verde Hotel",3,37.697973,-8.0876897,"","","","","","",PT,"Q112011222"
"Hotel Dom João III (Encerrado)",3,39.2985015,-7.428238,"","","","","","",PT,""
"Lar Verde",3,39.7988673,-8.091405,"","","","","","",PT,""
"Hotel ibis Lisboa Liberdade",2,38.7201743,-9.1502049,"Arroios","Lisboa","1250-043","http://www.ibis.com/pt/hotel-3137-ibis-lisboa-liberdade/index.shtml","+351 213 300 630","Lisboa",PT,""
"Lagunamar",3,37.0420419,-8.031783,"Urbanização Ancão Village","Almancil","8125","","","Almancil",PT,""
"Kr",3,37.0886185,-8.2342162,"","","","","","",PT,""
"Lisboa Garden Hostel",3,38.7207659,-9.1392906,"","","","","","",PT,""
"Solar da Cerca do Mosteiro",3,39.5469936,-8.9801244,"Rua Doutor Francisco Zagalo","Alcobaça","2460-041","","+351 262 505 310","Alcobaça",PT,"Q114705999"
"Hotel Hotel",3,38.7171496,-9.1440512,"Travessa da Glória","Lisboa","1250-118","https://www.hotelhotel.pt/","+351 211 164 120","Lisboa",PT,""
"NH Collection Lisboa Liberdade",4,38.7203393,-9.1446604,"Avenida da Liberdade","Lisboa","1250-146","https://www.nh-hoteles.pt/hotel/nh-collection-lisboa-liberdade","+351 213 514 060","Lisboa",PT,""
"Pax",1,38.7283386,-9.1374169,"Rua José Estevão","Lisboa","1150-202","","","Lisboa",PT,""
"Afrin Lisboa",2,38.7425111,-9.1348381,"Avenida João XXI","Areeiro","1000-301","https://hotelscheck-in.com/hotelafrinlisboa/en/","+351 21 848 5636","Areeiro",PT,""
"Herdade do Sobroso Wine Luxury Hotel & Villas",3,38.1820517,-7.5923979,"","Vidigueira","","https://www.herdadedosobroso.pt/","+351 284 456 116","Vidigueira",PT,""
"Casa do Mercado",3,38.7085907,-9.1475692,"","","","","","",PT,""
"Mercure",4,38.7376262,-9.1661233,"Avenida José Malhoa","Lisboa","1099-051","https://www.accorhotels.com/gb/hotel-3346-mercure-lisboa-hotel/index.shtml","+351 217 208 000","Lisboa",PT,""
"Essence Inn Marianos",4,39.6311677,-8.6772667,"","","","","","",PT,""
"Santo António",3,39.6323265,-8.6764097,"","","","","","",PT,""
"Fátima Guesthouse",3,39.6319372,-8.6756775,"Rua de São José","Fátima","2495-434","https://www.fatimaguesthouse.pt/pt","+351 924 713 914","Fátima",PT,""
"Alojamento local Dália",3,37.8178449,-25.5297024,"","","","","","",PT,""
"Martinhal Lisbon Cascais Family Resort",3,38.7018154,-9.4575105,"Rua do Clube","Cascais","2750-002","","","Cascais",PT,"Q111408600"
"Capital",1,38.73896,-9.1474566,"Avenida Elias Garcia","Lisboa","1050-097","","","Lisboa",PT,""
"Hotel Itália",3,38.737505,-9.1501919,"Avenida Visconde de Valmor","Lisboa","1050-239","www.hotelitalia.pt","+351 217 611 490","Lisboa",PT,""
"Hotel Alif Avenidas",4,38.7348933,-9.1504638,"Avenida Duque de Ávila","Lisboa","1050-082","https://www.alifhotels.com/pt/Alif/Hotel-Alif-Avenidas.aspx","+351 213 593 000","Lisboa",PT,""
"Pensão Residêncial Pátria",1,38.7353017,-9.1464664,"Avenida Duque de Ávila","Lisboa","1050-126","http://patriahotels.com","+351 213 193 410","Lisboa",PT,""
"Adega Típica",3,39.9125002,-8.435589,"","","","","","",PT,""
"Hotel Nazareth",2,38.731488,-9.1518301,"Avenida António Augusto Aguiar","Lisboa","1050-012","http://www.hotel-nazareth.com/","+351 213 542 016","Lisboa",PT,""
"Hotel Avenida Park",3,38.7282162,-9.1495031,"Avenida Sidónio Pais","Lisboa","1050-214","https://www.avenidapark.com","+351 213 532 181","Lisboa",PT,""
"Hotel Lisboa Central Park",3,38.7279193,-9.1492281,"Avenida Sidónio Pais","Lisboa","1050-214","https://www.lcpark.com/","+351 213 502 060","Lisboa",PT,""
"SANA Capitol Hotel",3,38.7272729,-9.1480095,"Rua Eça de Queiroz","Lisboa","1050-096","https://capitol.sanahotels.com/","+351 213 536 811","Lisboa",PT,""
"Hotel ibis Styles Lisboa Embaixador",3,38.7270702,-9.1461804,"Avenida Duque de Loulé","Lisboa","1050-088","https://www.accorhotels.com/pt/hotel-A146-ibis-styles-lisboa-embaixador/index.shtml","+351 213 194 000","Lisboa",PT,""
"Dom Carlos Park",3,38.7251972,-9.1480595,"Avenida Duque de Loulé","Lisboa","1050-089","https://www.hoteldomcarlospark.com","","Lisboa",PT,""
"Hotel Excelsior",3,38.7248292,-9.1479961,"Rua Rodrigues Sampaio","Lisboa","1150-282","https://www.hotelexcelsior-lisboa.com/","+351 213 188 040","Lisboa",PT,""
"Hotel Britania",4,38.7215442,-9.1456015,"Rua Rodrigues Sampaio","Lisboa","1150-278","https://www.hotel-britania.com/","+351 213 155 016","Lisboa",PT,"Q48869166"
"Hotel Dom Sancho I",2,38.721592,-9.1460229,"Avenida da Liberdade","Lisboa","1250-147","https://www.domsancho.com","+351 21 351 3160","Lisboa",PT,""
"Turim Av Liberdade Hotel",4,38.7237644,-9.1493593,"Avenida da Liberdade","Lisboa","1250-143","https://www.turim-hotels.com/hoteis/turim-av-liberdade-hotel-111","+351 211 589 270","Lisboa",PT,""
"Hotel PortoBay Marquês",4,38.723947,-9.1500037,"Rua Duque de Palmela","Lisboa","1250-098","https://www.portobay.com/en/hotels/lisbon-hotels/portobay-marques/","+351 210032700","Lisboa",PT,""
"Hotel Expo Astoria",3,38.723948,-9.1511061,"Rua Braamcamp","Lisboa","1250-050","https://hotelespoastoria.com-hotel.com/","+351 213 861 317","Lisboa",PT,""
"Flamingo Lisboa",3,38.7231998,-9.1521251,"Rua Castilho","Lisboa","1250-068","https://www.hotelflamingo.pt/","+351 213 841 200","Lisboa",PT,""
"AVANI Avenida Liberdade Lisbon Hotel",4,38.7203684,-9.1474315,"Rua Júlio César Machado","Lisboa","1250-135","https://www.minorhotels.com/pt/avani/lisbon","+351 213 591 000","Lisboa",PT,""
"Vintage Lisboa",5,38.719979,-9.1503962,"Rua Rodrigo da Fonseca","Lisboa","1250-191","https://www.thevintagelisbon.com/","","Lisboa",PT,""
"Oasis",3,40.3826253,-8.450034,"","","","","","",PT,""
"Atlantic Home Azores",3,37.7404366,-25.6643006,"","","","","","",PT,"Q112011511"
"Hotel O Gadanha",2,38.843653,-7.588497,"Largo General Graça","Estremoz","7100-112","","","Estremoz",PT,"Q111870904"
"The Prime (Hotel)",3,37.1810505,-7.4468541,"","","","","","",PT,""
"Hospedaria Rocha",3,38.01259,-7.8612646,"Largo Dom Nuno Alvares Pereira","","7800-018","","","",PT,""
"Bejense",3,38.0126621,-7.862835,"Rua Capitão João Francisco de Sousa","Beja","7800-451","https://hotelbejense.pt/","+351 284 311 570","Beja",PT,""
"Quinta da Mimosa",3,38.963739,-8.6088085,"","","","https://quintadamimosa.pt/","","",PT,""
"Alojamento Sudoeste",3,37.5253785,-8.7857201,"","","","https://www.alojamentosudoeste.com/","+351919207577","",PT,""
"Azen Cool House",3,38.8461194,-9.4530518,"Avenida Nossa Sra. da Esperança","","","https://www.azen.pt/","+35121 929 1220","",PT,""
"Quinta das Vessadas",3,41.0578271,-8.2554853,"","","","","","",PT,""
"Casa das Quintas",3,41.2441697,-6.7760377,"","","","","","",PT,""
"Hotel Mercure Gaia",3,41.1425617,-8.6377532,"","","","","","",PT,""
"Alvor Baía Resort Hotel",4,37.1299484,-8.580287,"Estrada de Alvor","Portimão","8500-001","","+351 282 450 000","Portimão",PT,""
"Residencia S. Francisco",3,39.6295753,-8.6715073,"Rua Francisco Marto","Fátima","2495-448","http://www.sfranciscofatima.com/","+351 249 533 017","Fátima",PT,""
"Utopia Hotel",3,37.3010521,-8.8485959,"","","","https://www.utopiahotel.pt","","",PT,""
"AR Country House (quinta do medronhal)",3,39.234265,-9.1015052,"Rua do Seixo","Cadaval","2550-132","https://www.arcountryhouse.com/","+351 262 698 492","Cadaval",PT,""
"Hospedaria do Carmo",3,38.1655646,-7.8944003,"","","","","","",PT,""
"Hotel Vila Sol (Pestana Vila Sol)",3,37.0917693,-8.0939013,"","","","","","",PT,""
"Pestana Vila Sol Golf (Club House)",3,37.0907451,-8.0941144,"","","","","","",PT,""
"Luna Hotel da Oura ****",4,37.0932629,-8.2322396,"","","","","","",PT,""
"Mourastock (Hotel Hilton)",3,37.0931098,-8.112062,"","","","","","",PT,""
"Quinta do Mosteiro",3,41.3832206,-8.223803,"","","","","","",PT,""
"Horus Apartments",3,41.3630666,-8.2005215,"","","","","","",PT,""
"Hotel Porto Rico",3,41.1486992,-8.6122074,"Rua do Almada","","","","","",PT,""
"Hotel Vila Galé Ribeira Porto",3,41.1456647,-8.6299658,"","","","","","",PT,""
"Martinhal Sagres Beach Family Resort",3,37.0218405,-8.9246266,"","","","","","",PT,""
"Casa da Eira",3,39.1971484,-9.0622174,"Rua Primeiro de Dezembro","Pragança","2550-371","https://www.casadaeiraportugal.com/guesthouse/","+351 939 555 200","Pragança",PT,""
"Quinta Santa Barbara Casas Turisticas",3,37.7501826,-25.5870541,"","","","","","",PT,""
"Quinta do Lago Verde",3,38.9637785,-8.5263197,"","","","","","",PT,""
"Cantinho da Luz",3,37.8111101,-25.6348041,"Avenida Eng. Arantes de Oliveira","Ponta Delgada, Sao Miguel, Azores","","","","Ponta Delgada, Sao Miguel, Azores",PT,""
"Hotel dos Loios",2,40.9262253,-8.544652,"Rua Doutor António Carlos Ferreira Soares","Santa Maria da Feira","4520-214","http://www.hoteldosloios.com","+351 256 379 570","Santa Maria da Feira",PT,""
"Hotel Minho de Vento",3,40.6560939,-7.9171643,"","","","","","",PT,""
"Hotel Bela Vista",2,40.6511933,-7.9167494,"","","","","","",PT,""
"Hotel Charme e Alegria",3,40.6565671,-7.9130731,"","","","","","",PT,""
"Hotel José Alberto",3,40.658341,-7.9192476,"","","","","","",PT,""
"Welcome inn Viseu",3,40.6579125,-7.9132011,"","","","","","",PT,""
"Pousada Moinho do Pedro",3,37.1583374,-8.3083295,"37.158333, -8.308333","","","","","",PT,""
"Casa do Rio Sorraia",3,38.9558342,-8.5313801,"","","","","","",PT,""
"Hotel Aeroporto",3,41.2396237,-8.6663301,"Rua de Pedras Rubras","","4470-639","https://www.hotelaeroporto.com.pt/","","",PT,""
"Casa do Engenho",3,41.3870596,-8.0138039,"Rua Dom Álvaro Coutinho “O Magriço”","","4890","","+351 933 180 120","",PT,""
"El Patio de Caetana",3,40.5843022,-6.8899802,"Rua da Lancha,s/n","","","","+351 936 040 683","",PT,""
"Hotel Rural Quinta de Samaiões",4,41.6983238,-7.476006,"Rua Doutor Francisco de Barros Teixeira","","5400-574","","+351 276 340 450","",PT,""
"Funchal Design",4,32.6489216,-16.9149251,"Rua da Alegria","Funchal (Sé)","9000-040","","","Funchal (Sé)",PT,"Q111871417"
"Petrus Hotel",3,41.7385131,-7.4711813,"Rua da Família Camões","Chaves","5400-239","http://www.petrushotel.com/","+351 276 351500","Chaves",PT,""
"Quinta da Fontoura",3,40.6300845,-8.4940705,"","","","https://quintadafontoura.pt/","","",PT,""
"Douro Palace Hotel Resort & Spa",4,41.109631,-8.0057869,"","","","https://www.douropalace.com/","","",PT,""
"Casa da Sé",3,40.6591968,-7.9119506,"","","","","","",PT,""
"Flor do Guadiana",3,37.644358,-7.6618467,"Estrada da Floresta","Mértola","7750-390","","","Mértola",PT,""
"Retiro da Avó Lídia",3,39.5018651,-8.8492133,"","","","","","",PT,"Q112010719"
"Artvilla",3,39.1964554,-9.0841359,"Largo da Nossa Sra. da Conceição","Vila Nova","2550-077","https://artvilla.pt/","+351 262 771 135","Vila Nova",PT,""
"Kualquer Koisa",3,40.4814167,-8.0912843,"EN 2","Tondela","","","","Tondela",PT,""
"Hotel Beira Dão",2,40.5264751,-7.9675347,"Rua de Baixo","Caldas de Sangemil","3460-160","https://www.hotelbeiradao.com/","+351 232 957 313;+351 232 952 361","Caldas de Sangemil",PT,""
"Casa do Lagar Miradoyro",3,40.53666,-8.2026001,"Rua Fonte da Bica","Jueus","3475 -038","https://www.casadolagarmiradoyro.pt/","+351 232 871 045;+351 232 095 203","Jueus",PT,""
"Casa Santa Catarina",3,40.0389296,-7.0169093,"","","","","","",PT,"Q112010970"
"Sé Boutique",3,32.6484863,-16.9072858,"Rua do Sabão","Funchal","9000-056","","","Funchal",PT,"Q111871412"
"Hotel Neptuno",3,39.3250705,-9.3489936,"","","","","","",PT,""
"Hotel Residencial Dona Teresa",3,41.2305769,-8.5726216,"","","","","","",PT,""
"A Cêpa",2,41.3392453,-8.5249373,"","","","","","",PT,""
"Quinta das Palmeiras",3,39.1105495,-8.7373871,"","","","","","",PT,""
"Umu",3,39.241554,-8.6937153,"","","","","","",PT,""
"SDivine Fátima Hotel",4,39.6340855,-8.685831,"","","","","","",PT,""
"The Editory Garden Funchal",3,32.6508873,-16.9044931,"Travessa do Rego","Funchal","9050-018","https://www.editoryhotels.com/garden-funchal/","","Funchal",PT,"Q111516027"
"Casa Velha do Palheiro",5,32.6580699,-16.8673664,"Rua de Estalagem","São Gonçalo","9060-415","https://www.casa-velha.com/","+351 291 790 350","São Gonçalo",PT,"Q111408869"
"easyHotel",3,38.7250815,-9.1462929,"Rua de Santa Marta","","1150-006","https://www.easyhotel.com/es/hotels/portugal","+351 21 052 0600","",PT,""
"A Casa do Lado",3,32.6481416,-16.9029476,"Rua de Santa Maria","","","","","",PT,""
"Hotel Jupiter",3,38.739622,-9.1458579,"Avenida da República","Lisboa","1050-195","","","Lisboa",PT,""
"Residência Maria José",3,39.6258192,-8.6653741,"","","","","","",PT,""
"A Casa de Ana",3,38.5699029,-7.9128912,"","","","","","",PT,""
"Estrella Heart apartaments",3,38.712163,-9.1617329,"","","","","","",PT,""
"Villa 3 Caparica",3,38.6328928,-9.1936619,"Rua Teresa Leitão Barros","Charneca de Caparica","2820-574","https://www.villa3caparica.com","+351 964 983 333","Charneca de Caparica",PT,""
"Lisbon serviced apartments",3,38.7107357,-9.1496915,"","","","","","",PT,""
"Casa Nobre do Correio-Mor",3,41.8078169,-8.419202,"","","","","","",PT,""
"Hotel Fonte Velha",3,41.8088285,-8.418121,"Rua Plácido Vasconcelos","Ponte da Barca","4980-637","","","Ponte da Barca",PT,""
"Salles",3,38.7313735,-27.0603219,"","","","","","",PT,""
"Herdade dos Mestres",3,38.5629772,-7.4320963,"Estrada Nacional 255","Santiago Maior","7200-016","https://www.herdadedosmestres.pt/","+351 268 102 528","Santiago Maior",PT,""
"Lisotel",4,39.8074858,-8.8425693,"Regueira de Pontes","Leiria","","https://www.lisotel.com/","+351244820460","Leiria",PT,""
"MyStay Batalha",3,41.1456803,-8.6079165,"Rua da Madeira","Porto","","","","Porto",PT,""
"Hotel Virgem Maria",3,39.6273845,-8.6707432,"","","","","","",PT,""
"Dom Gonçalo",4,39.634519,-8.6822411,"","","","","","",PT,""
"Hotel Aurea",4,39.6319626,-8.6814089,"","","","","","",PT,""
"Pousada Convento de Belmonte",3,40.3438031,-7.3606592,"Serra da Esperança","Belmonte","6250-909","","","Belmonte",PT,""
"Hotel Santa Clara",3,38.2106974,-7.8049774,"Rua do Matadouro","Vidigueira","7960-263","https://www.hotelsantaclaravidigueira.com/","+351 284 436 146","Vidigueira",PT,"Q112011010"
"Casa 1855",3,37.1505855,-7.8888491,"","","","","","",PT,""
"Hotel São Neutel",3,41.7491159,-7.4636887,"Avenida 5 de Outubro","Chaves","5400-017","","+351 276 333632","Chaves",PT,""
"Quintados Tesouros",3,37.1693033,-7.9014835,"Sitio do Tesoureiro","","","www.quintadostesouros.pt","+351289842581","",PT,""
"Tryp Porto Centro",3,41.1571061,-8.6021568,"Rua da Alegria","","","","+351 22 519 48 00","",PT,""
"Legendary",3,41.1456976,-8.6074776,"Praça da Batalha","Porto","4000-102","https://www.legendaryportohotel.com/EN/hotel.html","+351 22 339 2300","Porto",PT,""
"Turim Marquês Hotel",3,38.7230262,-9.1503818,"Rua Mouzinho Da Silveira","Lisboa","1250-167","https://www.turim-hotels.com/hotels/-141","+351 215998814","Lisboa",PT,""
"Monteneve",3,40.4937579,-7.5925768,"","","","","","",PT,""
"Figueira Beautique Hotel",3,38.7132843,-9.1375206,"","","","","","",PT,""
"Horta de Torrejais",3,38.1477739,-7.4731036,"Estrada da Barca, Apartado","Moura","7860-909","","","Moura",PT,""
"Boutique Hotel Vivenda Miranda",3,37.0851395,-8.6822529,"","","","","","",PT,""
"Ibis Porto Centro São Bento",3,41.1470066,-8.6040617,"Rua da Alegria","Porto","4000-041","https://all.accor.com/hotel/3344/index.en.shtml?utm_campaign=seo+maps&utm_medium=seo+maps&utm_source=google+Maps","","Porto",PT,""
"Adelaide",3,41.7257181,-8.1649328,"","","","","","",PT,"Q111871251"
"Guest House Esplanada",3,39.8175385,-7.4976453,"Rua Doutor Antonio dos Santos Amaral","Castelo Branco","","","+351 926 048 427","Castelo Branco",PT,""
"Vilaportuguesa",3,39.6525645,-7.6730878,"Rua das Pesqueiras","6030-233 Old Town of Ródão","","","+351 272 541 138","6030-233 Old Town of Ródão",PT,""
"Paradise Beach House",3,38.6446187,-9.2312101,"R. do Juncal","Costa da Caparica","2825-352","","","Costa da Caparica",PT,""
"Akisol Caparica In II",3,38.6451329,-9.2315052,"R. António Correia","Costa da Caparica","2825-291","","","Costa da Caparica",PT,""
"Caparica Sun Centre",3,38.6588654,-9.2394551,"Rua Bernardo Santareno","","","","","",PT,""
"Mar e Sol Residencial",3,38.6440239,-9.234246,"Rua dos Pescadores","Costa da Caparica","2825-322","","","Costa da Caparica",PT,""
"Hotel Universal",3,41.1472091,-8.6108843,"Avenida dos Aliados","Porto","","","","Porto",PT,""
"Kuta Beach House",3,38.6453386,-9.2351712,"Rua Bulhão Pato","Costa da Caparica","2825-394","","","Costa da Caparica",PT,""
"Real Caparica Hotel",3,38.6430547,-9.2364334,"Rua do Mestre Manuel","Costa da Caparica","2825-358","","","Costa da Caparica",PT,""
"Casa do alfaiate home and breakfast",3,38.6823406,-9.1596293,"Travessa do Campo","Almada","2800-050","","","Almada",PT,""
"Solar da Charneca",3,39.7339719,-8.7567357,"","","","","","",PT,""
"Cristo Rei Casa Vacanze",3,38.6788719,-9.1660907,"R. Raúl Flores","Almada","2800-071","","","Almada",PT,""
"Charneca da Caparica Apartment",3,38.6307023,-9.193943,"Praceta Luís Galhardo","Charneca de Caparica","2820-454","","","Charneca de Caparica",PT,""
"Trevo Desperto - Lar de Idosos",3,38.6403664,-9.1740161,"Rua dos Lusíadas","","","","","",PT,""
"Mélita - Lar de Idosos",3,38.6407083,-9.1725996,"Rua dos Lusíadas","","","","","",PT,""
"Albergaria D. Dinis",3,39.6765249,-8.1429827,"","","","","+351 961 485 129","",PT,""
"Hospedaria Dom Carlos",3,38.7786613,-7.4190483,"Praça da Republica","Vila Viçosa","","","+351 268 980 318","Vila Viçosa",PT,""
"Correo Hostel",3,37.1371951,-8.0187422,"avenida José da costa Almeida","","","","","",PT,""
"Pensão Milanesa Residencial",3,38.7175684,-9.1463313,"Rua da Alegria 25","Lisbon","1250-005","https://milanesa.pt","+351 21 346 6456","Lisbon",PT,""
"Casa Penedo da Saudade",3,41.7661488,-8.8555565,"","","","","","",PT,""
"Descobertas",4,41.1406411,-8.6134118,"Rua da Fonte Taurina","","","","","",PT,""
"Messe",3,41.1444714,-8.6067203,"","","","","","",PT,""
"Pestana Churchill Bay - Reception",3,32.6480912,-16.9754876,"Rua da Nossa Senhora da Conceição","Câmara de Lobos","9300-113","https://www.pousadas.pt/pt/hotel/pestana-churchill-bay","","Câmara de Lobos",PT,""
"Original Douro Hotel",3,41.1605692,-7.7865748,"","","","https://originaldourohotel.com","","",PT,""
"Rocha Brava",3,37.0917351,-8.4447854,"","","","","","",PT,""
"Vale do Zêzere",3,40.3950926,-7.5377548,"Rua Grande Povoas","","","","+351275982002","",PT,""
"INNature Green",3,37.7418851,-25.6618776,"Rua do Meio","Ponta Delgada (São Pedro)","9500-325","https://www.innature.com.pt","","Ponta Delgada (São Pedro)",PT,""
"INNature Blue",3,37.7418946,-25.6617931,"Rua do Meio","Ponta Delgada (São Pedro)","9500-325","https://www.innature.com.pt","","Ponta Delgada (São Pedro)",PT,""
"Almalusa Baixia/Chiado",3,38.7083269,-9.1394763,"","","","https://www.almalusahotels.com/en/hotel","","",PT,""
"Galicia Guesthouse",3,41.6891106,-8.1722918,"Lugar dos Bairros","Vilar da Veiga","4845","https://www.galiciaguesthouse.pt/","+351 253391378","Vilar da Veiga",PT,""
"Porto River",4,41.1406167,-8.6126145,"","Porto","","","","Porto",PT,""
"Villa Facho",3,37.1221121,-8.5704491,"","","","","","",PT,""
"Hotel Privatti",3,41.1460655,-8.6072693,"Rua 31 de Janeiro","Porto","4000-542","","","Porto",PT,""
"Hotel Afonso III",3,37.0203293,-7.9400337,"","","","","","",PT,"Q111871379"
"Feels Like Home Welcome Center",3,38.7177691,-9.1427811,"Avenida da Liberdade","","1250-145","https://www.feelslikehome.pt/","+351218872742","",PT,""
"Hotel das Termas",3,41.7377639,-7.4695067,"Rua do Tabolado","Chaves","5400-524","http://www.hoteltermas.pt/","+351 276 333280","Chaves",PT,""
"Porto Trindade Hotel",3,41.1530569,-8.6103268,"Rua de Camões","","","","","",PT,""
"Castelo Hotel",3,41.7404724,-7.47279,"Rua da Muralha","Chaves","5400-414","https://castelohotel.pt/","+351 276 249270","Chaves",PT,""
"Design Palacio Flats",3,41.1432976,-8.6088473,"","","","","","",PT,""
"Casadacidade",3,37.7426078,-25.6712729,"Rua Dr. Aristides Moreira da Mota","Ponta Delgada","9500-054","https://www.casadacidade.pt","+351917523261","Ponta Delgada",PT,"Q112011516"
"Monte do Alento",3,37.5668525,-8.299204,"Castro da Cola","Ourique","7670-201","https://www.alentohotels.com/","+351 910 695 378","Ourique",PT,""
"Toutuço",3,40.9094051,-8.2662429,"","","","","","",PT,""
"O Padeiro",3,40.820475,-7.536826,"avenida dos combatentes do ultramar","Aguiar da Beira","3570-214","https://www.panifexopadeiro.pt/","+351 232 688 215","Aguiar da Beira",PT,""
"Loulé Inn Algarve",3,37.1367204,-8.0174875,"Avenida José da Costa Mealha","","","","+351289411091","",PT,""
"Eurostars Aliados",5,41.1488839,-8.6114565,"Avenida dos Aliados","Porto","4000-067","","","Porto",PT,""
"Casa da Madrinha",3,39.0472521,-27.9793933,"Fonte do Mato","Praia (São Mateus)","9880-234","","","Praia (São Mateus)",PT,""
"Yes Pico",3,38.5467978,-28.3995025,"","","","","","",PT,""
"Hotel Fafense",3,41.4521102,-8.1684074,"","","","","","",PT,""
"Casa da Figueira",3,41.6232295,-8.2618403,"Rua do Correlo","Rendufinho","4830-628","","","Rendufinho",PT,""
